Vers 72
USE_SERIAL_FEEDBACK=true
DEVELOPMENT_MODE=false
USE_RMC_ONLY=false

$GPRMC,221237.000,A,4305.1457,N,07740.8141,W,0.33,58.46,110925,,,A*47
$GPGGA,221237.250,4305.1457,N,07740.8141,W,1,04,2.05,64.4,M,-34.4,M,,*68
$GPRMC,221237.500,A,4305.1456,N,07740.8141,W,0.30,65.32,110925,,,A*4D
$GPGGA,221237.750,4305.1456,N,07740.8142,W,1,04,2.05,65.0,M,-34.4,M,,*6A
$GPGGA,221239.250,4305.1454,N,07740.8148,W,1,04,2.05,67.3,M,-34.4,M,,*68
$GPRMC,221239.250,A,4305.1454,N,07740.8148,W,0.26,72.80,110925,,,A*42
$GPGGA,221239.500,4305.1453,N,07740.8150,W,1,04,2.05,67.8,M,-34.4,M,,*6F
$GPRMC,221239.500,A,4305.1453,N,07740.8150,W,0.22,75.00,110925,,,A*45
$GPGGA,221241.500,4305.1451,N,07740.8163,W,1,04,2.05,71.2,M,-34.4,M,,*6F
$GPRMC,221241.500,A,4305.1451,N,07740.8163,W,0.15,33.16,110925,,,A*49
$GPGGA,221241.750,4305.1451,N,07740.8163,W,1,04,2.05,71.6,M,-34.4,M,,*6C
$GPRMC,221241.750,A,4305.1451,N,07740.8163,W,0.21,30.46,110925,,,A*4F
$GPGGA,221245.000,4305.1463,N,07740.8174,W,1,04,6.58,73.4,M,-34.4,M,,*61
$GPRMC,221245.000,A,4305.1463,N,07740.8174,W,1.18,356.47,110925,,,A*77
$GPGGA,221245.250,4305.1464,N,07740.8175,W,1,04,6.58,73.9,M,-34.4,M,,*6D
$GPRMC,221245.250,A,4305.1464,N,07740.8175,W,1.21,358.43,110925,,,A*76
$GPGGA,221249.250,4305.1467,N,07740.8187,W,1,04,2.05,75.7,M,-34.4,M,,*6B
$GPRMC,221249.250,A,4305.1467,N,07740.8187,W,0.54,313.60,110925$GPGGA,221249.500,4305.1466,N,07740.8188,W,1,04,2.05,75.7,M,-34.4,M,,*67
$GPRMC,221249.750,A,4305.1466,N,07740.8188,W,0.48,294.81,110925,,,A*7E
$GPGGA,221250.000,4305.1465,N,07740.8189,W,1,04,2.04,75.6,M,-34.4,M,,*68
$GPGGA,221253.000,4305.1462,N,07740.8202,W,1,04,2.04,76.0,M,-34.4,M,,*69
$GPRMC,221253.000,A,4305.1462,N,07740.8202,W,0.81,268.83,110925,,,A*76
$GPGGA,221253.250,4305.1464,N,07740.8207,W,1,04,2.04,76.2,M,-34.4,M,,*6F
$GPRMC,221253.250,A,4305.1464,N,07740.8207,W,1.02,277.12,110925,,,A*7E
$GPGGA,221254.000,4305.1466,N,07740.8216,W,1,04,2.04,76.6,M,-34.4,M,,*69
$GPRMC,221254.000,A,4305.1466,N,07740.8216,W,1.30,283.38,110925,,,A*7E
$GPGGA,221254.250,4305.1470,N,07740.8220,W,1,04,2.04,77.0,M,-34.4,M,,*6B
$GPRMC,221254.250,A,4305.1470,N,07740.8220,W,1.46,294.87,110925,,,A*78
$GPGGA,221254.750,4305.1474,N,07740.8235,W,1,04,2.04,77.8,M,-34.4,M,,*66
$GPRMC,221254.750,A,4305.1474,N,07740.8235,W,2.18,296.30,110925$GPGGA,221255.000,4305.1477,N,07740.8243,W,1,04,2.04,78.1,M,-34.4,M,,*61
$GPRMC,221255.250,A,4305.1480,N,07740.8250,W,3.43,299.65,110925,,,A*77
$GPGGA,221255.500,4305.1483,N,07740.8256,W,1,04,2.04,78.8,M,-34.4,M,,*62
$GPRMC,221255.750,A,4305.1485,N,07740.8263,W,4.87,301.69,110925,,,A*74
$GPGGA,221256.000,4305.1487,N,07740.8270,W,1,04,6.69,79.3,M,-34.4,M,,*61
$GPRMC,221256.250,A,4305.1489,N,07740.8277,W,6.10,298.03,110925,,,A*7A
$GPGGA,221256.500,4305.1492,N,07740.8283,W,1,04,2.04,79.8,M,-34.4,M,,*68
$GPRMC,221256.750,A,4305.1494,N,07740.8290,W,6.59,297.65,110925,,,A*78
$GPGGA,221257.000,4305.1496,N,07740.8298,W,1,04,6.70,80.1,M,-34.4,M,,*6A
$GPRMC,221257.250,A,4305.1498,N,07740.8305,W,7.22,295.03,110925,,,A*72
$GPGGA,221257.500,4305.1500,N,07740.8312,W,1,04,6.71,80.3,M,-34.4,M,,*61
$GPRMC,221257.750,A,4305.1502,N,07740.8321,W,7.60,294.17,110925,,,A*71
$GPGGA,221258.000,4305.1503,N,07740.8332,W,1,04,6.71,81.0,M,-34.4,M,,*68
$GPRMC,221258.250,A,4305.1506,N,07740.8342,W,8.55,291.25,110925,,,A*77
$GPGGA,221258.500,4305.1508,N,07740.8351,W,1,04,2.04,81.5,M,-34.4,M,,*60
$GPRMC,221258.750,A,4305.1509,N,07740.8359,W,8.50,289.14,110925,,,A*79
$GPGGA,221259.000,4305.1509,N,07740.8367,W,1,04,6.72,81.8,M,-34.4,M,,*68
$GPRMC,221259.250,A,4305.1509,N,07740.8377,W,8.13,282.37,110925,,,A*7C
$GPGGA,221259.500,4305.1508,N,07740.8390,W,1,04,6.73,82.7,M,-34.4,M,,*69
$GPRMC,221259.750,A,4305.1506,N,07740.8403,W,9.12,272.95,110925,,,A*75
$GPGGA,221300.000,4305.1506,N,07740.8415,W,1,04,6.73,84.0,M,-34.4,M,,*64
$GPRMC,221300.250,A,4305.1505,N,07740.8427,W,9.64,269.35,110925,,,A*79
$GPGGA,221300.500,4305.1504,N,07740.8439,W,1,04,6.74,85.5,M,-34.4,M,,*6E
$GPRMC,221300.750,A,4305.1504,N,07740.8451,W,9.71,267.00,110925,,,A*70
$GPGGA,221301.000,4305.1503,N,07740.8462,W,1,04,6.75,86.7,M,-34.4,M,,*63
$GPRMC,221301.250,A,4305.1501,N,07740.8474,W,9.70,264.25,110925,,,A*73
$GPGGA,221301.500,4305.1501,N,07740.8485,W,1,04,2.04,87.8,M,-34.4,M,,*61
$GPRMC,221301.750,A,4305.1499,N,07740.8495,W,9.62,262.99,110925,,,A*7B
$GPGGA,221302.000,4305.1498,N,07740.8505,W,1,04,6.76,88.3,M,-34.4,M,,*6A
$GPRMC,221302.250,A,4305.1497,N,07740.8514,W,9.86,261.70,110925,,,A*75
$GPGGA,221302.500,4305.1496,N,07740.8525,W,1,04,6.76,88.8,M,-34.4,M,,*68
$GPRMC,221302.750,A,4305.1495,N,07740.8536,W,10.07,261.97,110925,,,A*4A
$GPGGA,221303.000,4305.1495,N,07740.8548,W,1,04,6.77,89.6,M,-34.4,M,,*6A
$GPRMC,221303.250,A,4305.1495,N,07740.8559,W,10.07,265.64,110925,,,A*4F
$GPGGA,221303.500,4305.1495,N,07740.8568,W,1,04,2.04,89.9,M,-34.4,M,,*62
$GPRMC,221303.750,A,4305.1494,N,07740.8578,W,9.40,262.08,110925,,,A*7E
$GPGGA,221304.000,4305.1495,N,07740.8577,W,1,04,2.04,89.9,M,-34.4,M,,*6E
$GPRMC,221304.250,A,4305.1500,N,07740.8584,W,5.22,279.49,110925,,,A*74
$GPGGA,221304.500,4305.1502,N,07740.8600,W,1,04,2.04,89.7,M,-34.4,M,,*69
$GPRMC,221304.750,A,4305.1507,N,07740.8606,W,3.99,2.86,110925,,,A*74
$GPGGA,221305.000,4305.1510,N,07740.8614,W,1,04,6.79,89.4,M,-34.4,M,,*66
$GPRMC,221305.250,A,4305.1514,N,07740.8616,W,5.82,24.20,110925,,,A*47
$GPGGA,221305.500,4305.1520,N,07740.8617,W,1,04,2.04,89.3,M,-34.4,M,,*6A
$GPRMC,221305.750,A,4305.1530,N,07740.8619,W,7.87,4.44,110925,,,A*7C
$GPGGA,221306.000,4305.1540,N,07740.8624,W,1,04,6.80,89.4,M,-34.4,M,,*65
$GPRMC,221306.250,A,4305.1548,N,07740.8629,W,10.90,341.30,110925,,,A*47
$GPGGA,221306.500,4305.1553,N,07740.8633,W,1,04,2.04,89.4,M,-34.4,M,,*6C
$GPRMC,221306.750,A,4305.1560,N,07740.8634,W,11.44,335.39,110925,,,A*46
$GPGGA,221307.000,4305.1566,N,07740.8635,W,1,04,2.04,89.5,M,-34.4,M,,*69
$GPRMC,221307.250,A,4305.1573,N,07740.8635,W,11.07,336.82,110925,,,A*45
$GPGGA,221307.500,4305.1580,N,07740.8637,W,1,04,2.04,89.5,M,-34.4,M,,*66
$GPRMC,221307.750,A,4305.1588,N,07740.8642,W,11.50,335.32,110925,,,A*4E
$GPGGA,221308.000,4305.1597,N,07740.8647,W,1,04,2.04,89.5,M,-34.4,M,,*6D
$GPRMC,221308.250,A,4305.1607,N,07740.8652,W,13.05,333.87,110925,,,A*4B
$GPGGA,221308.500,4305.1616,N,07740.8656,W,1,04,2.04,89.6,M,-34.4,M,,*61
$GPRMC,221308.750,A,4305.1625,N,07740.8657,W,13.65,335.29,110925,,,A*4F
$GPGGA,221309.000,4305.1634,N,07740.8656,W,1,04,6.83,89.8,M,-34.4,M,,*60
$GPRMC,221309.250,A,4305.1642,N,07740.8655,W,13.24,339.81,110925,,,A*43
$GPGGA,221309.500,4305.1650,N,07740.8658,W,1,04,2.04,90.0,M,-34.4,M,,*62
$GPRMC,221309.750,A,4305.1659,N,07740.8658,W,12.75,344.30,110925,,,A*44
$GPGGA,221310.000,4305.1668,N,07740.8659,W,1,04,2.04,90.1,M,-34.4,M,,*64
$GPRMC,221310.250,A,4305.1676,N,07740.8659,W,12.49,348.28,110925,,,A*4F
$GPGGA,221310.500,4305.1684,N,07740.8660,W,1,04,6.85,90.1,M,-34.4,M,,*64
$GPRMC,221310.750,A,4305.1692,N,07740.8660,W,12.14,350.82,110925,,,A*4B
$GPGGA,221311.000,4305.1700,N,07740.8660,W,1,04,6.86,90.0,M,-34.4,M,,*6F
$GPRMC,221311.250,A,4305.1709,N,07740.8660,W,12.21,351.79,110925,,,A*4F
$GPGGA,221311.500,4305.1718,N,07740.8661,W,1,04,6.86,89.9,M,-34.4,M,,*63
$GPRMC,221311.750,A,4305.1728,N,07740.8660,W,13.00,351.69,110925,,,A*4A
$GPGGA,221312.000,4305.1739,N,07740.8660,W,1,04,6.87,89.8,M,-34.4,M,,*67
$GPRMC,221312.250,A,4305.1750,N,07740.8659,W,14.20,351.46,110925,,,A*41
$GPGGA,221312.500,4305.1760,N,07740.8660,W,1,04,6.87,89.8,M,-34.4,M,,*6E
$GPRMC,221312.750,A,4305.1771,N,07740.8661,W,14.88,351.02,110925,,,A*4E
$GPGGA,221313.000,4305.1782,N,07740.8661,W,1,04,6.88,89.9,M,-34.4,M,,*69
$GPRMC,221313.250,A,4305.1793,N,07740.8660,W,15.30,353.07,110925,,,A*42
$GPGGA,221313.500,4305.1804,N,07740.8661,W,1,04,6.88,89.9,M,-34.4,M,,*6D
$GPRMC,221313.750,A,4305.1815,N,07740.8661,W,15.36,354.55,110925,,,A*41
$GPGGA,221314.000,4305.1825,N,07740.8662,W,1,04,6.89,90.0,M,-34.4,M,,*6F
$GPRMC,221314.250,A,4305.1836,N,07740.8662,W,15.48,354.59,110925,,,A*44
$GPGGA,221314.500,4305.1846,N,07740.8663,W,1,04,6.90,90.0,M,-34.4,M,,*66
$GPRMC,221314.750,A,4305.1856,N,07740.8664,W,15.54,353.01,110925,,,A*46
$GPGGA,221315.000,4305.1867,N,07740.8666,W,1,04,6.90,89.9,M,-34.4,M,,*65
$GPRMC,221315.250,A,4305.1878,N,07740.8668,W,15.82,351.26,110925,,,A*4E
$GPGGA,221315.500,4305.1889,N,07740.8669,W,1,04,6.91,89.9,M,-34.4,M,,*6E
$GPRMC,221315.750,A,4305.1901,N,07740.8670,W,16.04,352.62,110925,,,A*43
$GPGGA,221316.000,4305.1913,N,07740.8669,W,1,04,6.91,89.8,M,-34.4,M,,*6B
$GPRMC,221316.250,A,4305.1925,N,07740.8669,W,16.13,357.30,110925,,,A*4F
$GPGGA,221316.500,4305.1936,N,07740.8669,W,1,04,6.92,89.7,M,-34.4,M,,*65
$GPRMC,221316.750,A,4305.1948,N,07740.8668,W,16.20,357.66,110925,,,A*43
$GPGGA,221317.000,4305.1959,N,07740.8669,W,1,04,6.93,89.6,M,-34.4,M,,*68
$GPRMC,221317.250,A,4305.1970,N,07740.8669,W,16.28,355.88,110925,,,A*47
$GPGGA,221317.500,4305.1981,N,07740.8670,W,1,04,6.93,89.5,M,-34.4,M,,*63
$GPRMC,221317.750,A,4305.1992,N,07740.8671,W,16.35,353.61,110925,,,A*4A
$GPGGA,221318.000,4305.2002,N,07740.8672,W,1,04,6.94,89.5,M,-34.4,M,,*6D
$GPRMC,221318.250,A,4305.2013,N,07740.8673,W,16.53,352.69,110925,,,A*48
$GPGGA,221318.500,4305.2024,N,07740.8673,W,1,04,6.94,89.3,M,-34.4,M,,*6B
$GPRMC,221318.750,A,4305.2036,N,07740.8673,W,16.67,354.42,110925,,,A*42
$GPGGA,221319.000,4305.2047,N,07740.8673,W,1,04,6.95,89.2,M,-34.4,M,,*6A
$GPRMC,221319.250,A,4305.2058,N,07740.8672,W,16.52,358.08,110925,,,A*4B
$GPGGA,221319.500,4305.2070,N,07740.8669,W,1,04,6.96,89.1,M,-34.4,M,,*60
$GPRMC,221319.750,A,4305.2082,N,07740.8667,W,16.76,0.92,110925,,,A*46
$GPGGA,221320.000,4305.2094,N,07740.8664,W,1,04,6.96,88.9,M,-34.4,M,,*61
$GPRMC,221320.250,A,4305.2106,N,07740.8662,W,17.07,0.09,110925,,,A*44
$GPGGA,221320.500,4305.2118,N,07740.8661,W,1,04,6.97,88.7,M,-34.4,M,,*6B
$GPRMC,221320.750,A,4305.2131,N,07740.8660,W,17.29,359.21,110925,,,A*4E
$GPGGA,221321.000,4305.2143,N,07740.8659,W,1,04,6.97,88.6,M,-34.4,M,,*6B
$GPRMC,221321.250,A,4305.2155,N,07740.8659,W,17.42,357.62,110925,,,A*46
$GPGGA,221321.500,4305.2167,N,07740.8660,W,1,04,6.98,88.5,M,-34.4,M,,*6E
$GPRMC,221321.750,A,4305.2180,N,07740.8662,W,17.69,356.13,110925,,,A*4D
$GPGGA,221322.000,4305.2192,N,07740.8664,W,1,04,6.99,88.4,M,-34.4,M,,*66
$GPRMC,221322.250,A,4305.2204,N,07740.8667,W,17.72,354.83,110925,,,A*40
$GPGGA,221322.500,4305.2216,N,07740.8669,W,1,04,6.99,88.4,M,-34.4,M,,*61
$GPRMC,221322.750,A,4305.2229,N,07740.8672,W,17.48,354.75,110925,,,A*4E
$GPGGA,221323.000,4305.2240,N,07740.8672,W,1,04,7.00,88.1,M,-34.4,M,,*68
$GPRMC,221323.250,A,4305.2251,N,07740.8672,W,16.84,355.19,110925,,,A*4F
$GPGGA,221323.500,4305.2262,N,07740.8674,W,1,04,7.00,87.7,M,-34.4,M,,*62
$GPRMC,221323.750,A,4305.2273,N,07740.8675,W,16.85,353.52,110925,,,A*45
$GPGGA,221324.000,4305.2284,N,07740.8677,W,1,04,7.01,87.5,M,-34.4,M,,*68
$GPRMC,221324.250,A,4305.2294,N,07740.8679,W,16.80,350.84,110925,,,A*4F
$GPGGA,221324.500,4305.2305,N,07740.8680,W,1,04,7.02,87.4,M,-34.4,M,,*6F
$GPRMC,221324.750,A,4305.2315,N,07740.8681,W,16.14,350.71,110925,,,A*42
$GPGGA,221325.000,4305.2325,N,07740.8682,W,1,04,7.02,87.3,M,-34.4,M,,*6C
$GPRMC,221325.250,A,4305.2334,N,07740.8684,W,15.13,351.13,110925,,,A*41
$GPGGA,221325.500,4305.2343,N,07740.8685,W,1,04,7.03,87.2,M,-34.4,M,,*6E
$GPRMC,221325.750,A,4305.2351,N,07740.8685,W,13.83,351.75,110925,,,A*49
$GPGGA,221326.000,4305.2358,N,07740.8682,W,1,04,7.03,87.2,M,-34.4,M,,*65
$GPRMC,221326.250,A,4305.2365,N,07740.8680,W,12.13,354.28,110925,,,A*48
$GPGGA,221326.500,4305.2373,N,07740.8678,W,1,04,7.04,86.9,M,-34.4,M,,*61
$GPRMC,221326.750,A,4305.2379,N,07740.8678,W,10.95,356.69,110925,,,A*4C
$GPGGA,221327.000,4305.2383,N,07740.8681,W,1,04,7.05,86.6,M,-34.4,M,,*62
$GPRMC,221327.250,A,4305.2387,N,07740.8684,W,9.05,352.66,110925,,,A*70
$GPGGA,221327.500,4305.2392,N,07740.8685,W,1,04,7.05,86.4,M,-34.4,M,,*61
$GPRMC,221327.750,A,4305.2395,N,07740.8688,W,7.77,351.98,110925,,,A*73
$GPGGA,221328.000,4305.2398,N,07740.8691,W,1,04,7.06,86.2,M,-34.4,M,,*61
$GPRMC,221328.250,A,4305.2400,N,07740.8694,W,6.17,349.49,110925,,,A*7D
$GPGGA,221328.500,4305.2402,N,07740.8696,W,1,04,7.06,86.1,M,-34.4,M,,*64
$GPRMC,221328.750,A,4305.2403,N,07740.8698,W,4.75,347.21,110925,,,A*71
$GPGGA,221329.000,4305.2405,N,07740.8698,W,1,04,7.07,86.3,M,-34.4,M,,*6A
$GPRMC,221329.250,A,4305.2409,N,07740.8698,W,4.57,352.98,110925,,,A*79
$GPGGA,221329.500,4305.2412,N,07740.8699,W,1,04,7.08,86.3,M,-34.4,M,,*67
$GPRMC,221329.750,A,4305.2414,N,07740.8699,W,4.25,358.80,110925,,,A*77
$GPGGA,221330.000,4305.2414,N,07740.8701,W,1,04,7.08,86.4,M,-34.4,M,,*6B
$GPRMC,221330.250,A,4305.2415,N,07740.8703,W,2.75,13.23,110925,,,A*4F
$GPGGA,221330.500,4305.2417,N,07740.8704,W,1,04,2.04,86.5,M,-34.4,M,,*60
$GPRMC,221330.750,A,4305.2419,N,07740.8705,W,2.75,13.23,110925,,,A*40
$GPGGA,221331.000,4305.2421,N,07740.8705,W,1,04,2.04,86.5,M,-34.4,M,,*60
$GPRMC,221331.250,A,4305.2424,N,07740.8703,W,3.14,22.92,110925,,,A*42
$GPGGA,221331.500,4305.2427,N,07740.8700,W,1,04,2.04,86.6,M,-34.4,M,,*65
$GPRMC,221331.750,A,4305.2432,N,07740.8696,W,4.12,31.39,110925,,,A*4F
$GPGGA,221332.000,4305.2438,N,07740.8690,W,1,04,2.04,86.7,M,-34.4,M,,*64
$GPRMC,221332.250,A,4305.2443,N,07740.8685,W,5.50,36.22,110925,,,A*47
$GPGGA,221332.500,4305.2449,N,07740.8678,W,1,04,2.04,86.7,M,-34.4,M,,*61
$GPRMC,221332.750,A,4305.2457,N,07740.8668,W,7.33,40.32,110925,,,A*43
$GPGGA,221333.000,4305.2465,N,07740.8652,W,1,04,2.04,86.9,M,-34.4,M,,*6D
$GPRMC,221333.250,A,4305.2470,N,07740.8634,W,10.12,55.85,110925,,,A*76
$GPGGA,221333.500,4305.2475,N,07740.8619,W,1,04,2.04,86.9,M,-34.4,M,,*66
$GPRMC,221333.750,A,4305.2480,N,07740.8600,W,12.32,62.03,110925,,,A*71
$GPGGA,221334.000,4305.2484,N,07740.8584,W,1,04,7.13,86.5,M,-34.4,M,,*62
$GPRMC,221334.250,A,4305.2489,N,07740.8565,W,14.26,66.15,110925,,,A*7A
$GPGGA,221334.500,4305.2492,N,07740.8547,W,1,04,2.04,86.3,M,-34.4,M,,*6A
$GPRMC,221334.750,A,4305.2496,N,07740.8528,W,15.94,68.99,110925,,,A*7A
$GPGGA,221335.000,4305.2500,N,07740.8509,W,1,04,7.15,86.4,M,-34.4,M,,*6C
$GPRMC,221335.250,A,4305.2504,N,07740.8490,W,17.23,70.48,110925,,,A*7D
$GPGGA,221335.500,4305.2509,N,07740.8472,W,1,04,2.04,86.4,M,-34.4,M,,*68
$GPRMC,221335.750,A,4305.2512,N,07740.8454,W,17.93,71.59,110925,,,A*7D
$GPGGA,221336.000,4305.2514,N,07740.8436,W,1,04,2.04,86.4,M,-34.4,M,,*62
$GPRMC,221336.250,A,4305.2517,N,07740.8412,W,19.10,75.01,110925,,,A*70
$GPGGA,221336.500,4305.2520,N,07740.8392,W,1,04,2.04,86.4,M,-34.4,M,,*69
$GPRMC,221336.750,A,4305.2522,N,07740.8372,W,19.77,77.21,110925,,,A*73
$GPGGA,221337.000,4305.2524,N,07740.8352,W,1,04,7.17,86.4,M,-34.4,M,,*62
$GPRMC,221337.250,A,4305.2527,N,07740.8331,W,20.56,78.93,110925,,,A*7A
$GPGGA,221337.500,4305.2529,N,07740.8310,W,1,04,2.04,86.5,M,-34.4,M,,*6A
$GPRMC,221337.750,A,4305.2533,N,07740.8289,W,21.30,79.34,110925,,,A*75
$GPGGA,221338.000,4305.2535,N,07740.8267,W,1,04,7.18,86.7,M,-34.4,M,,*66
$GPRMC,221338.250,A,4305.2538,N,07740.8246,W,21.81,79.73,110925,,,A*7E
$GPGGA,221338.500,4305.2541,N,07740.8224,W,1,04,2.04,86.9,M,-34.4,M,,*61
$GPRMC,221338.750,A,4305.2544,N,07740.8202,W,22.22,79.85,110925,,,A*73
$GPGGA,221339.000,4305.2546,N,07740.8179,W,1,04,7.20,87.5,M,-34.4,M,,*67
$GPRMC,221339.250,A,4305.2548,N,07740.8156,W,22.85,80.36,110925,,,A*7A
$GPGGA,221339.500,4305.2550,N,07740.8133,W,1,04,2.04,88.1,M,-34.4,M,,*63
$GPRMC,221339.750,A,4305.2551,N,07740.8110,W,23.28,81.22,110925,,,A*77
$GPGGA,221340.000,4305.2552,N,07740.8088,W,1,04,7.21,88.5,M,-34.4,M,,*6D
$GPRMC,221340.250,A,4305.2554,N,07740.8066,W,23.38,81.56,110925,,,A*7B
$GPGGA,221340.500,4305.2556,N,07740.8045,W,1,04,2.04,88.7,M,-34.4,M,,*6D
$GPRMC,221340.750,A,4305.2558,N,07740.8024,W,23.33,81.56,110925,,,A*7F
$GPGGA,221341.000,4305.2559,N,07740.8004,W,1,04,7.22,89.0,M,-34.4,M,,*64
$GPRMC,221341.250,A,4305.2560,N,07740.7985,W,22.67,82.66,110925,,,A*7D
$GPGGA,221341.500,4305.2561,N,07740.7965,W,1,04,2.04,89.2,M,-34.4,M,,*68
$GPRMC,221341.750,A,4305.2563,N,07740.7945,W,22.31,83.98,110925,,,A*74
$GPGGA,221342.000,4305.2564,N,07740.7924,W,1,04,7.24,89.6,M,-34.4,M,,*6D
$GPRMC,221342.250,A,4305.2565,N,07740.7903,W,22.05,85.78,110925,,,A*79
$GPGGA,221342.500,4305.2566,N,07740.7883,W,1,04,7.24,89.8,M,-34.4,M,,*68
$GPRMC,221342.750,A,4305.2567,N,07740.7862,W,21.69,86.79,110925,,,A*73
$GPGGA,221343.000,4305.2568,N,07740.7841,W,1,04,7.25,90.2,M,-34.4,M,,*6F
$GPRMC,221343.250,A,4305.2569,N,07740.7820,W,21.57,87.69,110925,,,A*72
$GPGGA,221343.500,4305.2570,N,07740.7798,W,1,04,2.04,90.6,M,-34.4,M,,*6A
$GPRMC,221343.750,A,4305.2571,N,07740.7778,W,21.33,87.99,110925,,,A*71
$GPGGA,221344.000,4305.2572,N,07740.7758,W,1,04,2.04,90.9,M,-34.4,M,,*69
$GPRMC,221344.250,A,4305.2574,N,07740.7739,W,21.05,87.56,110925,,,A*75
$GPGGA,221344.500,4305.2575,N,07740.7719,W,1,04,2.04,91.2,M,-34.4,M,,*64
$GPRMC,221344.750,A,4305.2577,N,07740.7700,W,20.64,87.44,110925,,,A*7C
$GPGGA,221345.000,4305.2578,N,07740.7682,W,1,04,7.27,91.3,M,-34.4,M,,*6B
$GPRMC,221345.250,A,4305.2579,N,07740.7663,W,20.12,87.41,110925,,,A*76
$GPGGA,221345.500,4305.2580,N,07740.7644,W,1,04,2.04,91.5,M,-34.4,M,,*61
$GPRMC,221345.750,A,4305.2579,N,07740.7625,W,20.10,88.67,110925,,,A*78
$GPGGA,221346.000,4305.2579,N,07740.7605,W,1,04,7.29,91.7,M,-34.4,M,,*6C
$GPRMC,221346.250,A,4305.2580,N,07740.7586,W,20.06,89.45,110925,,,A*74
$GPGGA,221346.500,4305.2580,N,07740.7567,W,1,04,2.04,91.6,M,-34.4,M,,*63
$GPRMC,221346.750,A,4305.2580,N,07740.7548,W,19.69,89.95,110925,,,A*7D
$GPGGA,221347.000,4305.2580,N,07740.7529,W,1,04,7.30,91.6,M,-34.4,M,,*6F
$GPRMC,221347.250,A,4305.2580,N,07740.7510,W,19.46,90.38,110925,,,A*76
$GPGGA,221347.500,4305.2580,N,07740.7491,W,1,04,2.04,91.8,M,-34.4,M,,*64
$GPRMC,221347.750,A,4305.2580,N,07740.7472,W,19.25,90.52,110925,,,A*7F
$GPGGA,221348.000,4305.2580,N,07740.7454,W,1,04,7.32,92.0,M,-34.4,M,,*6C
$GPRMC,221348.250,A,4305.2580,N,07740.7436,W,18.84,90.64,110925,,,A*7A
$GPGGA,221348.500,4305.2580,N,07740.7418,W,1,04,2.04,92.1,M,-34.4,M,,*60
$GPRMC,221348.750,A,4305.2580,N,07740.7401,W,18.48,90.64,110925,,,A*7B
$GPGGA,221349.000,4305.2579,N,07740.7383,W,1,04,7.33,92.2,M,-34.4,M,,*65
$GPRMC,221349.250,A,4305.2578,N,07740.7367,W,18.17,91.08,110925,,,A*7E
$GPGGA,221349.500,4305.2578,N,07740.7350,W,1,04,2.04,92.2,M,-34.4,M,,*6E
$GPRMC,221349.750,A,4305.2579,N,07740.7334,W,17.62,90.69,110925,,,A*77
$GPGGA,221350.000,4305.2579,N,07740.7318,W,1,04,7.34,92.2,M,-34.4,M,,*68
$GPRMC,221350.250,A,4305.2579,N,07740.7303,W,17.28,90.06,110925,,,A*79
$GPGGA,221350.500,4305.2579,N,07740.7287,W,1,04,2.04,92.3,M,-34.4,M,,*6D
$GPRMC,221350.750,A,4305.2579,N,07740.7272,W,17.04,89.51,110925,,,A*7F
$GPGGA,221351.000,4305.2579,N,07740.7257,W,1,04,7.36,92.5,M,-34.4,M,,*66
$GPRMC,221351.250,A,4305.2579,N,07740.7241,W,16.84,89.09,110925,,,A*7F
$GPGGA,221351.500,4305.2579,N,07740.7225,W,1,04,2.04,92.7,M,-34.4,M,,*60
$GPRMC,221351.750,A,4305.2579,N,07740.7209,W,16.79,88.66,110925,,,A*7C
$GPGGA,221352.000,4305.2579,N,07740.7193,W,1,04,2.04,92.9,M,-34.4,M,,*66
$GPRMC,221352.250,A,4305.2579,N,07740.7177,W,16.55,88.75,110925,,,A*7C
$GPGGA,221352.500,4305.2579,N,07740.7161,W,1,04,2.04,93.2,M,-34.4,M,,*64
$GPRMC,221352.750,A,4305.2580,N,07740.7145,W,16.51,88.28,110925,,,A*72
$GPGGA,221353.000,4305.2580,N,07740.7129,W,1,04,2.04,93.3,M,-34.4,M,,*6B
$GPRMC,221353.250,A,4305.2580,N,07740.7114,W,16.46,88.39,110925,,,A*74
$GPGGA,221353.500,4305.2580,N,07740.7098,W,1,04,2.04,93.4,M,-34.4,M,,*62
$GPRMC,221353.750,A,4305.2580,N,07740.7083,W,16.38,88.50,110925,,,A*78
$GPGGA,221354.000,4305.2580,N,07740.7068,W,1,04,7.40,93.5,M,-34.4,M,,*6B
$GPRMC,221354.250,A,4305.2580,N,07740.7053,W,16.19,89.16,110925,,,A*77
$GPGGA,221354.500,4305.2580,N,07740.7037,W,1,04,2.04,93.5,M,-34.4,M,,*61
$GPRMC,221354.750,A,4305.2579,N,07740.7020,W,16.46,90.21,110925,,,A*76
$GPGGA,221355.000,4305.2578,N,07740.7003,W,1,04,7.41,93.4,M,-34.4,M,,*60
$GPRMC,221355.250,A,4305.2577,N,07740.6986,W,17.04,91.08,110925,,,A*75
$GPGGA,221355.500,4305.2577,N,07740.6969,W,1,04,2.04,93.4,M,-34.4,M,,*6A
$GPRMC,221355.750,A,4305.2576,N,07740.6951,W,17.40,91.68,110925,,,A*7D
$GPGGA,221356.000,4305.2576,N,07740.6933,W,1,04,7.43,93.5,M,-34.4,M,,*65
$GPRMC,221356.250,A,4305.2576,N,07740.6915,W,17.69,91.80,110925,,,A*76
$GPGGA,221356.500,4305.2576,N,07740.6897,W,1,04,2.04,93.6,M,-34.4,M,,*6A
$GPRMC,221356.750,A,4305.2575,N,07740.6879,W,17.92,91.99,110925,,,A*77
$GPGGA,221357.000,4305.2575,N,07740.6862,W,1,04,7.44,93.8,M,-34.4,M,,*68
$GPRMC,221357.250,A,4305.2576,N,07740.6844,W,17.99,91.53,110925,,,A*73
$GPGGA,221357.500,4305.2577,N,07740.6827,W,1,04,2.04,93.9,M,-34.4,M,,*6E
$GPRMC,221357.750,A,4305.2578,N,07740.6811,W,17.92,90.48,110925,,,A*78
$GPGGA,221358.000,4305.2579,N,07740.6794,W,1,04,7.45,94.1,M,-34.4,M,,*62
$GPRMC,221358.250,A,4305.2580,N,07740.6777,W,17.91,89.25,110925,,,A*7A
$GPGGA,221358.500,4305.2581,N,07740.6761,W,1,04,2.04,94.2,M,-34.4,M,,*69
$GPRMC,221358.750,A,4305.2582,N,07740.6744,W,17.89,88.46,110925,,,A*70
$GPGGA,221359.000,4305.2583,N,07740.6728,W,1,04,7.47,94.3,M,-34.4,M,,*61
$GPRMC,221359.250,A,4305.2584,N,07740.6711,W,17.68,87.99,110925,,,A*70
$GPGGA,221359.500,4305.2585,N,07740.6695,W,1,04,7.47,94.3,M,-34.4,M,,*65
$GPRMC,221359.750,A,4305.2586,N,07740.6678,W,17.62,87.05,110925,,,A*76
$GPGGA,221400.000,4305.2587,N,07740.6662,W,1,04,7.48,94.4,M,-34.4,M,,*69
$GPRMC,221400.250,A,4305.2578,N,07740.6698,W,17.61,86.92,110925,,,A*7B
$GPGGA,221400.500,4305.2573,N,07740.6714,W,1,05,1.52,121.2,M,-34.4,M,,*52
$GPRMC,221400.750,A,4305.2570,N,07740.6714,W,17.85,86.76,110925,,,A*73
$GPGGA,221401.000,4305.2570,N,07740.6707,W,1,05,1.52,130.2,M,-34.4,M,,*57
$GPRMC,221401.250,A,4305.2570,N,07740.6697,W,18.23,85.75,110925,,,A*7E
$GPGGA,221401.500,4305.2571,N,07740.6682,W,1,05,1.52,133.8,M,-34.4,M,,*56
$GPRMC,221401.750,A,4305.2571,N,07740.6669,W,18.45,85.53,110925,,,A*7F
$GPGGA,221402.000,4305.2571,N,07740.6656,W,1,05,1.52,137.1,M,-34.4,M,,*54
$GPRMC,221402.250,A,4305.2571,N,07740.6641,W,18.55,86.03,110925,,,A*74
$GPGGA,221402.500,4305.2571,N,07740.6626,W,1,05,1.52,139.1,M,-34.4,M,,*58
$GPRMC,221402.750,A,4305.2571,N,07740.6609,W,18.59,86.42,110925,,,A*74
$GPGGA,221403.000,4305.2571,N,07740.6592,W,1,05,1.52,140.1,M,-34.4,M,,*5E
$GPRMC,221403.250,A,4305.2571,N,07740.6574,W,18.69,86.89,110925,,,A*7D
$GPGGA,221403.500,4305.2571,N,07740.6557,W,1,05,1.52,140.5,M,-34.4,M,,*56
$GPRMC,221403.750,A,4305.2571,N,07740.6539,W,18.80,87.02,110925,,,A*74
$GPGGA,221404.000,4305.2572,N,07740.6521,W,1,05,1.52,140.6,M,-34.4,M,,*55
$GPRMC,221404.250,A,4305.2572,N,07740.6504,W,18.78,87.22,110925,,,A*7E
$GPGGA,221404.500,4305.2573,N,07740.6487,W,1,05,1.52,140.9,M,-34.4,M,,*53
$GPRMC,221404.750,A,4305.2574,N,07740.6471,W,18.37,87.13,110925,,,A*77
$GPGGA,221405.000,4305.2574,N,07740.6454,W,1,05,1.52,141.5,M,-34.4,M,,*53
$GPRMC,221405.250,A,4305.2574,N,07740.6438,W,17.83,87.44,110925,,,A*7C
$GPGGA,221405.500,4305.2574,N,07740.6422,W,1,05,1.52,142.1,M,-34.4,M,,*50
$GPRMC,221405.750,A,4305.2575,N,07740.6406,W,17.44,88.07,110925,,,A*76
$GPGGA,221406.000,4305.2575,N,07740.6390,W,1,05,1.52,142.8,M,-34.4,M,,*50
$GPRMC,221406.250,A,4305.2576,N,07740.6374,W,17.32,88.11,110925,,,A*77
$GPGGA,221406.500,4305.2577,N,07740.6359,W,1,05,1.52,143.6,M,-34.4,M,,*5D
$GPRMC,221406.750,A,4305.2577,N,07740.6343,W,16.83,88.28,110925,,,A*76
$GPGGA,221407.000,4305.2577,N,07740.6328,W,1,05,1.52,144.2,M,-34.4,M,,*5C
$GPRMC,221407.250,A,4305.2577,N,07740.6314,W,16.12,88.53,110925,,,A*74
$GPGGA,221407.500,4305.2577,N,07740.6299,W,1,05,1.52,144.4,M,-34.4,M,,*54
$GPRMC,221407.750,A,4305.2578,N,07740.6284,W,15.76,88.40,110925,,,A*75
$GPGGA,221408.000,4305.2578,N,07740.6270,W,1,05,1.52,144.6,M,-34.4,M,,*54
$GPRMC,221408.250,A,4305.2578,N,07740.6255,W,15.31,88.51,110925,,,A*70
$GPGGA,221408.500,4305.2577,N,07740.6240,W,1,05,1.52,144.7,M,-34.4,M,,*5C
$GPRMC,221408.750,A,4305.2578,N,07740.6226,W,14.99,88.87,110925,,,A*79
$GPGGA,221409.000,4305.2578,N,07740.6212,W,1,05,1.52,144.7,M,-34.4,M,,*50
$GPRMC,221409.250,A,4305.2578,N,07740.6198,W,14.55,89.83,110925,,,A*7E
$GPGGA,221409.500,4305.2578,N,07740.6185,W,1,05,1.52,144.7,M,-34.4,M,,*58
$GPRMC,221409.750,A,4305.2579,N,07740.6171,W,14.38,89.76,110925,,,A*7C
$GPGGA,221410.000,4305.2579,N,07740.6158,W,1,05,1.52,144.9,M,-34.4,M,,*5A
$GPRMC,221410.250,A,4305.2580,N,07740.6145,W,14.27,89.17,110925,,,A*79
$GPGGA,221410.500,4305.2581,N,07740.6132,W,1,05,1.52,145.3,M,-34.4,M,,*5F
$GPRMC,221410.750,A,4305.2581,N,07740.6120,W,13.75,89.83,110925,,,A*73
$GPGGA,221411.000,4305.2581,N,07740.6108,W,1,05,1.52,145.8,M,-34.4,M,,*59
$GPRMC,221411.250,A,4305.2582,N,07740.6095,W,13.57,89.37,110925,,,A*74
$GPGGA,221411.500,4305.2583,N,07740.6083,W,1,05,1.52,146.3,M,-34.4,M,,*54
$GPRMC,221411.750,A,4305.2583,N,07740.6070,W,13.52,88.97,110925,,,A*75
$GPGGA,221412.000,4305.2584,N,07740.6058,W,1,05,1.52,146.8,M,-34.4,M,,*58
$GPRMC,221412.250,A,4305.2584,N,07740.6045,W,13.51,88.79,110925,,,A*71
$GPGGA,221412.500,4305.2585,N,07740.6033,W,1,05,1.52,147.0,M,-34.4,M,,*58
$GPRMC,221412.750,A,4305.2585,N,07740.6021,W,13.33,88.25,110925,,,A*7A
$GPGGA,221413.000,4305.2586,N,07740.6008,W,1,05,1.52,147.1,M,-34.4,M,,*56
$GPRMC,221413.250,A,4305.2587,N,07740.5996,W,13.57,87.21,110925,,,A*73
$GPGGA,221413.500,4305.2587,N,07740.5983,W,1,05,1.52,147.2,M,-34.4,M,,*58
$GPRMC,221413.750,A,4305.2587,N,07740.5969,W,13.89,88.08,110925,,,A*71
$GPGGA,221414.000,4305.2586,N,07740.5956,W,1,05,1.52,147.3,M,-34.4,M,,*52
$GPRMC,221414.250,A,4305.2587,N,07740.5943,W,14.05,88.18,110925,,,A*79
$GPGGA,221414.500,4305.2587,N,07740.5930,W,1,05,1.52,147.3,M,-34.4,M,,*56
$GPRMC,221414.750,A,4305.2588,N,07740.5917,W,14.14,87.51,110925,,,A*70
$GPGGA,221415.000,4305.2587,N,07740.5903,W,1,05,1.52,147.6,M,-34.4,M,,*57
$GPRMC,221415.250,A,4305.2587,N,07740.5889,W,14.64,87.72,110925,,,A*7B
$GPGGA,221415.500,4305.2587,N,07740.5875,W,1,05,1.52,147.8,M,-34.4,M,,*5C
$GPRMC,221415.750,A,4305.2586,N,07740.5860,W,14.96,87.78,110925,,,A*7F
$GPGGA,221416.000,4305.2586,N,07740.5846,W,1,05,1.52,148.2,M,-34.4,M,,*5E
$GPRMC,221416.250,A,4305.2586,N,07740.5831,W,15.29,87.69,110925,,,A*78
$GPGGA,221416.500,4305.2587,N,07740.5817,W,1,05,1.52,148.7,M,-34.4,M,,*5B
$GPRMC,221416.750,A,4305.2587,N,07740.5802,W,15.47,86.44,110925,,,A*7A
$GPGGA,221417.000,4305.2588,N,07740.5788,W,1,05,1.52,149.3,M,-34.4,M,,*5C
$GPRMC,221417.250,A,4305.2588,N,07740.5772,W,15.71,85.92,110925,,,A*74
$GPGGA,221417.500,4305.2588,N,07740.5757,W,1,05,1.52,149.6,M,-34.4,M,,*5E
$GPRMC,221417.750,A,4305.2587,N,07740.5741,W,16.00,86.46,110925,,,A*71
$GPGGA,221418.000,4305.2586,N,07740.5725,W,1,05,1.52,149.9,M,-34.4,M,,*50
$GPRMC,221418.250,A,4305.2585,N,07740.5709,W,16.23,87.28,110925,,,A*7D
$GPGGA,221418.500,4305.2585,N,07740.5693,W,1,05,1.52,149.9,M,-34.4,M,,*5A
$GPRMC,221418.750,A,4305.2584,N,07740.5676,W,16.75,87.97,110925,,,A*77
$GPGGA,221419.000,4305.2584,N,07740.5660,W,1,05,1.52,150.0,M,-34.4,M,,*52
$GPRMC,221419.250,A,4305.2584,N,07740.5644,W,17.01,87.53,110925,,,A*78
$GPGGA,221419.500,4305.2585,N,07740.5628,W,1,05,1.52,149.9,M,-34.4,M,,*5B
$GPRMC,221419.750,A,4305.2585,N,07740.5611,W,17.52,87.83,110925,,,A*77
$GPGGA,221420.000,4305.2584,N,07740.5593,W,1,05,1.52,149.7,M,-34.4,M,,*58
$GPRMC,221420.250,A,4305.2583,N,07740.5576,W,17.93,88.85,110925,,,A*78
$GPGGA,221420.500,4305.2583,N,07740.5559,W,1,05,1.52,149.6,M,-34.4,M,,*5D
$GPRMC,221420.750,A,4305.2584,N,07740.5541,W,18.22,88.71,110925,,,A*70
$GPGGA,221421.000,4305.2583,N,07740.5523,W,1,05,1.52,149.7,M,-34.4,M,,*55
$GPRMC,221421.250,A,4305.2583,N,07740.5505,W,18.67,89.03,110925,,,A*76
$GPGGA,221421.500,4305.2584,N,07740.5488,W,1,05,1.52,149.9,M,-34.4,M,,*59
$GPRMC,221421.750,A,4305.2585,N,07740.5470,W,18.66,88.21,110925,,,A*76
$GPGGA,221422.000,4305.2586,N,07740.5453,W,1,05,1.52,150.0,M,-34.4,M,,*5A
$GPRMC,221422.250,A,4305.2586,N,07740.5435,W,18.65,87.85,110925,,,A*70
$GPGGA,221422.500,4305.2586,N,07740.5417,W,1,05,1.52,150.2,M,-34.4,M,,*5D
$GPRMC,221422.750,A,4305.2586,N,07740.5400,W,18.03,87.81,110925,,,A*77
$GPGGA,221423.000,4305.2586,N,07740.5383,W,1,05,1.52,150.2,M,-34.4,M,,*53
$GPRMC,221423.250,A,4305.2586,N,07740.5367,W,17.65,87.71,110925,,,A*75
$GPGGA,221423.500,4305.2587,N,07740.5350,W,1,05,1.52,150.2,M,-34.4,M,,*59
$GPRMC,221423.750,A,4305.2586,N,07740.5333,W,17.41,88.13,110925,,,A*7C
$GPGGA,221424.000,4305.2586,N,07740.5316,W,1,05,1.52,150.1,M,-34.4,M,,*5B
$GPRMC,221424.250,A,4305.2586,N,07740.5300,W,17.36,88.90,110925,,,A*75
$GPGGA,221424.500,4305.2586,N,07740.5284,W,1,05,1.50,150.2,M,-34.4,M,,*55
$GPRMC,221424.750,A,4305.2585,N,07740.5268,W,16.73,89.83,110925,,,A*7F
$GPGGA,221425.000,4305.2585,N,07740.5253,W,1,05,1.52,150.3,M,-34.4,M,,*5B
$GPRMC,221425.250,A,4305.2586,N,07740.5238,W,16.28,90.69,110925,,,A*7F
$GPGGA,221425.500,4305.2586,N,07740.5223,W,1,05,1.53,150.3,M,-34.4,M,,*5B
$GPRMC,221425.750,A,4305.2586,N,07740.5209,W,15.43,91.02,110925,,,A*7A
$GPGGA,221426.000,4305.2587,N,07740.5196,W,1,05,1.52,150.4,M,-34.4,M,,*57
$GPRMC,221426.250,A,4305.2587,N,07740.5182,W,14.93,91.01,110925,,,A*72
$GPGGA,221426.500,4305.2587,N,07740.5169,W,1,05,1.53,150.5,M,-34.4,M,,*52
$GPRMC,221426.750,A,4305.2587,N,07740.5154,W,14.97,90.80,110925,,,A*70
$GPGGA,221427.000,4305.2588,N,07740.5140,W,1,05,1.52,150.8,M,-34.4,M,,*5E
$GPRMC,221427.250,A,4305.2589,N,07740.5126,W,15.22,89.56,110925,,,A*73
$GPGGA,221427.500,4305.2590,N,07740.5112,W,1,05,1.52,151.1,M,-34.4,M,,*5D
$GPRMC,221427.750,A,4305.2590,N,07740.5098,W,15.32,89.09,110925,,,A*71
$GPGGA,221428.000,4305.2590,N,07740.5082,W,1,05,1.52,151.3,M,-34.4,M,,*5D
$GPRMC,221428.250,A,4305.2591,N,07740.5068,W,15.57,89.57,110925,,,A*7D
$GPGGA,221428.500,4305.2591,N,07740.5053,W,1,05,1.52,151.6,M,-34.4,M,,*50
$GPRMC,221428.750,A,4305.2592,N,07740.5039,W,15.25,88.78,110925,,,A*76
$GPGGA,221429.000,4305.2592,N,07740.5024,W,1,05,1.53,151.8,M,-34.4,M,,*58
$GPRMC,221429.250,A,4305.2592,N,07740.5010,W,15.24,88.62,110925,,,A*73
$GPGGA,221429.500,4305.2593,N,07740.4996,W,1,05,1.53,151.8,M,-34.4,M,,*5D
$GPRMC,221429.750,A,4305.2593,N,07740.4982,W,15.25,88.69,110925,,,A*7E
$GPGGA,221430.000,4305.2594,N,07740.4968,W,1,05,1.53,151.7,M,-34.4,M,,*59
$GPRMC,221430.250,A,4305.2593,N,07740.4954,W,15.26,90.27,110925,,,A*78
$GPGGA,221430.500,4305.2590,N,07740.4939,W,1,05,1.53,151.6,M,-34.4,M,,*5D
$GPRMC,221430.750,A,4305.2589,N,07740.4925,W,15.21,94.50,110925,,,A*73
$GPGGA,221431.000,4305.2586,N,07740.4911,W,1,05,1.53,151.6,M,-34.4,M,,*54
$GPRMC,221431.250,A,4305.2584,N,07740.4897,W,14.91,98.08,110925,,,A*79
$GPGGA,221431.500,4305.2583,N,07740.4884,W,1,05,1.53,151.6,M,-34.4,M,,*59
$GPRMC,221431.750,A,4305.2582,N,07740.4871,W,14.66,97.95,110925,,,A*71
$GPGGA,221432.000,4305.2581,N,07740.4858,W,1,05,1.52,151.8,M,-34.4,M,,*53
$GPRMC,221432.250,A,4305.2580,N,07740.4846,W,13.84,99.29,110925,,,A*73
$GPGGA,221432.500,4305.2577,N,07740.4834,W,1,05,1.53,152.1,M,-34.4,M,,*5E
$GPRMC,221432.750,A,4305.2570,N,07740.4821,W,13.49,106.84,110925,,,A*49
$GPGGA,221433.000,4305.2565,N,07740.4808,W,1,05,1.53,152.1,M,-34.4,M,,*56
$GPRMC,221433.250,A,4305.2560,N,07740.4797,W,13.06,113.60,110925,,,A*4B
$GPGGA,221433.500,4305.2555,N,07740.4786,W,1,05,1.53,152.1,M,-34.4,M,,*59
$GPRMC,221433.750,A,4305.2550,N,07740.4775,W,12.96,117.54,110925,,,A*4A
$GPGGA,221434.000,4305.2544,N,07740.4764,W,1,05,1.53,152.1,M,-34.4,M,,*57
$GPRMC,221434.250,A,4305.2539,N,07740.4753,W,13.36,119.95,110925,,,A*4B
$GPGGA,221434.500,4305.2534,N,07740.4742,W,1,05,1.53,152.0,M,-34.4,M,,*50
$GPRMC,221434.750,A,4305.2529,N,07740.4731,W,13.59,118.73,110925,,,A*4B
$GPGGA,221435.000,4305.2524,N,07740.4719,W,1,05,1.53,151.9,M,-34.4,M,,*51
$GPRMC,221435.250,A,4305.2520,N,07740.4706,W,14.08,116.78,110925,,,A*44
$GPGGA,221435.500,4305.2517,N,07740.4695,W,1,05,1.53,151.8,M,-34.4,M,,*50
$GPRMC,221435.750,A,4305.2513,N,07740.4682,W,14.18,112.86,110925,,,A*48
$GPGGA,221436.000,4305.2509,N,07740.4669,W,1,05,1.53,151.6,M,-34.4,M,,*54
$GPRMC,221436.250,A,4305.2508,N,07740.4656,W,14.25,107.33,110925,,,A*49
$GPGGA,221436.500,4305.2506,N,07740.4643,W,1,05,1.53,151.6,M,-34.4,M,,*56
$GPRMC,221436.750,A,4305.2505,N,07740.4630,W,14.27,103.95,110925,,,A*4B
$GPGGA,221437.000,4305.2506,N,07740.4618,W,1,05,1.53,151.7,M,-34.4,M,,*5D
$GPRMC,221437.250,A,4305.2508,N,07740.4607,W,13.89,99.51,110925,,,A*7F
$GPGGA,221437.500,4305.2509,N,07740.4595,W,1,05,1.50,151.8,M,-34.4,M,,*5D
$GPRMC,221437.750,A,4305.2510,N,07740.4583,W,13.68,95.08,110925,,,A*73
$GPGGA,221438.000,4305.2519,N,07740.4573,W,1,05,1.53,151.9,M,-34.4,M,,*5C
$GPRMC,221438.250,A,4305.2524,N,07740.4562,W,13.07,82.56,110925,,,A*75
$GPGGA,221438.500,4305.2527,N,07740.4552,W,1,05,1.51,152.0,M,-34.4,M,,*5F
$GPRMC,221438.750,A,4305.2532,N,07740.4542,W,12.58,77.29,110925,,,A*7C
$GPGGA,221439.000,4305.2536,N,07740.4531,W,1,05,1.53,152.1,M,-34.4,M,,*5D
$GPRMC,221439.250,A,4305.2540,N,07740.4521,W,12.51,73.02,110925,,,A*7C
$GPGGA,221439.500,4305.2545,N,07740.4510,W,1,05,1.53,152.2,M,-34.4,M,,*5C
$GPRMC,221439.750,A,4305.2549,N,07740.4499,W,12.48,70.35,110925,,,A*7D
$GPGGA,221440.000,4305.2553,N,07740.4488,W,1,05,1.53,152.3,M,-34.4,M,,*51
$GPRMC,221440.250,A,4305.2557,N,07740.4476,W,12.51,69.16,110925,,,A*79
$GPGGA,221440.500,4305.2560,N,07740.4465,W,1,05,1.53,152.4,M,-34.4,M,,*50
$GPRMC,221440.750,A,4305.2562,N,07740.4453,W,12.59,70.15,110925,,,A*7E
$GPGGA,221441.000,4305.2565,N,07740.4442,W,1,05,1.53,152.3,M,-34.4,M,,*53
$GPRMC,221441.250,A,4305.2567,N,07740.4430,W,12.64,72.11,110925,,,A*72
$GPGGA,221441.500,4305.2570,N,07740.4418,W,1,05,1.53,152.2,M,-34.4,M,,*5C
$GPRMC,221441.750,A,4305.2573,N,07740.4406,W,12.73,72.70,110925,,,A*76
$GPGGA,221442.000,4305.2576,N,07740.4393,W,1,05,1.53,152.0,M,-34.4,M,,*5A
$GPRMC,221442.250,A,4305.2578,N,07740.4380,W,13.28,74.27,110925,,,A*79
$GPGGA,221442.500,4305.2580,N,07740.4367,W,1,05,1.53,151.7,M,-34.4,M,,*59
$GPRMC,221442.750,A,4305.2582,N,07740.4354,W,13.38,76.30,110925,,,A*75
$GPGGA,221443.000,4305.2582,N,07740.4341,W,1,05,1.53,151.5,M,-34.4,M,,*59
$GPRMC,221443.250,A,4305.2583,N,07740.4328,W,13.37,79.52,110925,,,A*7F
$GPGGA,221443.500,4305.2584,N,07740.4314,W,1,05,1.53,151.4,M,-34.4,M,,*5B
$GPRMC,221443.750,A,4305.2585,N,07740.4302,W,13.22,80.57,110925,,,A*73
$GPGGA,221444.000,4305.2586,N,07740.4288,W,1,05,1.53,151.4,M,-34.4,M,,*5F
$GPRMC,221444.250,A,4305.2586,N,07740.4274,W,13.30,82.20,110925,,,A*73
$GPGGA,221444.500,4305.2587,N,07740.4261,W,1,05,1.53,151.3,M,-34.4,M,,*5B
$GPRMC,221444.750,A,4305.2588,N,07740.4247,W,13.41,83.43,110925,,,A*7A
$GPGGA,221445.000,4305.2588,N,07740.4233,W,1,05,1.53,151.4,M,-34.4,M,,*50
$GPRMC,221445.250,A,4305.2589,N,07740.4219,W,13.86,83.68,110925,,,A*76
$GPGGA,221445.500,4305.2590,N,07740.4206,W,1,05,1.53,151.4,M,-34.4,M,,*5A
$GPRMC,221445.750,A,4305.2590,N,07740.4192,W,13.90,83.56,110925,,,A*71
$GPGGA,221446.000,4305.2591,N,07740.4178,W,1,05,1.53,151.3,M,-34.4,M,,*50
$GPRMC,221446.250,A,4305.2593,N,07740.4165,W,14.09,82.63,110925,,,A*7C
$GPGGA,221446.500,4305.2594,N,07740.4151,W,1,05,1.53,151.0,M,-34.4,M,,*58
$GPRMC,221446.750,A,4305.2595,N,07740.4138,W,14.07,82.51,110925,,,A*78
$GPGGA,221447.000,4305.2595,N,07740.4124,W,1,05,1.53,150.7,M,-34.4,M,,*59
$GPRMC,221447.250,A,4305.2596,N,07740.4110,W,14.12,83.45,110925,,,A*75
$GPGGA,221447.500,4305.2596,N,07740.4097,W,1,05,1.53,150.4,M,-34.4,M,,*55
$GPRMC,221447.750,A,4305.2596,N,07740.4083,W,14.37,84.21,110925,,,A*79
$GPGGA,221448.000,4305.2597,N,07740.4068,W,1,05,1.53,150.3,M,-34.4,M,,*59
$GPRMC,221448.250,A,4305.2597,N,07740.4053,W,14.82,85.21,110925,,,A*70
$GPGGA,221448.500,4305.2597,N,07740.4039,W,1,05,1.53,149.9,M,-34.4,M,,*5A
$GPRMC,221448.750,A,4305.2597,N,07740.4023,W,15.45,85.92,110925,,,A*70
$GPGGA,221449.000,4305.2597,N,07740.4007,W,1,05,1.53,149.6,M,-34.4,M,,*5C
$GPRMC,221449.250,A,4305.2598,N,07740.3991,W,16.05,86.53,110925,,,A*75
$GPGGA,221449.500,4305.2598,N,07740.3975,W,1,05,1.53,149.4,M,-34.4,M,,*5F
$GPRMC,221449.750,A,4305.2597,N,07740.3959,W,16.32,87.32,110925,,,A*79
$GPGGA,221450.000,4305.2597,N,07740.3942,W,1,05,1.53,149.4,M,-34.4,M,,*59
$GPRMC,221450.250,A,4305.2597,N,07740.3926,W,16.74,87.60,110925,,,A*79
$GPGGA,221450.500,4305.2598,N,07740.3909,W,1,05,1.53,149.5,M,-34.4,M,,*5D
$GPRMC,221450.750,A,4305.2599,N,07740.3893,W,16.99,86.92,110925,,,A*72
$GPGGA,221451.000,4305.2600,N,07740.3875,W,1,05,1.53,149.8,M,-34.4,M,,*5C
$GPRMC,221451.250,A,4305.2601,N,07740.3858,W,17.31,86.42,110925,,,A*7D
$GPGGA,221451.500,4305.2602,N,07740.3841,W,1,05,1.53,150.1,M,-34.4,M,,*5D
$GPRMC,221451.750,A,4305.2603,N,07740.3824,W,17.62,86.70,110925,,,A*76
$GPGGA,221452.000,4305.2604,N,07740.3806,W,1,05,1.53,150.1,M,-34.4,M,,*5E
$GPRMC,221452.250,A,4305.2605,N,07740.3788,W,18.07,86.54,110925,,,A*75
$GPGGA,221452.500,4305.2605,N,07740.3769,W,1,05,1.53,150.2,M,-34.4,M,,*5F
$GPRMC,221452.750,A,4305.2606,N,07740.3751,W,18.40,86.13,110925,,,A*77
$GPGGA,221453.000,4305.2606,N,07740.3732,W,1,05,1.53,150.2,M,-34.4,M,,*56
$GPRMC,221453.250,A,4305.2607,N,07740.3713,W,19.01,86.21,110925,,,A*71
$GPGGA,221453.500,4305.2607,N,07740.3694,W,1,05,1.53,150.2,M,-34.4,M,,*5F
$GPRMC,221453.750,A,4305.2608,N,07740.3676,W,19.10,86.99,110925,,,A*7A
$GPGGA,221454.000,4305.2609,N,07740.3658,W,1,05,1.53,150.0,M,-34.4,M,,*51
$GPRMC,221454.250,A,4305.2610,N,07740.3640,W,19.11,87.21,110925,,,A*77
$GPGGA,221454.500,4305.2611,N,07740.3621,W,1,05,1.53,149.8,M,-34.4,M,,*53
$GPRMC,221454.750,A,4305.2612,N,07740.3603,W,19.32,86.55,110925,,,A*74
$GPGGA,221455.000,4305.2614,N,07740.3584,W,1,05,1.53,149.8,M,-34.4,M,,*5E
$GPRMC,221455.250,A,4305.2615,N,07740.3565,W,19.74,85.72,110925,,,A*70
$GPGGA,221455.500,4305.2616,N,07740.3546,W,1,05,1.53,149.8,M,-34.4,M,,*57
$GPRMC,221455.750,A,4305.2618,N,07740.3528,W,19.72,84.86,110925,,,A*7D
$GPGGA,221456.000,4305.2621,N,07740.3509,W,1,05,1.53,149.9,M,-34.4,M,,*5F
$GPRMC,221456.250,A,4305.2623,N,07740.3491,W,19.73,83.80,110925,,,A*70
$GPGGA,221456.500,4305.2624,N,07740.3472,W,1,05,1.51,150.0,M,-34.4,M,,*51
$GPRMC,221456.750,A,4305.2626,N,07740.3453,W,19.93,83.66,110925,,,A*78
$GPGGA,221457.000,4305.2628,N,07740.3434,W,1,05,1.53,150.2,M,-34.4,M,,*5B
$GPRMC,221457.250,A,4305.2629,N,07740.3414,W,20.21,83.65,110925,,,A*70
$GPGGA,221457.500,4305.2631,N,07740.3395,W,1,05,1.51,150.5,M,-34.4,M,,*5F
$GPRMC,221457.750,A,4305.2633,N,07740.3375,W,20.20,83.06,110925,,,A*7A
$GPGGA,221458.000,4305.2635,N,07740.3356,W,1,05,1.53,150.7,M,-34.4,M,,*5E
$GPRMC,221458.250,A,4305.2637,N,07740.3335,W,20.68,83.03,110925,,,A*79
$GPGGA,221458.500,4305.2638,N,07740.3315,W,1,05,1.53,150.8,M,-34.4,M,,*5E
$GPRMC,221458.750,A,4305.2639,N,07740.3295,W,20.73,82.96,110925,,,A*7E
$GPGGA,221459.000,4305.2642,N,07740.3275,W,1,05,1.53,150.7,M,-34.4,M,,*5F
$GPRMC,221459.250,A,4305.2644,N,07740.3255,W,20.99,81.59,110925,,,A*78
$GPGGA,221459.500,4305.2647,N,07740.3235,W,1,05,1.53,150.5,M,-34.4,M,,*59
$GPRMC,221459.750,A,4305.2650,N,07740.3214,W,21.29,80.71,110925,,,A*7C
$GPGGA,221500.000,4305.2653,N,07740.3194,W,1,05,1.53,150.5,M,-34.4,M,,*5C
$GPRMC,221500.250,A,4305.2655,N,07740.3174,W,21.43,80.32,110925,,,A*7F
$GPGGA,221500.500,4305.2658,N,07740.3154,W,1,05,1.53,150.3,M,-34.4,M,,*58
$GPRMC,221500.750,A,4305.2661,N,07740.3134,W,21.34,80.27,110925,,,A*7D
$GPGGA,221501.000,4305.2664,N,07740.3114,W,1,05,1.53,150.2,M,-34.4,M,,*56
$GPRMC,221501.250,A,4305.2667,N,07740.3094,W,21.21,80.33,110925,,,A*75
$GPGGA,221501.500,4305.2669,N,07740.3074,W,1,05,1.53,150.2,M,-34.4,M,,*59
$GPRMC,221501.750,A,4305.2673,N,07740.3053,W,21.20,80.11,110925,,,A*7F
$GPGGA,221502.000,4305.2676,N,07740.3033,W,1,05,1.53,150.4,M,-34.4,M,,*54
$GPRMC,221502.250,A,4305.2680,N,07740.3012,W,21.70,79.40,110925,,,A*77
$GPGGA,221502.500,4305.2683,N,07740.2991,W,1,05,1.53,150.6,M,-34.4,M,,*59
$GPRMC,221502.750,A,4305.2688,N,07740.2970,W,22.01,78.37,110925,,,A*72
$GPGGA,221503.000,4305.2694,N,07740.2950,W,1,05,1.53,151.0,M,-34.4,M,,*51
$GPRMC,221503.250,A,4305.2699,N,07740.2929,W,22.13,76.79,110925,,,A*7D
$GPGGA,221503.500,4305.2705,N,07740.2908,W,1,05,1.53,151.4,M,-34.4,M,,*54
$GPRMC,221503.750,A,4305.2711,N,07740.2888,W,22.40,75.09,110925,,,A*71
$GPGGA,221504.000,4305.2717,N,07740.2867,W,1,05,1.53,151.8,M,-34.4,M,,*51
$GPRMC,221504.250,A,4305.2723,N,07740.2847,W,22.43,73.34,110925,,,A*7A
$GPGGA,221504.500,4305.2729,N,07740.2827,W,1,05,1.53,152.1,M,-34.4,M,,*57
$GPRMC,221504.750,A,4305.2734,N,07740.2807,W,22.53,71.93,110925,,,A*73
$GPGGA,221505.000,4305.2741,N,07740.2786,W,1,05,1.53,152.2,M,-34.4,M,,*5A
$GPRMC,221505.250,A,4305.2747,N,07740.2766,W,22.91,70.33,110925,,,A*7E
$GPGGA,221505.500,4305.2753,N,07740.2745,W,1,05,1.53,152.3,M,-34.4,M,,*52
$GPRMC,221505.750,A,4305.2759,N,07740.2725,W,23.01,69.47,110925,,,A*70
$GPGGA,221506.000,4305.2766,N,07740.2705,W,1,05,1.53,152.2,M,-34.4,M,,*57
$GPRMC,221506.250,A,4305.2771,N,07740.2684,W,23.35,68.28,110925,,,A*79
$GPGGA,221506.500,4305.2777,N,07740.2664,W,1,05,1.51,152.3,M,-34.4,M,,*57
$GPRMC,221506.750,A,4305.2783,N,07740.2643,W,23.69,67.09,110925,,,A*7F
$GPGGA,221507.000,4305.2789,N,07740.2622,W,1,05,1.53,152.4,M,-34.4,M,,*55
$GPRMC,221507.250,A,4305.2796,N,07740.2603,W,23.64,65.97,110925,,,A*73
$GPGGA,221507.500,4305.2803,N,07740.2583,W,1,05,1.53,152.4,M,-34.4,M,,*55
$GPRMC,221507.750,A,4305.2810,N,07740.2563,W,23.58,64.51,110925,,,A*76
$GPGGA,221508.000,4305.2817,N,07740.2543,W,1,05,1.53,152.5,M,-34.4,M,,*57
$GPRMC,221508.250,A,4305.2825,N,07740.2522,W,24.03,63.82,110925,,,A*7F
$GPGGA,221508.500,4305.2832,N,07740.2501,W,1,05,1.53,152.6,M,-34.4,M,,*50
$GPRMC,221508.750,A,4305.2841,N,07740.2480,W,24.27,63.02,110925,,,A*7F
$GPGGA,221509.000,4305.2849,N,07740.2459,W,1,05,1.53,152.8,M,-34.4,M,,*5A
$GPRMC,221509.250,A,4305.2858,N,07740.2439,W,24.72,62.07,110925,,,A*75
$GPGGA,221509.500,4305.2866,N,07740.2418,W,1,05,1.53,152.9,M,-34.4,M,,*56
$GPRMC,221509.750,A,4305.2874,N,07740.2398,W,24.74,61.60,110925,,,A*76
$GPGGA,221510.000,4305.2882,N,07740.2377,W,1,05,1.53,153.1,M,-34.4,M,,*56
$GPRMC,221510.250,A,4305.2891,N,07740.2357,W,24.75,61.11,110925,,,A*74
$GPGGA,221510.500,4305.2899,N,07740.2336,W,1,05,1.53,153.3,M,-34.4,M,,*5E
$GPRMC,221510.750,A,4305.2908,N,07740.2315,W,24.84,60.78,110925,,,A*76
$GPGGA,221511.000,4305.2917,N,07740.2295,W,1,05,1.53,153.4,M,-34.4,M,,*52
$GPRMC,221511.250,A,4305.2925,N,07740.2275,W,24.87,60.06,110925,,,A*70
$GPGGA,221511.500,4305.2934,N,07740.2255,W,1,05,1.53,153.5,M,-34.4,M,,*5B
$GPRMC,221511.750,A,4305.2943,N,07740.2234,W,25.17,59.63,110925,,,A*71
$GPGGA,221512.000,4305.2952,N,07740.2213,W,1,05,1.53,153.5,M,-34.4,M,,*5F
$GPRMC,221512.250,A,4305.2961,N,07740.2192,W,25.28,59.46,110925,,,A*73
$GPGGA,221512.500,4305.2970,N,07740.2172,W,1,05,1.53,153.5,M,-34.4,M,,*5E
$GPRMC,221512.750,A,4305.2978,N,07740.2152,W,24.94,59.26,110925,,,A*72
$GPGGA,221513.000,4305.2987,N,07740.2131,W,1,05,1.53,153.4,M,-34.4,M,,*54
$GPRMC,221513.250,A,4305.2996,N,07740.2110,W,25.01,60.10,110925,,,A*72
$GPGGA,221513.500,4305.3004,N,07740.2089,W,1,05,1.53,153.4,M,-34.4,M,,*50
$GPRMC,221513.750,A,4305.3013,N,07740.2068,W,25.15,60.27,110925,,,A*7D
$GPGGA,221514.000,4305.3022,N,07740.2047,W,1,05,1.53,153.4,M,-34.4,M,,*54
$GPRMC,221514.250,A,4305.3031,N,07740.2027,W,25.13,60.19,110925,,,A*7F
$GPGGA,221514.500,4305.3040,N,07740.2006,W,1,05,1.53,153.5,M,-34.4,M,,*51
$GPRMC,221514.750,A,4305.3049,N,07740.1984,W,25.35,60.10,110925,,,A*7B
$GPGGA,221515.000,4305.3057,N,07740.1962,W,1,05,1.53,153.6,M,-34.4,M,,*58
$GPRMC,221515.250,A,4305.3067,N,07740.1941,W,25.70,59.66,110925,,,A*70
$GPGGA,221515.500,4305.3076,N,07740.1920,W,1,05,1.53,153.6,M,-34.4,M,,*58
$GPRMC,221515.750,A,4305.3084,N,07740.1898,W,25.69,60.13,110925,,,A*7D
$GPGGA,221516.000,4305.3093,N,07740.1876,W,1,05,1.53,153.9,M,-34.4,M,,*58
$GPRMC,221516.250,A,4305.3102,N,07740.1855,W,25.42,59.94,110925,,,A*79
$GPGGA,221516.500,4305.3110,N,07740.1834,W,1,05,1.53,154.1,M,-34.4,M,,*5E
$GPRMC,221516.750,A,4305.3119,N,07740.1812,W,25.63,60.72,110925,,,A*74
$GPGGA,221517.000,4305.3128,N,07740.1790,W,1,05,1.53,154.4,M,-34.4,M,,*55
$GPRMC,221517.250,A,4305.3137,N,07740.1768,W,25.84,60.45,110925,,,A*73
$GPGGA,221517.500,4305.3146,N,07740.1746,W,1,05,1.53,154.7,M,-34.4,M,,*50
$GPRMC,221517.750,A,4305.3156,N,07740.1725,W,26.12,60.07,110925,,,A*72
$GPGGA,221518.000,4305.3166,N,07740.1703,W,1,05,1.53,155.0,M,-34.4,M,,*5F
$GPRMC,221518.250,A,4305.3175,N,07740.1681,W,26.41,59.62,110925,,,A*79
$GPGGA,221518.500,4305.3185,N,07740.1659,W,1,05,1.51,155.1,M,-34.4,M,,*5A
$GPRMC,221518.750,A,4305.3194,N,07740.1637,W,26.23,59.81,110925,,,A*77
$GPGGA,221519.000,4305.3202,N,07740.1616,W,1,05,1.53,155.2,M,-34.4,M,,*58
$GPRMC,221519.250,A,4305.3211,N,07740.1595,W,25.97,60.29,110925,,,A*72
$GPGGA,221519.500,4305.3220,N,07740.1573,W,1,05,1.53,155.2,M,-34.4,M,,*5D
$GPRMC,221519.750,A,4305.3227,N,07740.1552,W,26.00,61.30,110925,,,A*7D
$GPGGA,221520.000,4305.3235,N,07740.1530,W,1,05,1.53,155.2,M,-34.4,M,,*51
$GPRMC,221520.250,A,4305.3243,N,07740.1509,W,25.78,61.77,110925,,,A*71
$GPGGA,221520.500,4305.3252,N,07740.1488,W,1,05,1.53,155.1,M,-34.4,M,,*54
$GPRMC,221520.750,A,4305.3260,N,07740.1468,W,24.59,61.64,110925,,,A*73
$GPGGA,221521.000,4305.3268,N,07740.1447,W,1,05,1.53,155.0,M,-34.4,M,,*5B
$GPRMC,221521.250,A,4305.3276,N,07740.1427,W,24.31,62.39,110925,,,A*7E
$GPGGA,221521.500,4305.3283,N,07740.1406,W,1,05,1.53,155.0,M,-34.4,M,,*5E
$GPRMC,221521.750,A,4305.3291,N,07740.1386,W,24.21,62.81,110925,,,A*7C
$GPGGA,221522.000,4305.3299,N,07740.1365,W,1,05,1.53,154.8,M,-34.4,M,,*58
$GPRMC,221522.250,A,4305.3306,N,07740.1345,W,23.88,63.52,110925,,,A*71
$GPGGA,221522.500,4305.3313,N,07740.1324,W,1,05,1.53,154.7,M,-34.4,M,,*54
$GPRMC,221522.750,A,4305.3320,N,07740.1304,W,23.61,64.24,110925,,,A*74
$GPGGA,221523.000,4305.3326,N,07740.1284,W,1,05,1.53,154.7,M,-34.4,M,,*5D
$GPRMC,221523.250,A,4305.3333,N,07740.1264,W,23.35,64.79,110925,,,A*7C
$GPGGA,221523.500,4305.3340,N,07740.1243,W,1,05,1.53,154.8,M,-34.4,M,,*5C
$GPRMC,221523.750,A,4305.3347,N,07740.1223,W,23.39,64.86,110925,,,A*75
$GPGGA,221524.000,4305.3353,N,07740.1202,W,1,05,1.53,155.0,M,-34.4,M,,*50
$GPRMC,221524.250,A,4305.3359,N,07740.1182,W,23.16,66.03,110925,,,A*72
$GPGGA,221524.500,4305.3365,N,07740.1162,W,1,05,1.53,155.1,M,-34.4,M,,*54
$GPRMC,221524.750,A,4305.3371,N,07740.1141,W,22.82,67.21,110925,,,A*7F
$GPGGA,221525.000,4305.3376,N,07740.1121,W,1,05,1.53,155.4,M,-34.4,M,,*50
$GPRMC,221525.250,A,4305.3381,N,07740.1100,W,22.59,68.59,110925,,,A*77
$GPGGA,221525.500,4305.3385,N,07740.1080,W,1,05,1.53,155.5,M,-34.4,M,,*52
$GPRMC,221525.750,A,4305.3387,N,07740.1059,W,22.06,71.84,110925,,,A*7B
$GPGGA,221526.000,4305.3390,N,07740.1039,W,1,05,1.53,155.4,M,-34.4,M,,*53
$GPRMC,221526.250,A,4305.3393,N,07740.1017,W,21.93,74.39,110925,,,A*7E
$GPGGA,221526.500,4305.3396,N,07740.0996,W,1,05,1.51,154.7,M,-34.4,M,,*5D
$GPRMC,221526.750,A,4305.3399,N,07740.0975,W,21.91,76.21,110925,,,A*74
$GPGGA,221527.000,4305.3401,N,07740.0954,W,1,05,1.53,154.0,M,-34.4,M,,*5B
$GPRMC,221527.250,A,4305.3402,N,07740.0932,W,21.31,78.83,110925,,,A*7A
$GPGGA,221527.500,4305.3404,N,07740.0911,W,1,05,1.53,152.9,M,-34.4,M,,*55
$GPRMC,221527.750,A,4305.3404,N,07740.0891,W,20.48,81.50,110925,,,A*76
$GPGGA,221528.000,4305.3404,N,07740.0873,W,1,05,1.53,151.8,M,-34.4,M,,*58
$GPRMC,221528.250,A,4305.3406,N,07740.0856,W,18.82,83.53,110925,,,A*79
$GPGGA,221528.500,4305.3406,N,07740.0838,W,1,05,1.53,151.1,M,-34.4,M,,*59
$GPRMC,221528.750,A,4305.3405,N,07740.0821,W,17.51,86.62,110925,,,A*79
$GPGGA,221529.000,4305.3404,N,07740.0807,W,1,05,1.53,150.4,M,-34.4,M,,*57
$GPRMC,221529.250,A,4305.3404,N,07740.0792,W,15.88,89.12,110925,,,A*75
$GPGGA,221529.500,4305.3403,N,07740.0777,W,1,05,1.53,149.9,M,-34.4,M,,*58
$GPRMC,221529.750,A,4305.3402,N,07740.0762,W,15.62,90.47,110925,,,A*75
$GPGGA,221530.000,4305.3403,N,07740.0748,W,1,05,1.53,149.8,M,-34.4,M,,*58
$GPRMC,221530.250,A,4305.3403,N,07740.0734,W,15.31,90.72,110925,,,A*7A
$GPGGA,221530.500,4305.3403,N,07740.0720,W,1,05,1.51,149.7,M,-34.4,M,,*5E
$GPRMC,221530.750,A,4305.3405,N,07740.0706,W,15.26,88.81,110925,,,A*7B
$GPGGA,221531.000,4305.3410,N,07740.0694,W,1,05,1.53,149.8,M,-34.4,M,,*5B
$GPRMC,221531.250,A,4305.3420,N,07740.0684,W,14.90,78.80,110925,,,A*71
$GPGGA,221531.500,4305.3423,N,07740.0671,W,1,05,1.53,149.8,M,-34.4,M,,*55
$GPRMC,221531.750,A,4305.3426,N,07740.0658,W,14.68,76.91,110925,,,A*7A
$GPGGA,221532.000,4305.3430,N,07740.0646,W,1,05,1.53,149.7,M,-34.4,M,,*5A
$GPRMC,221532.250,A,4305.3436,N,07740.0634,W,14.08,72.19,110925,,,A*75
$GPGGA,221532.500,4305.3440,N,07740.0622,W,1,05,1.51,149.7,M,-34.4,M,,*58
$GPRMC,221532.750,A,4305.3443,N,07740.0611,W,13.57,70.37,110925,,,A*76
$GPGGA,221533.000,4305.3448,N,07740.0600,W,1,05,1.53,149.7,M,-34.4,M,,*56
$GPRMC,221533.250,A,4305.3452,N,07740.0590,W,13.10,68.58,110925,,,A*7B
$GPGGA,221533.500,4305.3456,N,07740.0579,W,1,05,1.53,149.6,M,-34.4,M,,*50
$GPRMC,221533.750,A,4305.3462,N,07740.0569,W,12.99,65.82,110925,,,A*71
$GPGGA,221534.000,4305.3469,N,07740.0560,W,1,05,1.51,149.5,M,-34.4,M,,*57
$GPRMC,221534.250,A,4305.3495,N,07740.0564,W,13.36,41.25,110925,,,A*79
$GPGGA,221534.500,4305.3508,N,07740.0559,W,1,05,1.51,149.4,M,-34.4,M,,*5F
$GPRMC,221534.750,A,4305.3520,N,07740.0554,W,14.20,31.57,110925,,,A*72
$GPGGA,221535.000,4305.3531,N,07740.0550,W,1,05,1.53,149.2,M,-34.4,M,,*5C
$GPRMC,221535.250,A,4305.3542,N,07740.0544,W,14.94,26.19,110925,,,A*70
$GPGGA,221535.500,4305.3553,N,07740.0539,W,1,05,1.53,149.1,M,-34.4,M,,*51
$GPRMC,221535.750,A,4305.3564,N,07740.0534,W,15.38,23.45,110925,,,A*7D
$GPGGA,221536.000,4305.3576,N,07740.0529,W,1,05,1.53,148.9,M,-34.4,M,,*58
$GPRMC,221536.250,A,4305.3588,N,07740.0523,W,16.27,21.56,110925,,,A*72
$GPGGA,221536.500,4305.3600,N,07740.0518,W,1,05,1.53,148.7,M,-34.4,M,,*53
$GPRMC,221536.750,A,4305.3613,N,07740.0513,W,17.21,19.66,110925,,,A*7A
$GPGGA,221537.000,4305.3626,N,07740.0507,W,1,05,1.53,148.4,M,-34.4,M,,*5E
$GPRMC,221537.250,A,4305.3639,N,07740.0502,W,18.37,19.17,110925,,,A*78
$GPGGA,221537.500,4305.3652,N,07740.0495,W,1,05,1.53,147.9,M,-34.4,M,,*50
$GPRMC,221537.750,A,4305.3665,N,07740.0489,W,19.12,20.10,110925,,,A*7D
$GPGGA,221538.000,4305.3678,N,07740.0483,W,1,05,1.53,147.5,M,-34.4,M,,*59
$GPRMC,221538.250,A,4305.3691,N,07740.0476,W,19.60,20.69,110925,,,A*77
$GPGGA,221538.500,4305.3704,N,07740.0470,W,1,05,1.53,147.0,M,-34.4,M,,*5F
$GPRMC,221538.750,A,4305.3718,N,07740.0462,W,20.28,21.36,110925,,,A*7A
$GPGGA,221539.000,4305.3732,N,07740.0453,W,1,05,1.53,146.7,M,-34.4,M,,*59
$GPRMC,221539.250,A,4305.3746,N,07740.0446,W,21.10,22.57,110925,,,A*7D
$GPGGA,221539.500,4305.3760,N,07740.0439,W,1,05,1.51,146.3,M,-34.4,M,,*51
$GPRMC,221539.750,A,4305.3774,N,07740.0432,W,21.21,21.96,110925,,,A*76
$GPGGA,221540.000,4305.3788,N,07740.0426,W,1,05,1.53,146.0,M,-34.4,M,,*53
$GPRMC,221540.250,A,4305.3802,N,07740.0419,W,21.65,20.83,110925,,,A*7F
$GPGGA,221540.500,4305.3817,N,07740.0412,W,1,05,1.52,145.6,M,-34.4,M,,*5C
$GPRMC,221540.750,A,4305.3832,N,07740.0405,W,21.97,20.53,110925,,,A*74
$GPGGA,221541.000,4305.3847,N,07740.0398,W,1,05,1.53,145.3,M,-34.4,M,,*5C
$GPRMC,221541.250,A,4305.3862,N,07740.0391,W,22.33,20.53,110925,,,A*72
$GPGGA,221541.500,4305.3877,N,07740.0384,W,1,05,1.53,145.1,M,-34.4,M,,*55
$GPRMC,221541.750,A,4305.3892,N,07740.0376,W,22.60,20.87,110925,,,A*7E
$GPGGA,221542.000,4305.3907,N,07740.0368,W,1,05,1.53,144.9,M,-34.4,M,,*5E
$GPRMC,221542.250,A,4305.3922,N,07740.0360,W,22.97,21.55,110925,,,A*73
$GPGGA,221542.500,4305.3938,N,07740.0352,W,1,05,1.53,144.9,M,-34.4,M,,*5E
$GPRMC,221542.750,A,4305.3953,N,07740.0343,W,23.43,21.92,110925,,,A*72
$GPGGA,221543.000,4305.3969,N,07740.0335,W,1,05,1.53,144.9,M,-34.4,M,,*5F
$GPRMC,221543.250,A,4305.3985,N,07740.0327,W,23.69,21.72,110925,,,A*79
$GPGGA,221543.500,4305.4001,N,07740.0319,W,1,05,1.53,144.9,M,-34.4,M,,*54
$GPRMC,221543.750,A,4305.4018,N,07740.0310,W,23.94,21.67,110925,,,A*74
$GPGGA,221544.000,4305.4033,N,07740.0302,W,1,05,1.53,144.9,M,-34.4,M,,*5D
$GPRMC,221544.250,A,4305.4050,N,07740.0294,W,23.88,21.86,110925,,,A*75
$GPGGA,221544.500,4305.4066,N,07740.0286,W,1,05,1.53,145.0,M,-34.4,M,,*5D
$GPRMC,221544.750,A,4305.4082,N,07740.0278,W,23.82,21.74,110925,,,A*7A
$GPGGA,221545.000,4305.4097,N,07740.0270,W,1,05,1.53,145.1,M,-34.4,M,,*5F
$GPRMC,221545.250,A,4305.4113,N,07740.0262,W,23.61,21.53,110925,,,A*74
$GPGGA,221545.500,4305.4129,N,07740.0254,W,1,05,1.53,145.1,M,-34.4,M,,*58
$GPRMC,221545.750,A,4305.4144,N,07740.0246,W,23.55,21.64,110925,,,A*76
$GPGGA,221546.000,4305.4160,N,07740.0237,W,1,05,1.53,145.0,M,-34.4,M,,*57
$GPRMC,221546.250,A,4305.4175,N,07740.0228,W,23.46,22.87,110925,,,A*76
$GPGGA,221546.500,4305.4190,N,07740.0220,W,1,05,1.53,145.0,M,-34.4,M,,*5B
$GPRMC,221546.750,A,4305.4206,N,07740.0211,W,23.47,23.23,110925,,,A*70
$GPGGA,221547.000,4305.4221,N,07740.0201,W,1,05,1.53,144.9,M,-34.4,M,,*5D
$GPRMC,221547.250,A,4305.4237,N,07740.0193,W,23.85,22.59,110925,,,A*7D
$GPGGA,221547.500,4305.4253,N,07740.0185,W,1,05,1.53,144.7,M,-34.4,M,,*5C
$GPRMC,221547.750,A,4305.4269,N,07740.0176,W,24.14,22.38,110925,,,A*70
$GPGGA,221548.000,4305.4286,N,07740.0167,W,1,05,1.53,144.5,M,-34.4,M,,*50
$GPRMC,221548.250,A,4305.4302,N,07740.0159,W,24.32,21.88,110925,,,A*77
$GPGGA,221548.500,4305.4318,N,07740.0150,W,1,05,1.53,144.3,M,-34.4,M,,*51
$GPRMC,221548.750,A,4305.4334,N,07740.0141,W,24.43,22.14,110925,,,A*7E
$GPGGA,221549.000,4305.4349,N,07740.0132,W,1,05,1.53,144.1,M,-34.4,M,,*57
$GPRMC,221549.250,A,4305.4365,N,07740.0124,W,24.22,22.51,110925,,,A*7B
$GPGGA,221549.500,4305.4381,N,07740.0115,W,1,05,1.53,143.9,M,-34.4,M,,*5C
$GPRMC,221549.750,A,4305.4397,N,07740.0106,W,24.29,22.74,110925,,,A*7F
$GPGGA,221550.000,4305.4413,N,07740.0097,W,1,05,1.53,143.6,M,-34.4,M,,*59
$GPRMC,221550.250,A,4305.4429,N,07740.0088,W,24.27,23.26,110925,,,A*7F
$GPGGA,221550.500,4305.4444,N,07740.0079,W,1,05,1.53,143.3,M,-34.4,M,,*5B
$GPRMC,221550.750,A,4305.4460,N,07740.0071,W,24.31,23.03,110925,,,A*71
$GPGGA,221551.000,4305.4476,N,07740.0062,W,1,05,1.53,143.0,M,-34.4,M,,*57
$GPRMC,221551.250,A,4305.4492,N,07740.0054,W,24.30,22.22,110925,,,A*7C
$GPGGA,221551.500,4305.4508,N,07740.0046,W,1,05,1.53,142.7,M,-34.4,M,,*5A
$GPRMC,221551.750,A,4305.4523,N,07740.0038,W,24.07,22.15,110925,,,A*78
$GPGGA,221552.000,4305.4539,N,07740.0030,W,1,05,1.53,142.5,M,-34.4,M,,*5D
$GPRMC,221552.250,A,4305.4555,N,07740.0022,W,23.99,21.86,110925,,,A*7D
$GPGGA,221552.500,4305.4570,N,07740.0014,W,1,05,1.53,142.3,M,-34.4,M,,*55
$GPRMC,221552.750,A,4305.4585,N,07740.0005,W,23.72,21.94,110925,,,A*76
$GPGGA,221553.000,4305.4600,N,07739.9997,W,1,05,1.53,142.2,M,-34.4,M,,*51
$GPRMC,221553.250,A,4305.4615,N,07739.9989,W,23.54,21.83,110925,,,A*70
$GPGGA,221553.500,4305.4631,N,07739.9981,W,1,05,1.53,142.1,M,-34.4,M,,*52
$GPRMC,221553.750,A,4305.4646,N,07739.9973,W,23.62,21.71,110925,,,A*7E
$GPGGA,221554.000,4305.4662,N,07739.9965,W,1,05,1.53,141.8,M,-34.4,M,,*56
$GPRMC,221554.250,A,4305.4678,N,07739.9957,W,23.89,21.18,110925,,,A*7D
$GPGGA,221554.500,4305.4694,N,07739.9949,W,1,05,1.54,141.4,M,-34.4,M,,*5F
$GPRMC,221554.750,A,4305.4709,N,07739.9940,W,23.83,21.68,110925,,,A*74
$GPGGA,221555.000,4305.4725,N,07739.9932,W,1,05,1.54,141.3,M,-34.4,M,,*5B
$GPRMC,221555.250,A,4305.4740,N,07739.9924,W,23.61,21.72,110925,,,A*78
$GPGGA,221555.500,4305.4755,N,07739.9916,W,1,05,1.53,141.3,M,-34.4,M,,*58
$GPRMC,221555.750,A,4305.4769,N,07739.9908,W,23.28,21.93,110925,,,A*7A
$GPGGA,221556.000,4305.4784,N,07739.9900,W,1,05,1.54,141.3,M,-34.4,M,,*52
$GPRMC,221556.250,A,4305.4798,N,07739.9893,W,22.66,21.84,110925,,,A*7C
$GPGGA,221556.500,4305.4813,N,07739.9885,W,1,05,1.52,141.3,M,-34.4,M,,*5C
$GPRMC,221556.750,A,4305.4828,N,07739.9877,W,22.71,22.01,110925,,,A*7F
$GPGGA,221557.000,4305.4842,N,07739.9869,W,1,05,1.54,141.4,M,-34.4,M,,*5F
$GPRMC,221557.250,A,4305.4855,N,07739.9861,W,22.43,22.65,110925,,,A*75
$GPGGA,221557.500,4305.4869,N,07739.9853,W,1,05,1.54,141.7,M,-34.4,M,,*59
$GPRMC,221557.750,A,4305.4883,N,07739.9845,W,22.15,23.12,110925,,,A*7F
$GPGGA,221558.000,4305.4897,N,07739.9837,W,1,05,1.53,141.9,M,-34.4,M,,*59
$GPRMC,221558.250,A,4305.4911,N,07739.9830,W,22.04,22.83,110925,,,A*74
$GPGGA,221558.500,4305.4925,N,07739.9822,W,1,05,1.54,142.2,M,-34.4,M,,*5F
$GPRMC,221558.750,A,4305.4939,N,07739.9814,W,22.00,22.88,110925,,,A*72
$GPGGA,221559.000,4305.4953,N,07739.9806,W,1,05,1.53,142.5,M,-34.4,M,,*5C
$GPRMC,221559.250,A,4305.4966,N,07739.9798,W,21.78,23.60,110925,,,A*7C
$GPGGA,221559.500,4305.4979,N,07739.9790,W,1,05,1.54,142.8,M,-34.4,M,,*5B
$GPRMC,221559.750,A,4305.4992,N,07739.9782,W,21.35,24.25,110925,,,A*76
$GPGGA,221600.000,4305.5006,N,07739.9775,W,1,05,1.54,143.0,M,-34.4,M,,*53
$GPRMC,221600.250,A,4305.5020,N,07739.9768,W,21.26,23.84,110925,,,A*77
$GPGGA,221600.500,4305.5033,N,07739.9760,W,1,05,1.54,143.3,M,-34.4,M,,*57
$GPRMC,221600.750,A,4305.5046,N,07739.9753,W,21.00,23.25,110925,,,A*75
$GPGGA,221601.000,4305.5060,N,07739.9746,W,1,05,1.54,143.5,M,-34.4,M,,*57
$GPRMC,221601.250,A,4305.5074,N,07739.9739,W,21.05,22.95,110925,,,A*73
$GPGGA,221601.500,4305.5087,N,07739.9731,W,1,05,1.53,143.7,M,-34.4,M,,*5E
$GPRMC,221601.750,A,4305.5099,N,07739.9724,W,20.65,23.32,110925,,,A*72
$GPGGA,221602.000,4305.5112,N,07739.9716,W,1,05,1.54,143.8,M,-34.4,M,,*58
$GPRMC,221602.250,A,4305.5125,N,07739.9709,W,20.28,23.26,110925,,,A*71
$GPGGA,221602.500,4305.5138,N,07739.9702,W,1,05,1.54,143.8,M,-34.4,M,,*50
$GPRMC,221602.750,A,4305.5150,N,07739.9695,W,19.93,22.68,110925,,,A*73
$GPGGA,221603.000,4305.5162,N,07739.9688,W,1,05,1.54,143.8,M,-34.4,M,,*58
$GPRMC,221603.250,A,4305.5175,N,07739.9681,W,19.69,21.63,110925,,,A*78
$GPGGA,221603.500,4305.5187,N,07739.9675,W,1,05,1.54,143.7,M,-34.4,M,,*5B
$GPRMC,221603.750,A,4305.5198,N,07739.9669,W,18.93,20.73,110925,,,A*7C
$GPGGA,221604.000,4305.5209,N,07739.9663,W,1,05,1.54,143.6,M,-34.4,M,,*5A
$GPRMC,221604.250,A,4305.5220,N,07739.9657,W,17.85,20.91,110925,,,A*77
$GPGGA,221604.500,4305.5231,N,07739.9652,W,1,05,1.54,143.4,M,-34.4,M,,*54
$GPRMC,221604.750,A,4305.5241,N,07739.9646,W,17.15,21.10,110925,,,A*74
$GPGGA,221605.000,4305.5251,N,07739.9641,W,1,05,1.54,143.1,M,-34.4,M,,*51
$GPRMC,221605.250,A,4305.5260,N,07739.9636,W,16.14,21.27,110925,,,A*70
$GPGGA,221605.500,4305.5269,N,07739.9631,W,1,05,1.54,142.9,M,-34.4,M,,*51
$GPRMC,221605.750,A,4305.5279,N,07739.9626,W,15.47,21.83,110925,,,A*77
$GPGGA,221606.000,4305.5287,N,07739.9621,W,1,05,1.54,142.5,M,-34.4,M,,*5A
$GPRMC,221606.250,A,4305.5295,N,07739.9617,W,14.51,21.54,110925,,,A*7D
$GPGGA,221606.500,4305.5304,N,07739.9613,W,1,05,1.52,142.2,M,-34.4,M,,*55
$GPRMC,221606.750,A,4305.5313,N,07739.9608,W,13.76,21.71,110925,,,A*7C
$GPGGA,221607.000,4305.5322,N,07739.9604,W,1,05,1.54,141.9,M,-34.4,M,,*5D
$GPRMC,221607.250,A,4305.5331,N,07739.9601,W,12.93,21.74,110925,,,A*7E
$GPGGA,221607.500,4305.5340,N,07739.9596,W,1,05,1.54,141.6,M,-34.4,M,,*5B
$GPRMC,221607.750,A,4305.5349,N,07739.9593,W,12.50,21.40,110925,,,A*74
$GPGGA,221608.000,4305.5356,N,07739.9590,W,1,05,1.54,141.3,M,-34.4,M,,*55
$GPRMC,221608.250,A,4305.5363,N,07739.9587,W,11.55,20.63,110925,,,A*75
$GPGGA,221608.500,4305.5370,N,07739.9583,W,1,05,1.54,141.0,M,-34.4,M,,*55
$GPRMC,221608.750,A,4305.5377,N,07739.9580,W,10.92,21.30,110925,,,A*7F
$GPGGA,221609.000,4305.5383,N,07739.9576,W,1,05,1.54,140.6,M,-34.4,M,,*50
$GPRMC,221609.250,A,4305.5388,N,07739.9574,W,9.89,21.42,110925,,,A*47
$GPGGA,221609.500,4305.5394,N,07739.9571,W,1,05,1.54,140.4,M,-34.4,M,,*56
$GPRMC,221609.750,A,4305.5398,N,07739.9569,W,8.96,21.35,110925,,,A*40
$GPGGA,221610.000,4305.5402,N,07739.9567,W,1,05,1.54,140.0,M,-34.4,M,,*50
$GPRMC,221610.250,A,4305.5407,N,07739.9565,W,8.04,22.99,110925,,,A*4E
$GPGGA,221610.500,4305.5411,N,07739.9562,W,1,05,1.54,139.7,M,-34.4,M,,*5B
$GPRMC,221610.750,A,4305.5415,N,07739.9560,W,7.42,23.78,110925,,,A*4E
$GPGGA,221611.000,4305.5419,N,07739.9558,W,1,05,1.54,139.4,M,-34.4,M,,*5D
$GPRMC,221611.250,A,4305.5422,N,07739.9555,W,6.61,26.33,110925,,,A*42
$GPGGA,221611.500,4305.5425,N,07739.9553,W,1,05,1.54,139.1,M,-34.4,M,,*59
$GPRMC,221611.750,A,4305.5428,N,07739.9550,W,6.14,25.45,110925,,,A*48
$GPGGA,221612.000,4305.5430,N,07739.9548,W,1,05,1.54,139.0,M,-34.4,M,,*50
$GPRMC,221612.250,A,4305.5432,N,07739.9546,W,5.31,26.74,110925,,,A*47
$GPGGA,221612.500,4305.5435,N,07739.9545,W,1,05,1.54,138.9,M,-34.4,M,,*55
$GPRMC,221612.750,A,4305.5436,N,07739.9543,W,4.59,24.56,110925,,,A*4E
$GPGGA,221613.000,4305.5437,N,07739.9542,W,1,05,1.54,139.0,M,-34.4,M,,*5C
$GPRMC,221613.250,A,4305.5438,N,07739.9541,W,3.89,23.93,110925,,,A*42
$GPGGA,221613.500,4305.5440,N,07739.9539,W,1,05,1.52,139.1,M,-34.4,M,,*52
$GPRMC,221613.750,A,4305.5442,N,07739.9537,W,3.46,24.67,110925,,,A*44
$GPGGA,221614.000,4305.5443,N,07739.9536,W,1,05,1.52,139.4,M,-34.4,M,,*59
