Vers 72
USE_SERIAL_FEEDBACK=true
DEVELOPMENT_MODE=false
USE_RMC_ONLY=false

$GPRMC,144904.500,A,4308.4726,N,07726.4348,W,0.16,53.46,010525,,,A*42
$GPGGA,144904.750,4308.4726,N,07726.4349,W,1,05,1.80,162.6,M,-34.4,M,,*57
$GPRMC,144905.000,A,4308.4727,N,07726.4350,W,0.15,31.26,010525,,,A*4F
$GPGGA,144905.250,4308.4728,N,07726.4352,W,1,05,1.80,161.9,M,-34.4,M,,*5B
$GPGGA,144908.250,4308.4735,N,07726.4363,W,1,05,1.80,158.1,M,-34.4,M,,*5A
$GPRMC,144908.250,A,4308.4735,N,07726.4363,W,0.14,96.02,010525,,,A*4C
$GPGGA,144908.500,4308.4736,N,07726.4364,W,1,05,1.80,157.8,M,-34.4,M,,*5A
$GPRMC,144908.500,A,4308.4736,N,07726.4364,W,0.12,110.85,010525,,,A*7C
$GPGGA,144909.750,4308.4742,N,07726.4374,W,1,05,1.80,156.8,M,-34.4,M,,*5F
$GPRMC,144909.750,A,4308.4742,N,07726.4374,W,0.16,286.46,010525,,,A*7F
$GPGGA,144910.000,4308.4743,N,07726.4375,W,1,05,1.80,156.6,M,-34.4,M,,*5B
$GPRMC,144910.000,A,4308.4743,N,07726.4375,W,0.11,284.42,010525,,,A*74
$GPGGA,144912.250,4308.4753,N,07726.4389,W,1,05,1.80,155.4,M,-34.4,M,,*5D
$GPRMC,144912.250,A,4308.4753,N,07726.4389,W,0.29,318.35,010525,,,A*7C
$GPGGA,144912.500,4308.4754,N,07726.4391,W,1,05,1.80,155.3,M,-34.4,M,,*56
$GPRMC,144912.500,A,4308.4754,N,07726.4391,W,0.35,326.21,010525,,,A*75
$GPGGA,144915.000,4308.4763,N,07726.4402,W,1,05,2.33,154.5,M,-34.4,M,,*51
$GPRMC,144915.000,A,4308.4763,N,07726.4402,W,0.25,352.33,010525,,,A*7F
$GPGGA,144915.250,4308.4764,N,07726.4403,W,1,05,2.33,154.5,M,-34.4,M,,*50
$GPRMC,144915.250,A,4308.4764,N,07726.4403,W,0.25,344.48,010525,,,A*75
$GPGGA,144917.000,4308.4764,N,07726.4418,W,1,05,1.80,154.4,M,-34.4,M,,*55
$GPRMC,144917.000,A,4308.4764,N,07726.4418,W,1.40,250.13,010525$GPGGA,144917.250,4308.4763,N,07726.4421,W,1,05,1.80,154.4,M,-34.4,M,,*5F
$GPRMC,144917.500,A,4308.4761,N,07726.4425,W,2.10,243.27,010525,,,A*7F
$GPGGA,144917.750,4308.4759,N,07726.4429,W,1,05,1.80,154.5,M,-34.4,M,,*5A
$GPRMC,144918.000,A,4308.4757,N,07726.4434,W,5.16,233.05,010525,,,A*76
$GPGGA,144918.250,4308.4756,N,07726.4444,W,1,06,2.30,154.4,M,-34.4,M,,*5E
$GPRMC,144918.500,A,4308.4759,N,07726.4460,W,9.49,256.53,010525,,,A*7A
$GPGGA,144918.750,4308.4761,N,07726.4477,W,1,06,2.30,154.5,M,-34.4,M,,*5E
$GPRMC,144919.000,A,4308.4763,N,07726.4494,W,14.08,267.44,010525,,,A*41
$GPGGA,144919.250,4308.4763,N,07726.4510,W,1,06,2.30,154.5,M,-34.4,M,,*58
$GPRMC,144919.500,A,4308.4765,N,07726.4527,W,16.09,271.27,010525,,,A*4A
$GPGGA,144919.750,4308.4767,N,07726.4547,W,1,06,2.30,154.7,M,-34.4,M,,*59
$GPRMC,144920.000,A,4308.4768,N,07726.4568,W,19.22,271.87,010525,,,A*4F
$GPGGA,144920.250,4308.4768,N,07726.4588,W,1,06,1.73,154.7,M,-34.4,M,,*5E
$GPRMC,144920.500,A,4308.4769,N,07726.4609,W,20.78,270.61,010525,,,A*43
$GPGGA,144920.750,4308.4769,N,07726.4631,W,1,06,2.30,154.9,M,-34.4,M,,*51
$GPRMC,144921.000,A,4308.4769,N,07726.4656,W,22.69,269.72,010525,,,A*45
$GPGGA,144921.250,4308.4770,N,07726.4680,W,1,06,1.73,155.0,M,-34.4,M,,*5B
$GPRMC,144921.500,A,4308.4771,N,07726.4707,W,24.56,270.26,010525,,,A*4F
$GPGGA,144921.750,4308.4775,N,07726.4737,W,1,06,2.30,155.1,M,-34.4,M,,*53
$GPRMC,144922.000,A,4308.4778,N,07726.4767,W,27.65,272.34,010525,,,A*44
$GPGGA,144922.250,4308.4780,N,07726.4795,W,1,06,2.30,155.2,M,-34.4,M,,*54
$GPRMC,144922.500,A,4308.4782,N,07726.4824,W,29.01,272.98,010525,,,A*46
$GPGGA,144922.750,4308.4783,N,07726.4853,W,1,06,2.30,155.4,M,-34.4,M,,*51
$GPRMC,144923.000,A,4308.4784,N,07726.4882,W,30.08,273.00,010525,,,A*49
$GPGGA,144923.250,4308.4785,N,07726.4911,W,1,06,1.73,155.6,M,-34.4,M,,*52
$GPRMC,144923.500,A,4308.4786,N,07726.4940,W,30.76,272.93,010525,,,A*43
$GPGGA,144923.750,4308.4788,N,07726.4970,W,1,06,2.30,155.7,M,-34.4,M,,*58
$GPRMC,144924.000,A,4308.4790,N,07726.5001,W,31.65,273.24,010525,,,A*45
$GPGGA,144924.250,4308.4792,N,07726.5032,W,1,06,1.73,155.8,M,-34.4,M,,*54
$GPRMC,144924.500,A,4308.4794,N,07726.5064,W,32.67,273.38,010525,,,A*4B
$GPGGA,144924.750,4308.4797,N,07726.5097,W,1,06,2.29,156.0,M,-34.4,M,,*5C
$GPRMC,144925.000,A,4308.4799,N,07726.5129,W,33.84,273.48,010525,,,A*41
$GPGGA,144925.250,4308.4801,N,07726.5162,W,1,06,2.30,156.3,M,-34.4,M,,*58
$GPRMC,144925.500,A,4308.4802,N,07726.5196,W,34.78,273.23,010525,,,A*44
$GPGGA,144925.750,4308.4804,N,07726.5229,W,1,06,2.29,156.5,M,-34.4,M,,*5A
$GPRMC,144926.000,A,4308.4805,N,07726.5264,W,35.81,272.77,010525,,,A*4C
$GPGGA,144926.250,4308.4808,N,07726.5299,W,1,06,1.73,156.8,M,-34.4,M,,*5A
$GPRMC,144926.500,A,4308.4810,N,07726.5335,W,36.76,272.84,010525,,,A*4F
$GPGGA,144926.750,4308.4812,N,07726.5371,W,1,06,2.29,157.0,M,-34.4,M,,*56
$GPRMC,144927.000,A,4308.4814,N,07726.5407,W,37.70,273.36,010525,,,A*46
$GPGGA,144927.250,4308.4817,N,07726.5444,W,1,06,2.29,157.3,M,-34.4,M,,*55
$GPRMC,144927.500,A,4308.4820,N,07726.5481,W,38.68,273.87,010525,,,A*46
$GPGGA,144927.750,4308.4823,N,07726.5519,W,1,06,2.29,157.6,M,-34.4,M,,*5B
$GPRMC,144928.000,A,4308.4825,N,07726.5557,W,39.57,274.04,010525,,,A*42
$GPGGA,144928.250,4308.4828,N,07726.5595,W,1,06,1.73,157.9,M,-34.4,M,,*5D
$GPRMC,144928.500,A,4308.4830,N,07726.5634,W,40.32,273.68,010525,,,A*45
$GPGGA,144928.750,4308.4831,N,07726.5673,W,1,06,2.29,158.2,M,-34.4,M,,*53
$GPRMC,144929.000,A,4308.4832,N,07726.5712,W,40.90,273.25,010525,,,A*47
$GPGGA,144929.250,4308.4833,N,07726.5751,W,1,06,1.73,158.4,M,-34.4,M,,*5E
$GPRMC,144929.500,A,4308.4834,N,07726.5790,W,41.16,272.61,010525,,,A*40
$GPGGA,144929.750,4308.4835,N,07726.5830,W,1,06,2.29,158.7,M,-34.4,M,,*5A
$GPRMC,144930.000,A,4308.4838,N,07726.5871,W,41.74,273.10,010525,,,A*42
$GPGGA,144930.250,4308.4840,N,07726.5912,W,1,06,2.29,159.0,M,-34.4,M,,*52
$GPRMC,144930.500,A,4308.4841,N,07726.5952,W,42.17,273.41,010525,,,A*4B
$GPGGA,144930.750,4308.4843,N,07726.5992,W,1,06,2.29,159.3,M,-34.4,M,,*5F
$GPRMC,144931.000,A,4308.4843,N,07726.6032,W,41.99,272.96,010525,,,A*4F
$GPGGA,144931.250,4308.4844,N,07726.6072,W,1,06,2.29,159.8,M,-34.4,M,,*53
$GPRMC,144931.500,A,4308.4845,N,07726.6112,W,41.94,272.89,010525,,,A*4C
$GPGGA,144931.750,4308.4846,N,07726.6151,W,1,06,2.29,160.1,M,-34.4,M,,*57
$GPRMC,144932.000,A,4308.4846,N,07726.6190,W,41.68,272.75,010525,,,A*43
$GPGGA,144932.250,4308.4847,N,07726.6230,W,1,06,2.29,160.1,M,-34.4,M,,*54
$GPRMC,144932.500,A,4308.4847,N,07726.6269,W,40.56,271.54,010525,,,A*4E
$GPGGA,144932.750,4308.4847,N,07726.6308,W,1,06,2.29,160.2,M,-34.4,M,,*58
$GPRMC,144933.000,A,4308.4847,N,07726.6347,W,40.23,270.09,010525,,,A*4C
$GPGGA,144933.250,4308.4847,N,07726.6386,W,1,06,1.73,160.2,M,-34.4,M,,*56
$GPRMC,144933.500,A,4308.4848,N,07726.6425,W,39.86,269.18,010525,,,A*4C
$GPGGA,144933.750,4308.4847,N,07726.6464,W,1,06,2.29,160.2,M,-34.4,M,,*54
$GPRMC,144934.000,A,4308.4847,N,07726.6502,W,39.66,268.06,010525,,,A*45
$GPGGA,144934.250,4308.4846,N,07726.6541,W,1,06,2.29,160.2,M,-34.4,M,,*51
$GPRMC,144934.500,A,4308.4846,N,07726.6579,W,39.09,267.49,010525,,,A*40
$GPGGA,144934.750,4308.4844,N,07726.6616,W,1,06,2.29,160.2,M,-34.4,M,,*57
$GPRMC,144935.000,A,4308.4843,N,07726.6654,W,38.99,266.39,010525,,,A*43
$GPGGA,144935.250,4308.4842,N,07726.6691,W,1,06,1.73,160.2,M,-34.4,M,,*56
$GPRMC,144935.500,A,4308.4840,N,07726.6729,W,38.86,266.14,010525,,,A*4F
$GPGGA,144935.750,4308.4839,N,07726.6766,W,1,06,2.29,160.3,M,-34.4,M,,*5B
$GPRMC,144936.000,A,4308.4837,N,07726.6803,W,38.76,266.14,010525,,,A*41
$GPGGA,144936.250,4308.4836,N,07726.6840,W,1,06,1.73,160.3,M,-34.4,M,,*55
$GPRMC,144936.500,A,4308.4835,N,07726.6877,W,38.90,266.36,010525,,,A*4D
$GPGGA,144936.750,4308.4833,N,07726.6915,W,1,06,2.29,160.3,M,-34.4,M,,*58
$GPRMC,144937.000,A,4308.4832,N,07726.6952,W,39.12,266.58,010525,,,A*4B
$GPGGA,144937.250,4308.4830,N,07726.6989,W,1,06,1.73,160.2,M,-34.4,M,,*57
$GPRMC,144937.500,A,4308.4829,N,07726.7026,W,39.05,266.71,010525,,,A*42
$GPGGA,144937.750,4308.4828,N,07726.7063,W,1,06,2.29,160.3,M,-34.4,M,,*5A
$GPRMC,144938.000,A,4308.4827,N,07726.7100,W,38.71,267.17,010525,,,A*40
$GPGGA,144938.250,4308.4826,N,07726.7137,W,1,06,1.73,160.4,M,-34.4,M,,*55
$GPRMC,144938.500,A,4308.4824,N,07726.7173,W,38.53,266.83,010525,,,A*4E
$GPGGA,144938.750,4308.4823,N,07726.7209,W,1,06,2.29,160.5,M,-34.4,M,,*56
$GPRMC,144939.000,A,4308.4822,N,07726.7244,W,37.34,267.18,010525,,,A*46
$GPGGA,144939.250,4308.4822,N,07726.7280,W,1,06,1.73,160.6,M,-34.4,M,,*5D
$GPRMC,144939.500,A,4308.4821,N,07726.7314,W,36.59,267.76,010525,,,A*46
$GPGGA,144939.750,4308.4820,N,07726.7348,W,1,06,2.29,160.7,M,-34.4,M,,*52
$GPRMC,144940.000,A,4308.4819,N,07726.7382,W,35.76,267.67,010525,,,A*47
$GPGGA,144940.250,4308.4818,N,07726.7416,W,1,06,1.73,160.8,M,-34.4,M,,*5D
$GPRMC,144940.500,A,4308.4816,N,07726.7449,W,35.34,267.02,010525,,,A*48
$GPGGA,144940.750,4308.4813,N,07726.7481,W,1,06,2.29,160.9,M,-34.4,M,,*50
$GPRMC,144941.000,A,4308.4811,N,07726.7512,W,33.91,266.34,010525,,,A*49
$GPGGA,144941.250,4308.4810,N,07726.7544,W,1,06,1.73,161.1,M,-34.4,M,,*5A
$GPRMC,144941.500,A,4308.4808,N,07726.7575,W,33.05,266.03,010525,,,A*4C
$GPGGA,144941.750,4308.4805,N,07726.7606,W,1,06,2.29,161.2,M,-34.4,M,,*51
$GPRMC,144942.000,A,4308.4802,N,07726.7637,W,32.53,265.09,010525,,,A*4E
$GPGGA,144942.250,4308.4800,N,07726.7668,W,1,06,1.73,161.4,M,-34.4,M,,*50
$GPRMC,144942.500,A,4308.4798,N,07726.7699,W,32.17,264.60,010525,,,A*4D
$GPGGA,144942.750,4308.4796,N,07726.7730,W,1,06,2.29,161.5,M,-34.4,M,,*54
$GPRMC,144943.000,A,4308.4794,N,07726.7760,W,31.85,264.39,010525,,,A*46
$GPGGA,144943.250,4308.4792,N,07726.7791,W,1,06,1.73,161.6,M,-34.4,M,,*50
$GPRMC,144943.500,A,4308.4790,N,07726.7821,W,31.61,264.28,010525,,,A*47
$GPGGA,144943.750,4308.4787,N,07726.7851,W,1,06,2.29,161.7,M,-34.4,M,,*5F
$GPRMC,144944.000,A,4308.4784,N,07726.7881,W,31.39,263.46,010525,,,A*48
$GPGGA,144944.250,4308.4782,N,07726.7911,W,1,06,1.73,161.8,M,-34.4,M,,*5E
$GPRMC,144944.500,A,4308.4779,N,07726.7942,W,31.16,262.92,010525,,,A*44
$GPGGA,144944.750,4308.4777,N,07726.7972,W,1,06,2.28,161.8,M,-34.4,M,,*59
$GPRMC,144945.000,A,4308.4774,N,07726.8002,W,31.38,262.70,010525,,,A*4F
$GPGGA,144945.250,4308.4772,N,07726.8032,W,1,06,1.73,161.8,M,-34.4,M,,*57
$GPRMC,144945.500,A,4308.4770,N,07726.8063,W,31.72,263.04,010525,,,A*45
$GPGGA,144945.750,4308.4767,N,07726.8093,W,1,06,2.28,161.8,M,-34.4,M,,*50
$GPRMC,144946.000,A,4308.4765,N,07726.8124,W,32.23,263.58,010525,,,A*4B
$GPGGA,144946.250,4308.4763,N,07726.8155,W,1,06,1.73,161.8,M,-34.4,M,,*54
$GPRMC,144946.500,A,4308.4761,N,07726.8187,W,32.76,263.72,010525,,,A*4B
$GPGGA,144946.750,4308.4759,N,07726.8219,W,1,06,2.28,161.9,M,-34.4,M,,*5F
$GPRMC,144947.000,A,4308.4757,N,07726.8251,W,33.03,264.09,010525,,,A*4A
$GPGGA,144947.250,4308.4755,N,07726.8283,W,1,06,1.73,161.9,M,-34.4,M,,*59
$GPRMC,144947.500,A,4308.4753,N,07726.8314,W,33.07,263.95,010525,,,A*4D
$GPGGA,144947.750,4308.4752,N,07726.8347,W,1,06,2.28,161.9,M,-34.4,M,,*5F
$GPRMC,144948.000,A,4308.4750,N,07726.8379,W,33.10,264.16,010525,,,A*45
$GPGGA,144948.250,4308.4749,N,07726.8411,W,1,06,1.73,161.9,M,-34.4,M,,*56
$GPRMC,144948.500,A,4308.4747,N,07726.8442,W,33.14,264.05,010525,,,A*4F
$GPGGA,144948.750,4308.4745,N,07726.8474,W,1,06,2.28,162.0,M,-34.4,M,,*5B
$GPRMC,144949.000,A,4308.4743,N,07726.8505,W,32.95,264.37,010525,,,A*44
$GPGGA,144949.250,4308.4741,N,07726.8537,W,1,06,2.28,162.0,M,-34.4,M,,*5D
$GPRMC,144949.500,A,4308.4739,N,07726.8568,W,32.68,264.64,010525,,,A*43
$GPGGA,144949.750,4308.4737,N,07726.8598,W,1,06,2.28,162.0,M,-34.4,M,,*5C
$GPRMC,144950.000,A,4308.4735,N,07726.8629,W,32.42,264.47,010525,,,A*4D
$GPGGA,144950.250,4308.4732,N,07726.8660,W,1,06,1.73,162.0,M,-34.4,M,,*5D
$GPRMC,144950.500,A,4308.4730,N,07726.8691,W,32.39,264.03,010525,,,A*42
$GPGGA,144950.750,4308.4728,N,07726.8722,W,1,06,2.28,162.0,M,-34.4,M,,*59
$GPRMC,144951.000,A,4308.4725,N,07726.8753,W,32.71,263.71,010525,,,A*43
$GPGGA,144951.250,4308.4723,N,07726.8784,W,1,06,1.73,162.0,M,-34.4,M,,*57
$GPRMC,144951.500,A,4308.4721,N,07726.8816,W,33.08,263.97,010525,,,A*4B
$GPGGA,144951.750,4308.4719,N,07726.8848,W,1,06,2.28,162.1,M,-34.4,M,,*58
$GPRMC,144952.000,A,4308.4716,N,07726.8880,W,33.36,263.67,010525,,,A*44
$GPGGA,144952.250,4308.4713,N,07726.8911,W,1,06,1.73,162.1,M,-34.4,M,,*54
$GPRMC,144952.500,A,4308.4710,N,07726.8943,W,33.79,263.22,010525,,,A*43
$GPGGA,144952.750,4308.4707,N,07726.8975,W,1,06,2.28,162.2,M,-34.4,M,,*58
$GPRMC,144953.000,A,4308.4704,N,07726.9007,W,33.76,262.88,010525,,,A*44
$GPGGA,144953.250,4308.4701,N,07726.9039,W,1,06,1.73,162.3,M,-34.4,M,,*56
$GPRMC,144953.500,A,4308.4699,N,07726.9071,W,33.70,262.93,010525,,,A*49
$GPGGA,144953.750,4308.4697,N,07726.9104,W,1,06,2.28,162.3,M,-34.4,M,,*5F
$GPRMC,144954.000,A,4308.4695,N,07726.9136,W,33.60,263.07,010525,,,A*48
$GPGGA,144954.250,4308.4692,N,07726.9168,W,1,06,1.73,162.3,M,-34.4,M,,*5F
$GPRMC,144954.500,A,4308.4690,N,07726.9199,W,33.27,263.00,010525,,,A*49
$GPGGA,144954.750,4308.4687,N,07726.9232,W,1,06,2.28,162.3,M,-34.4,M,,*5F
$GPRMC,144955.000,A,4308.4685,N,07726.9263,W,33.35,262.85,010525,,,A*40
$GPGGA,144955.250,4308.4682,N,07726.9295,W,1,06,1.73,162.4,M,-34.4,M,,*59
$GPRMC,144955.500,A,4308.4680,N,07726.9327,W,33.46,262.81,010525,,,A*41
$GPGGA,144955.750,4308.4678,N,07726.9360,W,1,06,2.28,162.4,M,-34.4,M,,*5F
$GPRMC,144956.000,A,4308.4676,N,07726.9392,W,34.00,263.56,010525,,,A*4E
$GPGGA,144956.250,4308.4674,N,07726.9425,W,1,06,1.73,162.4,M,-34.4,M,,*5E
$GPRMC,144956.500,A,4308.4672,N,07726.9457,W,34.46,264.22,010525,,,A*47
$GPGGA,144956.750,4308.4669,N,07726.9490,W,1,06,2.28,162.4,M,-34.4,M,,*54
$GPRMC,144957.000,A,4308.4666,N,07726.9523,W,35.13,264.38,010525,,,A*4E
$GPGGA,144957.250,4308.4664,N,07726.9556,W,1,06,1.73,162.4,M,-34.4,M,,*5B
$GPRMC,144957.500,A,4308.4661,N,07726.9590,W,35.50,264.35,010525,,,A*4E
$GPGGA,144957.750,4308.4659,N,07726.9624,W,1,06,2.28,162.4,M,-34.4,M,,*5B
$GPRMC,144958.000,A,4308.4656,N,07726.9658,W,36.03,264.36,010525,,,A*41
$GPGGA,144958.250,4308.4653,N,07726.9693,W,1,06,1.73,162.4,M,-34.4,M,,*5A
$GPRMC,144958.500,A,4308.4651,N,07726.9728,W,36.62,264.41,010525,,,A*42
$GPGGA,144958.750,4308.4648,N,07726.9763,W,1,06,2.28,162.4,M,-34.4,M,,*56
$GPRMC,144959.000,A,4308.4646,N,07726.9799,W,37.35,264.39,010525,,,A*46
$GPGGA,144959.250,4308.4643,N,07726.9834,W,1,06,1.73,162.5,M,-34.4,M,,*58
$GPRMC,144959.500,A,4308.4641,N,07726.9871,W,37.56,264.57,010525,,,A*40
$GPGGA,144959.750,4308.4639,N,07726.9907,W,1,06,2.28,162.5,M,-34.4,M,,*5C
$GPRMC,145000.000,A,4308.4637,N,07726.9944,W,37.87,264.55,010525,,,A*49
$GPGGA,145000.250,4308.4635,N,07726.9980,W,1,06,2.28,162.6,M,-34.4,M,,*5D
$GPRMC,145000.500,A,4308.4633,N,07727.0017,W,38.55,264.86,010525,,,A*41
$GPGGA,145000.750,4308.4631,N,07727.0054,W,1,06,2.28,162.7,M,-34.4,M,,*55
$GPRMC,145001.000,A,4308.4629,N,07727.0091,W,39.01,265.48,010525,,,A*43
$GPGGA,145001.250,4308.4628,N,07727.0128,W,1,06,1.73,162.8,M,-34.4,M,,*51
$GPRMC,145001.500,A,4308.4626,N,07727.0165,W,39.10,265.81,010525,,,A*46
$GPGGA,145001.750,4308.4624,N,07727.0202,W,1,06,2.28,162.9,M,-34.4,M,,*5F
$GPRMC,145002.000,A,4308.4622,N,07727.0239,W,39.18,266.04,010525,,,A*48
$GPGGA,145002.250,4308.4620,N,07727.0276,W,1,06,1.73,163.0,M,-34.4,M,,*5B
$GPRMC,145002.500,A,4308.4619,N,07727.0313,W,39.49,266.15,010525,,,A*48
$GPGGA,145002.750,4308.4617,N,07727.0351,W,1,06,2.27,163.1,M,-34.4,M,,*5D
$GPRMC,145003.000,A,4308.4616,N,07727.0388,W,39.36,266.21,010525,,,A*4E
$GPGGA,145003.250,4308.4614,N,07727.0425,W,1,06,2.27,163.2,M,-34.4,M,,*5D
$GPRMC,145003.500,A,4308.4613,N,07727.0462,W,39.34,266.42,010525,,,A*4A
$GPGGA,145003.750,4308.4612,N,07727.0498,W,1,06,2.27,163.2,M,-34.4,M,,*58
$GPRMC,145004.000,A,4308.4612,N,07727.0536,W,39.35,267.16,010525,,,A*48
$GPGGA,145004.250,4308.4612,N,07727.0574,W,1,06,1.73,163.2,M,-34.4,M,,*5B
$GPRMC,145004.500,A,4308.4612,N,07727.0613,W,39.68,267.60,010525,,,A*40
$GPGGA,145004.750,4308.4612,N,07727.0651,W,1,06,2.27,163.1,M,-34.4,M,,*5B
$GPRMC,145005.000,A,4308.4612,N,07727.0688,W,39.81,267.82,010525,,,A*4D
$GPGGA,145005.250,4308.4612,N,07727.0725,W,1,06,2.27,162.9,M,-34.4,M,,*54
$GPRMC,145005.500,A,4308.4613,N,07727.0763,W,39.80,269.04,010525,,,A*4C
$GPGGA,145005.750,4308.4614,N,07727.0799,W,1,06,2.27,162.7,M,-34.4,M,,*5E
$GPRMC,145006.000,A,4308.4617,N,07727.0833,W,39.10,271.19,010525,,,A*48
$GPGGA,145006.250,4308.4619,N,07727.0869,W,1,06,1.73,162.1,M,-34.4,M,,*51
$GPRMC,145006.500,A,4308.4622,N,07727.0904,W,39.09,272.45,010525,,,A*4C
$GPGGA,145006.750,4308.4625,N,07727.0941,W,1,06,2.27,161.6,M,-34.4,M,,*56
$GPRMC,145007.000,A,4308.4628,N,07727.0977,W,39.16,273.60,010525,,,A*4E
$GPGGA,145007.250,4308.4631,N,07727.1013,W,1,06,2.27,161.2,M,-34.4,M,,*5C
$GPRMC,145007.500,A,4308.4634,N,07727.1050,W,38.99,274.45,010525,,,A*4D
$GPGGA,145007.750,4308.4639,N,07727.1086,W,1,06,2.27,160.9,M,-34.4,M,,*57
$GPRMC,145008.000,A,4308.4643,N,07727.1122,W,38.81,276.37,010525,,,A*4D
$GPGGA,145008.250,4308.4648,N,07727.1158,W,1,06,2.27,160.5,M,-34.4,M,,*55
$GPRMC,145008.500,A,4308.4653,N,07727.1193,W,38.62,278.53,010525,,,A*42
$GPGGA,145008.750,4308.4658,N,07727.1228,W,1,06,2.27,160.1,M,-34.4,M,,*51
$GPRMC,145009.000,A,4308.4664,N,07727.1263,W,38.56,279.62,010525,,,A*4A
$GPGGA,145009.250,4308.4669,N,07727.1298,W,1,06,2.27,159.7,M,-34.4,M,,*50
$GPRMC,145009.500,A,4308.4674,N,07727.1334,W,38.44,280.14,010525,,,A*49
$GPGGA,145009.750,4308.4680,N,07727.1369,W,1,06,2.27,159.5,M,-34.4,M,,*5F
$GPRMC,145010.000,A,4308.4686,N,07727.1404,W,38.13,280.56,010525,,,A*49
$GPGGA,145010.250,4308.4692,N,07727.1439,W,1,06,2.27,159.3,M,-34.4,M,,*55
$GPRMC,145010.500,A,4308.4698,N,07727.1473,W,37.72,281.22,010525,,,A*49
$GPGGA,145010.750,4308.4704,N,07727.1508,W,1,06,2.27,159.0,M,-34.4,M,,*5E
$GPRMC,145011.000,A,4308.4710,N,07727.1542,W,37.61,281.55,010525,,,A*4D
$GPGGA,145011.250,4308.4716,N,07727.1577,W,1,06,2.27,158.6,M,-34.4,M,,*56
$GPRMC,145011.500,A,4308.4722,N,07727.1611,W,37.15,281.43,010525,,,A*48
$GPGGA,145011.750,4308.4728,N,07727.1645,W,1,06,2.27,158.2,M,-34.4,M,,*58
$GPRMC,145012.000,A,4308.4734,N,07727.1679,W,36.81,280.38,010525,,,A*46
$GPGGA,145012.250,4308.4739,N,07727.1714,W,1,06,2.27,157.8,M,-34.4,M,,*5E
$GPRMC,145012.500,A,4308.4745,N,07727.1748,W,36.46,280.14,010525,,,A*43
$GPGGA,145012.750,4308.4750,N,07727.1782,W,1,06,2.27,157.4,M,-34.4,M,,*57
$GPRMC,145013.000,A,4308.4755,N,07727.1816,W,36.32,280.43,010525,,,A*43
$GPGGA,145013.250,4308.4760,N,07727.1849,W,1,06,2.27,157.1,M,-34.4,M,,*5D
$GPRMC,145013.500,A,4308.4765,N,07727.1882,W,35.71,280.02,010525,,,A*49
$GPGGA,145013.750,4308.4770,N,07727.1915,W,1,06,2.27,156.7,M,-34.4,M,,*56
$GPRMC,145014.000,A,4308.4776,N,07727.1949,W,35.71,279.72,010525,,,A*4E
$GPGGA,145014.250,4308.4782,N,07727.1983,W,1,06,1.73,156.3,M,-34.4,M,,*50
$GPRMC,145014.500,A,4308.4787,N,07727.2016,W,35.69,279.73,010525,,,A*4D
$GPGGA,145014.750,4308.4793,N,07727.2050,W,1,06,2.27,155.8,M,-34.4,M,,*5B
$GPRMC,145015.000,A,4308.4798,N,07727.2084,W,35.72,279.35,010525,,,A*44
$GPGGA,145015.250,4308.4803,N,07727.2117,W,1,06,1.73,155.4,M,-34.4,M,,*55
$GPRMC,145015.500,A,4308.4808,N,07727.2152,W,36.01,279.47,010525,,,A*4F
$GPGGA,145015.750,4308.4812,N,07727.2186,W,1,06,2.27,155.1,M,-34.4,M,,*5F
$GPRMC,145016.000,A,4308.4817,N,07727.2220,W,36.47,278.97,010525,,,A*4F
$GPGGA,145016.250,4308.4821,N,07727.2255,W,1,06,2.27,154.8,M,-34.4,M,,*5C
$GPRMC,145016.500,A,4308.4826,N,07727.2289,W,36.54,278.84,010525,,,A*4B
$GPGGA,145016.750,4308.4830,N,07727.2323,W,1,06,2.27,154.4,M,-34.4,M,,*55
$GPRMC,145017.000,A,4308.4834,N,07727.2357,W,36.48,278.51,010525,,,A*4B
$GPGGA,145017.250,4308.4838,N,07727.2391,W,1,06,1.73,154.1,M,-34.4,M,,*57
$GPRMC,145017.500,A,4308.4842,N,07727.2426,W,36.55,278.03,010525,,,A*45
$GPGGA,145017.750,4308.4847,N,07727.2460,W,1,06,2.27,153.7,M,-34.4,M,,*50
$GPRMC,145018.000,A,4308.4851,N,07727.2495,W,36.60,278.36,010525,,,A*45
$GPGGA,145018.250,4308.4855,N,07727.2530,W,1,06,2.27,153.3,M,-34.4,M,,*59
$GPRMC,145018.500,A,4308.4859,N,07727.2564,W,36.70,278.44,010525,,,A*43
$GPGGA,145018.750,4308.4864,N,07727.2600,W,1,06,2.27,153.0,M,-34.4,M,,*5D
$GPRMC,145019.000,A,4308.4869,N,07727.2635,W,37.42,279.32,010525,,,A*43
$GPGGA,145019.250,4308.4874,N,07727.2670,W,1,06,2.27,152.8,M,-34.4,M,,*56
$GPRMC,145019.500,A,4308.4878,N,07727.2705,W,37.51,279.40,010525,,,A*43
$GPGGA,145019.750,4308.4883,N,07727.2740,W,1,06,2.27,152.5,M,-34.4,M,,*54
$GPRMC,145020.000,A,4308.4888,N,07727.2776,W,37.75,280.19,010525,,,A*4B
$GPGGA,145020.250,4308.4893,N,07727.2811,W,1,06,2.26,152.2,M,-34.4,M,,*57
$GPRMC,145020.500,A,4308.4898,N,07727.2847,W,38.01,280.20,010525,,,A*44
$GPGGA,145020.750,4308.4903,N,07727.2882,W,1,06,2.26,151.9,M,-34.4,M,,*58
$GPRMC,145021.000,A,4308.4908,N,07727.2918,W,38.04,280.29,010525,,,A*4F
$GPGGA,145021.250,4308.4913,N,07727.2954,W,1,06,2.26,151.7,M,-34.4,M,,*59
$GPRMC,145021.500,A,4308.4918,N,07727.2989,W,38.02,280.78,010525,,,A*41
$GPGGA,145021.750,4308.4924,N,07727.3025,W,1,06,2.26,151.3,M,-34.4,M,,*52
$GPRMC,145022.000,A,4308.4928,N,07727.3060,W,38.02,280.88,010525,,,A*44
$GPGGA,145022.250,4308.4933,N,07727.3095,W,1,06,2.26,151.1,M,-34.4,M,,*5B
$GPRMC,145022.500,A,4308.4938,N,07727.3130,W,37.56,280.71,010525,,,A*4C
$GPGGA,145022.750,4308.4943,N,07727.3165,W,1,06,2.26,150.7,M,-34.4,M,,*50
$GPRMC,145023.000,A,4308.4948,N,07727.3200,W,37.46,280.73,010525,,,A*4C
$GPGGA,145023.250,4308.4953,N,07727.3234,W,1,06,2.26,150.3,M,-34.4,M,,*56
$GPRMC,145023.500,A,4308.4958,N,07727.3269,W,37.19,280.65,010525,,,A*4A
$GPGGA,145023.750,4308.4963,N,07727.3304,W,1,06,2.26,150.0,M,-34.4,M,,*51
$GPRMC,145024.000,A,4308.4968,N,07727.3338,W,36.92,280.24,010525,,,A*49
$GPGGA,145024.250,4308.4972,N,07727.3373,W,1,06,2.26,149.7,M,-34.4,M,,*5C
$GPRMC,145024.500,A,4308.4977,N,07727.3406,W,36.49,279.91,010525,,,A*46
$GPGGA,145024.750,4308.4981,N,07727.3440,W,1,06,2.26,149.3,M,-34.4,M,,*56
$GPRMC,145025.000,A,4308.4984,N,07727.3474,W,36.39,278.96,010525,,,A*4A
$GPGGA,145025.250,4308.4988,N,07727.3507,W,1,06,2.26,149.0,M,-34.4,M,,*5A
$GPRMC,145025.500,A,4308.4991,N,07727.3541,W,35.87,278.41,010525,,,A*40
$GPGGA,145025.750,4308.4994,N,07727.3574,W,1,06,2.26,148.8,M,-34.4,M,,*5F
$GPRMC,145026.000,A,4308.4998,N,07727.3607,W,35.83,278.37,010525,,,A*4B
$GPGGA,145026.250,4308.5001,N,07727.3641,W,1,06,2.26,148.7,M,-34.4,M,,*57
$GPRMC,145026.500,A,4308.5004,N,07727.3675,W,36.12,277.96,010525,,,A*49
$GPGGA,145026.750,4308.5007,N,07727.3709,W,1,06,2.26,148.8,M,-34.4,M,,*56
$GPRMC,145027.000,A,4308.5010,N,07727.3743,W,36.33,277.67,010525,,,A*41
$GPGGA,145027.250,4308.5014,N,07727.3777,W,1,06,2.26,148.9,M,-34.4,M,,*58
$GPRMC,145027.500,A,4308.5017,N,07727.3812,W,36.55,278.04,010525,,,A*42
$GPGGA,145027.750,4308.5022,N,07727.3847,W,1,06,2.26,148.8,M,-34.4,M,,*55
$GPRMC,145028.000,A,4308.5026,N,07727.3883,W,37.06,278.71,010525,,,A*47
$GPGGA,145028.250,4308.5030,N,07727.3918,W,1,06,2.26,148.7,M,-34.4,M,,*58
$GPRMC,145028.500,A,4308.5035,N,07727.3953,W,36.87,279.24,010525,,,A*45
$GPGGA,145028.750,4308.5039,N,07727.3988,W,1,06,2.26,148.7,M,-34.4,M,,*5D
$GPRMC,145029.000,A,4308.5043,N,07727.4023,W,36.77,279.22,010525,,,A*40
$GPGGA,145029.250,4308.5047,N,07727.4058,W,1,06,2.26,148.8,M,-34.4,M,,*5C
$GPRMC,145029.500,A,4308.5050,N,07727.4092,W,36.52,279.06,010525,,,A*4C
$GPGGA,145029.750,4308.5054,N,07727.4126,W,1,06,2.26,148.8,M,-34.4,M,,*53
$GPRMC,145030.000,A,4308.5058,N,07727.4161,W,36.42,278.28,010525,,,A*48
$GPGGA,145030.250,4308.5062,N,07727.4195,W,1,06,2.26,148.6,M,-34.4,M,,*5D
$GPRMC,145030.500,A,4308.5067,N,07727.4230,W,36.58,278.41,010525,,,A*42
$GPGGA,145030.750,4308.5071,N,07727.4265,W,1,06,2.26,148.3,M,-34.4,M,,*53
$GPRMC,145031.000,A,4308.5075,N,07727.4299,W,36.49,279.13,010525,,,A*40
$GPGGA,145031.250,4308.5080,N,07727.4334,W,1,06,2.26,148.2,M,-34.4,M,,*5D
$GPRMC,145031.500,A,4308.5084,N,07727.4368,W,36.46,278.92,010525,,,A*43
$GPGGA,145031.750,4308.5088,N,07727.4402,W,1,06,2.26,148.0,M,-34.4,M,,*50
$GPRMC,145032.000,A,4308.5092,N,07727.4436,W,36.24,278.36,010525,,,A*44
$GPGGA,145032.250,4308.5096,N,07727.4470,W,1,06,2.26,147.7,M,-34.4,M,,*54
$GPRMC,145032.500,A,4308.5100,N,07727.4503,W,35.86,278.55,010525,,,A*42
$GPGGA,145032.750,4308.5104,N,07727.4537,W,1,06,2.26,147.3,M,-34.4,M,,*5D
$GPRMC,145033.000,A,4308.5108,N,07727.4571,W,35.89,278.35,010525,,,A*42
$GPGGA,145033.250,4308.5111,N,07727.4604,W,1,06,2.26,147.1,M,-34.4,M,,*5C
$GPRMC,145033.500,A,4308.5114,N,07727.4637,W,35.65,278.34,010525,,,A*48
$GPGGA,145033.750,4308.5117,N,07727.4670,W,1,06,2.26,147.1,M,-34.4,M,,*5C
$GPRMC,145034.000,A,4308.5120,N,07727.4702,W,34.99,278.37,010525,,,A*4B
$GPGGA,145034.250,4308.5124,N,07727.4735,W,1,06,2.26,147.0,M,-34.4,M,,*5F
$GPRMC,145034.500,A,4308.5127,N,07727.4767,W,34.73,279.19,010525,,,A*43
$GPGGA,145034.750,4308.5132,N,07727.4800,W,1,06,2.26,147.0,M,-34.4,M,,*54
$GPRMC,145035.000,A,4308.5136,N,07727.4832,W,34.79,280.07,010525,,,A*4B
$GPGGA,145035.250,4308.5140,N,07727.4865,W,1,06,2.26,147.0,M,-34.4,M,,*56
$GPRMC,145035.500,A,4308.5145,N,07727.4898,W,34.80,279.91,010525,,,A*45
$GPGGA,145035.750,4308.5148,N,07727.4930,W,1,06,2.26,146.8,M,-34.4,M,,*53
$GPRMC,145036.000,A,4308.5152,N,07727.4963,W,34.79,279.30,010525,,,A*4D
$GPGGA,145036.250,4308.5156,N,07727.4995,W,1,06,2.26,146.9,M,-34.4,M,,*54
$GPRMC,145036.500,A,4308.5159,N,07727.5027,W,34.42,279.20,010525,,,A*42
$GPGGA,145036.750,4308.5163,N,07727.5058,W,1,06,2.26,146.9,M,-34.4,M,,*5E
$GPRMC,145037.000,A,4308.5167,N,07727.5090,W,34.38,279.75,010525,,,A*4A
$GPGGA,145037.250,4308.5171,N,07727.5122,W,1,06,2.25,147.0,M,-34.4,M,,*5E
$GPRMC,145037.500,A,4308.5175,N,07727.5154,W,34.37,280.20,010525,,,A*4C
$GPGGA,145037.750,4308.5179,N,07727.5185,W,1,06,2.26,147.2,M,-34.4,M,,*5F
$GPRMC,145038.000,A,4308.5184,N,07727.5216,W,34.19,280.35,010525,,,A*45
$GPGGA,145038.250,4308.5188,N,07727.5248,W,1,06,2.25,147.3,M,-34.4,M,,*5B
$GPRMC,145038.500,A,4308.5192,N,07727.5279,W,34.03,280.33,010525,,,A*43
$GPGGA,145038.750,4308.5197,N,07727.5310,W,1,06,2.25,147.1,M,-34.4,M,,*5E
$GPRMC,145039.000,A,4308.5201,N,07727.5341,W,33.66,280.84,010525,,,A*4C
$GPGGA,145039.250,4308.5206,N,07727.5372,W,1,06,2.25,147.2,M,-34.4,M,,*56
$GPRMC,145039.500,A,4308.5211,N,07727.5403,W,33.44,281.46,010525,,,A*46
$GPGGA,145039.750,4308.5216,N,07727.5434,W,1,06,2.26,147.0,M,-34.4,M,,*56
$GPRMC,145040.000,A,4308.5222,N,07727.5464,W,33.51,282.11,010525,,,A*49
$GPGGA,145040.250,4308.5227,N,07727.5495,W,1,06,2.25,146.7,M,-34.4,M,,*51
$GPRMC,145040.500,A,4308.5233,N,07727.5526,W,33.79,282.95,010525,,,A*4D
$GPGGA,145040.750,4308.5239,N,07727.5557,W,1,06,2.26,146.5,M,-34.4,M,,*55
$GPRMC,145041.000,A,4308.5244,N,07727.5588,W,33.84,283.17,010525,,,A*44
$GPGGA,145041.250,4308.5250,N,07727.5619,W,1,06,2.25,146.4,M,-34.4,M,,*55
$GPRMC,145041.500,A,4308.5254,N,07727.5651,W,33.92,282.54,010525,,,A*46
$GPGGA,145041.750,4308.5259,N,07727.5682,W,1,06,2.26,146.4,M,-34.4,M,,*58
$GPRMC,145042.000,A,4308.5263,N,07727.5713,W,33.72,281.35,010525,,,A*49
$GPGGA,145042.250,4308.5267,N,07727.5745,W,1,06,2.25,146.4,M,-34.4,M,,*5A
$GPRMC,145042.500,A,4308.5271,N,07727.5777,W,34.27,280.13,010525,,,A*4F
$GPGGA,145042.750,4308.5274,N,07727.5810,W,1,06,2.26,146.3,M,-34.4,M,,*56
$GPRMC,145043.000,A,4308.5278,N,07727.5843,W,34.27,278.60,010525,,,A*49
$GPGGA,145043.250,4308.5282,N,07727.5876,W,1,06,2.25,146.3,M,-34.4,M,,*58
$GPRMC,145043.500,A,4308.5285,N,07727.5908,W,34.52,278.20,010525,,,A*46
$GPGGA,145043.750,4308.5289,N,07727.5941,W,1,06,2.25,146.1,M,-34.4,M,,*51
$GPRMC,145044.000,A,4308.5292,N,07727.5975,W,35.06,277.61,010525,,,A*42
$GPGGA,145044.250,4308.5296,N,07727.6008,W,1,06,2.25,145.9,M,-34.4,M,,*51
$GPRMC,145044.500,A,4308.5300,N,07727.6041,W,34.95,278.18,010525,,,A*4A
$GPGGA,145044.750,4308.5305,N,07727.6074,W,1,06,2.25,145.5,M,-34.4,M,,*58
$GPRMC,145045.000,A,4308.5308,N,07727.6107,W,34.66,278.01,010525,,,A*41
$GPGGA,145045.250,4308.5312,N,07727.6139,W,1,06,2.25,145.0,M,-34.4,M,,*57
$GPRMC,145045.500,A,4308.5314,N,07727.6172,W,34.61,277.24,010525,,,A*44
$GPGGA,145045.750,4308.5317,N,07727.6204,W,1,06,2.25,144.5,M,-34.4,M,,*5E
$GPRMC,145046.000,A,4308.5320,N,07727.6237,W,34.52,276.99,010525,,,A*40
$GPGGA,145046.250,4308.5323,N,07727.6269,W,1,06,2.25,144.2,M,-34.4,M,,*53
$GPRMC,145046.500,A,4308.5326,N,07727.6301,W,34.42,277.59,010525,,,A*4B
$GPGGA,145046.750,4308.5329,N,07727.6333,W,1,06,2.25,144.1,M,-34.4,M,,*51
$GPRMC,145047.000,A,4308.5333,N,07727.6365,W,34.19,277.58,010525,,,A*46
$GPGGA,145047.250,4308.5336,N,07727.6397,W,1,06,2.25,143.8,M,-34.4,M,,*5B
$GPRMC,145047.500,A,4308.5339,N,07727.6429,W,34.09,277.74,010525,,,A*49
$GPGGA,145047.750,4308.5343,N,07727.6461,W,1,06,2.25,143.5,M,-34.4,M,,*5F
$GPRMC,145048.000,A,4308.5346,N,07727.6493,W,33.63,277.74,010525,,,A*41
$GPGGA,145048.250,4308.5349,N,07727.6524,W,1,06,2.25,143.5,M,-34.4,M,,*5F
$GPRMC,145048.500,A,4308.5352,N,07727.6555,W,33.36,277.78,010525,,,A*46
$GPGGA,145048.750,4308.5355,N,07727.6586,W,1,06,2.25,143.5,M,-34.4,M,,*5F
$GPRMC,145049.000,A,4308.5358,N,07727.6617,W,33.27,278.17,010525,,,A*4B
$GPGGA,145049.250,4308.5360,N,07727.6648,W,1,06,2.25,143.5,M,-34.4,M,,*5C
$GPRMC,145049.500,A,4308.5363,N,07727.6680,W,33.33,277.17,010525,,,A*42
$GPGGA,145049.750,4308.5366,N,07727.6711,W,1,06,2.25,143.2,M,-34.4,M,,*55
$GPRMC,145050.000,A,4308.5368,N,07727.6742,W,33.14,276.62,010525,,,A*4D
$GPGGA,145050.250,4308.5371,N,07727.6772,W,1,06,2.25,142.8,M,-34.4,M,,*50
$GPRMC,145050.500,A,4308.5373,N,07727.6803,W,32.59,276.27,010525,,,A*41
$GPGGA,145050.750,4308.5375,N,07727.6833,W,1,06,2.25,142.7,M,-34.4,M,,*54
$GPRMC,145051.000,A,4308.5378,N,07727.6863,W,32.34,275.79,010525,,,A*4B
$GPGGA,145051.250,4308.5380,N,07727.6893,W,1,06,2.25,142.6,M,-34.4,M,,*51
$GPRMC,145051.500,A,4308.5381,N,07727.6923,W,32.26,275.27,010525,,,A*45
$GPGGA,145051.750,4308.5382,N,07727.6953,W,1,06,2.25,142.6,M,-34.4,M,,*5B
$GPRMC,145052.000,A,4308.5384,N,07727.6983,W,31.91,274.66,010525,,,A*47
$GPGGA,145052.250,4308.5386,N,07727.7013,W,1,06,2.25,142.6,M,-34.4,M,,*55
$GPRMC,145052.500,A,4308.5387,N,07727.7042,W,31.75,274.71,010525,,,A*48
$GPGGA,145052.750,4308.5389,N,07727.7072,W,1,06,2.25,142.5,M,-34.4,M,,*5B
$GPRMC,145053.000,A,4308.5390,N,07727.7101,W,31.39,274.17,010525,,,A*44
$GPGGA,145053.250,4308.5391,N,07727.7131,W,1,06,2.25,142.5,M,-34.4,M,,*50
$GPRMC,145053.500,A,4308.5392,N,07727.7160,W,31.15,273.64,010525,,,A*49
$GPGGA,145053.750,4308.5393,N,07727.7189,W,1,06,2.25,142.5,M,-34.4,M,,*54
$GPRMC,145054.000,A,4308.5394,N,07727.7218,W,30.46,273.46,010525,,,A*46
$GPGGA,145054.250,4308.5395,N,07727.7247,W,1,06,2.25,142.5,M,-34.4,M,,*51
$GPRMC,145054.500,A,4308.5396,N,07727.7276,W,30.52,274.12,010525,,,A*4A
$GPGGA,145054.750,4308.5398,N,07727.7305,W,1,06,2.25,142.7,M,-34.4,M,,*5C
$GPRMC,145055.000,A,4308.5399,N,07727.7334,W,30.73,274.33,010525,,,A*46
$GPGGA,145055.250,4308.5400,N,07727.7363,W,1,06,2.25,142.8,M,-34.4,M,,*51
$GPRMC,145055.500,A,4308.5401,N,07727.7391,W,30.69,274.37,010525,,,A*45
$GPGGA,145055.750,4308.5402,N,07727.7420,W,1,06,2.25,143.0,M,-34.4,M,,*5F
$GPRMC,145056.000,A,4308.5404,N,07727.7448,W,30.64,274.62,010525,,,A*48
$GPGGA,145056.250,4308.5405,N,07727.7477,W,1,06,1.73,143.2,M,-34.4,M,,*5E
$GPRMC,145056.500,A,4308.5406,N,07727.7504,W,30.47,274.74,010525,,,A*40
$GPGGA,145056.750,4308.5407,N,07727.7531,W,1,06,2.25,143.6,M,-34.4,M,,*5E
$GPRMC,145057.000,A,4308.5408,N,07727.7557,W,28.53,274.27,010525,,,A*46
$GPGGA,145057.250,4308.5409,N,07727.7584,W,1,06,2.25,143.8,M,-34.4,M,,*54
$GPRMC,145057.500,A,4308.5410,N,07727.7611,W,28.09,274.45,010525,,,A*40
$GPGGA,145057.750,4308.5411,N,07727.7637,W,1,06,2.25,144.0,M,-34.4,M,,*5C
$GPRMC,145058.000,A,4308.5412,N,07727.7663,W,27.73,274.15,010525,,,A*4A
$GPGGA,145058.250,4308.5413,N,07727.7689,W,1,06,1.73,144.2,M,-34.4,M,,*53
$GPRMC,145058.500,A,4308.5415,N,07727.7715,W,27.42,274.51,010525,,,A*4A
$GPGGA,145058.750,4308.5416,N,07727.7740,W,1,06,2.24,144.3,M,-34.4,M,,*57
$GPRMC,145059.000,A,4308.5417,N,07727.7765,W,27.22,274.39,010525,,,A*43
$GPGGA,145059.250,4308.5418,N,07727.7791,W,1,06,1.73,144.4,M,-34.4,M,,*57
$GPRMC,145059.500,A,4308.5419,N,07727.7816,W,26.99,274.53,010525,,,A*4E
$GPGGA,145059.750,4308.5420,N,07727.7840,W,1,06,2.25,144.4,M,-34.4,M,,*5A
$GPRMC,145100.000,A,4308.5421,N,07727.7865,W,25.65,274.51,010525,,,A*4B
$GPGGA,145100.250,4308.5422,N,07727.7889,W,1,06,2.24,144.4,M,-34.4,M,,*54
$GPRMC,145100.500,A,4308.5423,N,07727.7912,W,24.92,275.10,010525,,,A*40
$GPGGA,145100.750,4308.5424,N,07727.7934,W,1,06,2.24,144.4,M,-34.4,M,,*50
$GPRMC,145101.000,A,4308.5424,N,07727.7956,W,22.81,277.01,010525,,,A*45
$GPGGA,145101.250,4308.5425,N,07727.7976,W,1,06,2.24,144.5,M,-34.4,M,,*52
$GPRMC,145101.500,A,4308.5426,N,07727.7995,W,21.05,277.87,010525,,,A*4C
$GPGGA,145101.750,4308.5425,N,07727.8012,W,1,06,2.24,144.5,M,-34.4,M,,*53
$GPRMC,145102.000,A,4308.5421,N,07727.8027,W,18.62,276.89,010525,,,A*46
$GPGGA,145102.250,4308.5422,N,07727.8043,W,1,06,2.24,144.6,M,-34.4,M,,*55
$GPRMC,145102.500,A,4308.5423,N,07727.8057,W,16.74,278.19,010525,,,A*48
$GPGGA,145102.750,4308.5423,N,07727.8070,W,1,06,2.24,144.6,M,-34.4,M,,*51
$GPRMC,145103.000,A,4308.5424,N,07727.8082,W,14.71,280.51,010525,,,A*4F
$GPGGA,145103.250,4308.5426,N,07727.8095,W,1,06,2.24,144.5,M,-34.4,M,,*58
$GPRMC,145103.500,A,4308.5426,N,07727.8105,W,13.01,281.78,010525,,,A*4C
$GPGGA,145103.750,4308.5426,N,07727.8114,W,1,06,2.24,144.6,M,-34.4,M,,*56
$GPRMC,145104.000,A,4308.5426,N,07727.8121,W,10.67,283.59,010525,,,A*4A
$GPGGA,145104.250,4308.5427,N,07727.8129,W,1,06,2.24,144.7,M,-34.4,M,,*5A
$GPRMC,145104.500,A,4308.5428,N,07727.8136,W,9.04,285.97,010525,,,A*7E
$GPGGA,145104.750,4308.5428,N,07727.8140,W,1,06,2.24,144.7,M,-34.4,M,,*5F
$GPRMC,145105.000,A,4308.5429,N,07727.8144,W,6.37,289.97,010525,,,A*7D
$GPGGA,145105.250,4308.5429,N,07727.8147,W,1,06,2.24,144.8,M,-34.4,M,,*52
$GPRMC,145105.500,A,4308.5429,N,07727.8148,W,4.13,291.26,010525,,,A*73
$GPGGA,145105.750,4308.5428,N,07727.8149,W,1,06,2.24,144.9,M,-34.4,M,,*59
$GPRMC,145106.000,A,4308.5427,N,07727.8148,W,2.22,299.57,010525,,,A*71
$GPGGA,145106.250,4308.5426,N,07727.8147,W,1,06,1.73,145.2,M,-34.4,M,,*54
$GPRMC,145109.500,A,4308.5430,N,07727.8153,W,2.51,299.57,010525,,,A*73
$GPGGA,145109.750,4308.5429,N,07727.8156,W,1,06,1.73,145.0,M,-34.4,M,,*53
$GPRMC,145110.000,A,4308.5428,N,07727.8158,W,2.94,270.87,010525,,,A*7F
$GPGGA,145110.250,4308.5423,N,07727.8165,W,1,06,1.73,145.3,M,-34.4,M,,*57
$GPRMC,145110.500,A,4308.5418,N,07727.8169,W,5.59,245.73,010525,,,A*70
$GPGGA,145110.750,4308.5407,N,07727.8172,W,1,06,2.24,145.4,M,-34.4,M,,*54
$GPRMC,145111.000,A,4308.5398,N,07727.8175,W,7.39,210.44,010525,,,A*76
$GPGGA,145111.250,4308.5390,N,07727.8177,W,1,06,2.24,145.5,M,-34.4,M,,*5D
$GPRMC,145111.500,A,4308.5377,N,07727.8180,W,9.81,198.69,010525,,,A*79
$GPGGA,145111.750,4308.5363,N,07727.8181,W,1,06,2.24,145.6,M,-34.4,M,,*5E
$GPRMC,145112.000,A,4308.5351,N,07727.8182,W,12.20,189.04,010525,,,A*43
$GPGGA,145112.250,4308.5340,N,07727.8183,W,1,06,2.24,145.7,M,-34.4,M,,*5A
$GPRMC,145112.500,A,4308.5328,N,07727.8183,W,13.47,185.01,010525,,,A*40
$GPGGA,145112.750,4308.5314,N,07727.8182,W,1,06,2.24,145.7,M,-34.4,M,,*5F
$GPRMC,145113.000,A,4308.5301,N,07727.8182,W,15.44,180.62,010525,,,A*4B
$GPGGA,145113.250,4308.5287,N,07727.8184,W,1,06,2.24,145.6,M,-34.4,M,,*57
$GPRMC,145113.500,A,4308.5271,N,07727.8184,W,17.39,180.43,010525,,,A*45
$GPGGA,145113.750,4308.5254,N,07727.8183,W,1,06,2.24,145.4,M,-34.4,M,,*59
$GPRMC,145114.000,A,4308.5238,N,07727.8183,W,19.16,179.36,010525,,,A*4A
$GPGGA,145114.250,4308.5222,N,07727.8183,W,1,06,2.24,145.3,M,-34.4,M,,*5D
$GPRMC,145114.500,A,4308.5203,N,07727.8187,W,20.85,181.24,010525,,,A*47
$GPGGA,145114.750,4308.5184,N,07727.8188,W,1,06,2.24,145.1,M,-34.4,M,,*5E
$GPRMC,145115.000,A,4308.5165,N,07727.8189,W,22.77,180.28,010525,,,A*4C
$GPGGA,145115.250,4308.5147,N,07727.8191,W,1,06,2.24,145.0,M,-34.4,M,,*5C
$GPRMC,145115.500,A,4308.5126,N,07727.8194,W,24.60,181.18,010525,,,A*40
$GPGGA,145115.750,4308.5104,N,07727.8198,W,1,06,2.24,144.8,M,-34.4,M,,*5E
$GPRMC,145116.000,A,4308.5084,N,07727.8200,W,26.31,182.57,010525,,,A*4F
$GPGGA,145116.250,4308.5065,N,07727.8202,W,1,06,2.24,144.7,M,-34.4,M,,*51
$GPRMC,145116.500,A,4308.5043,N,07727.8204,W,27.66,182.60,010525,,,A*42
$GPGGA,145116.750,4308.5021,N,07727.8206,W,1,06,2.24,144.5,M,-34.4,M,,*52
$GPRMC,145117.000,A,4308.4999,N,07727.8208,W,29.25,182.93,010525,,,A*40
$GPGGA,145117.250,4308.4977,N,07727.8210,W,1,06,2.24,144.4,M,-34.4,M,,*5B
$GPRMC,145117.500,A,4308.4955,N,07727.8211,W,29.85,182.69,010525,,,A*42
$GPGGA,145117.750,4308.4934,N,07727.8212,W,1,06,2.23,144.4,M,-34.4,M,,*5C
$GPRMC,145118.000,A,4308.4912,N,07727.8213,W,30.21,182.82,010525,,,A*4A
$GPGGA,145118.250,4308.4890,N,07727.8214,W,1,06,1.73,144.4,M,-34.4,M,,*59
$GPRMC,145118.500,A,4308.4868,N,07727.8218,W,30.58,183.66,010525,,,A*4D
$GPGGA,145118.750,4308.4846,N,07727.8221,W,1,06,2.24,144.1,M,-34.4,M,,*55
$GPRMC,145119.000,A,4308.4825,N,07727.8223,W,30.64,183.76,010525,,,A*46
$GPGGA,145119.250,4308.4803,N,07727.8226,W,1,06,2.24,144.0,M,-34.4,M,,*56
$GPRMC,145119.500,A,4308.4781,N,07727.8229,W,30.94,183.63,010525,,,A*43
$GPGGA,145119.750,4308.4760,N,07727.8231,W,1,06,2.23,143.9,M,-34.4,M,,*56
$GPRMC,145120.000,A,4308.4739,N,07727.8233,W,30.64,183.92,010525,,,A*45
$GPGGA,145120.250,4308.4717,N,07727.8235,W,1,06,2.23,144.0,M,-34.4,M,,*53
$GPRMC,145120.500,A,4308.4694,N,07727.8237,W,30.86,183.65,010525,,,A*46
$GPGGA,145120.750,4308.4672,N,07727.8239,W,1,06,2.23,144.0,M,-34.4,M,,*58
$GPRMC,145121.000,A,4308.4649,N,07727.8241,W,31.23,183.08,010525,,,A*46
$GPGGA,145121.250,4308.4627,N,07727.8242,W,1,06,1.73,144.0,M,-34.4,M,,*56
$GPRMC,145121.500,A,4308.4604,N,07727.8243,W,31.34,182.38,010525,,,A*4C
$GPGGA,145121.750,4308.4580,N,07727.8243,W,1,06,2.23,144.1,M,-34.4,M,,*5B
$GPRMC,145122.000,A,4308.4556,N,07727.8243,W,31.82,181.26,010525,,,A*4F
$GPGGA,145122.250,4308.4533,N,07727.8244,W,1,06,2.23,144.2,M,-34.4,M,,*51
$GPRMC,145122.500,A,4308.4509,N,07727.8246,W,31.99,181.79,010525,,,A*45
$GPGGA,145122.750,4308.4486,N,07727.8246,W,1,06,2.23,144.4,M,-34.4,M,,*5F
$GPRMC,145123.000,A,4308.4463,N,07727.8248,W,31.95,182.53,010525,,,A*45
$GPGGA,145123.250,4308.4441,N,07727.8250,W,1,06,2.23,144.4,M,-34.4,M,,*57
$GPRMC,145123.500,A,4308.4420,N,07727.8252,W,31.46,182.86,010525,,,A*4A
$GPGGA,145123.750,4308.4397,N,07727.8256,W,1,06,1.73,144.3,M,-34.4,M,,*59
$GPRMC,145124.000,A,4308.4376,N,07727.8260,W,30.05,182.23,010525,,,A*44
$GPGGA,145124.250,4308.4353,N,07727.8262,W,1,06,2.23,143.8,M,-34.4,M,,*5E
$GPRMC,145124.500,A,4308.4331,N,07727.8265,W,30.37,182.40,010525,,,A*43
$GPGGA,145124.750,4308.4309,N,07727.8267,W,1,06,2.23,143.5,M,-34.4,M,,*5C
$GPRMC,145125.000,A,4308.4287,N,07727.8269,W,30.44,182.63,010525,,,A*42
$GPGGA,145125.250,4308.4266,N,07727.8270,W,1,06,2.23,143.4,M,-34.4,M,,*57
$GPRMC,145125.500,A,4308.4244,N,07727.8271,W,30.37,182.31,010525,,,A*42
$GPGGA,145125.750,4308.4222,N,07727.8273,W,1,06,2.23,143.4,M,-34.4,M,,*51
$GPRMC,145126.000,A,4308.4201,N,07727.8274,W,30.34,182.16,010525,,,A*46
$GPGGA,145126.250,4308.4180,N,07727.8275,W,1,06,2.23,143.1,M,-34.4,M,,*5F
$GPRMC,145126.500,A,4308.4159,N,07727.8275,W,30.37,181.34,010525,,,A*4C
$GPGGA,145126.750,4308.4138,N,07727.8276,W,1,06,2.23,142.7,M,-34.4,M,,*5D
$GPRMC,145127.000,A,4308.4117,N,07727.8277,W,30.41,182.23,010525,,,A*44
$GPGGA,145127.250,4308.4096,N,07727.8278,W,1,06,2.23,142.4,M,-34.4,M,,*51
$GPRMC,145127.500,A,4308.4075,N,07727.8279,W,30.42,182.64,010525,,,A*4A
$GPGGA,145127.750,4308.4055,N,07727.8279,W,1,06,2.23,142.1,M,-34.4,M,,*5F
$GPRMC,145128.000,A,4308.4034,N,07727.8279,W,30.16,181.65,010525,,,A*46
$GPGGA,145128.250,4308.4012,N,07727.8278,W,1,06,2.23,141.6,M,-34.4,M,,*53
$GPRMC,145128.500,A,4308.3991,N,07727.8278,W,30.17,180.64,010525,,,A*42
$GPGGA,145128.750,4308.3970,N,07727.8277,W,1,06,2.23,141.0,M,-34.4,M,,*55
$GPRMC,145129.000,A,4308.3949,N,07727.8276,W,30.12,179.74,010525,,,A*4F
$GPGGA,145129.250,4308.3927,N,07727.8276,W,1,06,1.73,140.5,M,-34.4,M,,*50
$GPRMC,145129.500,A,4308.3906,N,07727.8275,W,30.07,179.31,010525,,,A*47
$GPGGA,145129.750,4308.3885,N,07727.8276,W,1,06,2.23,140.1,M,-34.4,M,,*5E
$GPRMC,145130.000,A,4308.3863,N,07727.8276,W,29.78,180.39,010525,,,A*45
$GPGGA,145130.250,4308.3842,N,07727.8277,W,1,06,2.23,139.6,M,-34.4,M,,*50
$GPRMC,145130.500,A,4308.3821,N,07727.8277,W,29.48,181.13,010525,,,A*4D
$GPGGA,145130.750,4308.3800,N,07727.8277,W,1,06,2.23,139.2,M,-34.4,M,,*57
$GPRMC,145131.000,A,4308.3778,N,07727.8277,W,29.02,181.15,010525,,,A*42
$GPGGA,145131.250,4308.3758,N,07727.8277,W,1,06,2.23,139.0,M,-34.4,M,,*53
$GPRMC,145131.500,A,4308.3737,N,07727.8278,W,28.73,181.31,010525,,,A*42
$GPGGA,145131.750,4308.3717,N,07727.8279,W,1,06,2.23,138.9,M,-34.4,M,,*5B
$GPRMC,145132.000,A,4308.3697,N,07727.8281,W,28.51,182.03,010525,,,A*4B
$GPGGA,145132.250,4308.3677,N,07727.8282,W,1,06,2.23,138.7,M,-34.4,M,,*50
$GPRMC,145132.500,A,4308.3656,N,07727.8283,W,28.52,182.26,010525,,,A*45
$GPGGA,145132.750,4308.3635,N,07727.8284,W,1,06,2.23,138.6,M,-34.4,M,,*54
$GPRMC,145133.000,A,4308.3613,N,07727.8284,W,28.75,182.47,010525,,,A*45
$GPGGA,145133.250,4308.3591,N,07727.8285,W,1,06,2.23,138.6,M,-34.4,M,,*5C
$GPRMC,145133.500,A,4308.3570,N,07727.8286,W,28.79,182.35,010525,,,A*4D
$GPGGA,145133.750,4308.3549,N,07727.8287,W,1,06,2.23,138.8,M,-34.4,M,,*50
$GPRMC,145134.000,A,4308.3529,N,07727.8289,W,28.55,182.57,010525,,,A*46
$GPGGA,145134.250,4308.3509,N,07727.8289,W,1,06,2.23,138.9,M,-34.4,M,,*59
$GPRMC,145134.500,A,4308.3490,N,07727.8290,W,28.11,182.26,010525,,,A*4E
$GPGGA,145134.750,4308.3471,N,07727.8292,W,1,06,2.23,139.0,M,-34.4,M,,*50
$GPRMC,145135.000,A,4308.3451,N,07727.8293,W,27.89,182.23,010525,,,A*4F
$GPGGA,145135.250,4308.3431,N,07727.8293,W,1,06,2.23,138.9,M,-34.4,M,,*59
$GPRMC,145135.500,A,4308.3413,N,07727.8294,W,27.58,182.18,010525,,,A*4F
$GPGGA,145135.750,4308.3394,N,07727.8295,W,1,06,2.23,138.5,M,-34.4,M,,*5E
$GPRMC,145136.000,A,4308.3375,N,07727.8295,W,27.26,181.96,010525,,,A*43
$GPGGA,145136.250,4308.3355,N,07727.8296,W,1,06,2.22,138.4,M,-34.4,M,,*56
$GPRMC,145136.500,A,4308.3336,N,07727.8297,W,26.90,181.88,010525,,,A*40
$GPGGA,145136.750,4308.3317,N,07727.8297,W,1,06,2.23,138.4,M,-34.4,M,,*55
$GPRMC,145137.000,A,4308.3298,N,07727.8297,W,26.59,180.71,010525,,,A*43
$GPGGA,145137.250,4308.3280,N,07727.8297,W,1,06,2.23,138.1,M,-34.4,M,,*5B
$GPRMC,145137.500,A,4308.3262,N,07727.8298,W,26.26,180.51,010525,,,A*46
$GPGGA,145137.750,4308.3244,N,07727.8298,W,1,06,2.22,137.6,M,-34.4,M,,*50
$GPRMC,145138.000,A,4308.3227,N,07727.8299,W,25.80,180.65,010525,,,A*44
$GPGGA,145138.250,4308.3208,N,07727.8300,W,1,06,2.22,137.3,M,-34.4,M,,*57
$GPRMC,145138.500,A,4308.3190,N,07727.8300,W,25.52,180.32,010525,,,A*42
$GPGGA,145138.750,4308.3172,N,07727.8301,W,1,06,2.22,137.1,M,-34.4,M,,*5F
$GPRMC,145139.000,A,4308.3154,N,07727.8302,W,25.32,180.59,010525,,,A*47
$GPGGA,145139.250,4308.3135,N,07727.8302,W,1,06,2.22,137.0,M,-34.4,M,,*5A
$GPRMC,145139.500,A,4308.3117,N,07727.8303,W,25.31,180.44,010525,,,A*4B
$GPGGA,145139.750,4308.3099,N,07727.8303,W,1,06,2.22,137.0,M,-34.4,M,,*59
$GPRMC,145140.000,A,4308.3081,N,07727.8304,W,24.91,180.10,010525,,,A*43
$GPGGA,145140.250,4308.3064,N,07727.8304,W,1,06,2.22,136.8,M,-34.4,M,,*5E
$GPRMC,145140.500,A,4308.3047,N,07727.8305,W,24.39,181.09,010525,,,A*46
$GPGGA,145140.750,4308.3029,N,07727.8305,W,1,06,2.22,136.6,M,-34.4,M,,*5D
$GPRMC,145141.000,A,4308.3012,N,07727.8306,W,24.12,181.39,010525,,,A*4B
$GPGGA,145141.250,4308.2995,N,07727.8306,W,1,06,2.22,136.4,M,-34.4,M,,*57
$GPRMC,145141.500,A,4308.2978,N,07727.8306,W,24.03,181.32,010525,,,A*41
$GPGGA,145141.750,4308.2960,N,07727.8306,W,1,06,2.22,136.3,M,-34.4,M,,*5F
$GPRMC,145142.000,A,4308.2942,N,07727.8306,W,23.79,181.33,010525,,,A*45
$GPGGA,145142.250,4308.2926,N,07727.8307,W,1,06,2.22,136.3,M,-34.4,M,,*5A
$GPRMC,145142.500,A,4308.2910,N,07727.8307,W,23.57,181.61,010525,,,A*4D
$GPGGA,145142.750,4308.2894,N,07727.8308,W,1,06,2.22,136.0,M,-34.4,M,,*5B
$GPRMC,145143.000,A,4308.2878,N,07727.8309,W,23.38,182.15,010525,,,A*41
$GPGGA,145143.250,4308.2862,N,07727.8310,W,1,06,2.22,135.6,M,-34.4,M,,*5A
$GPRMC,145143.500,A,4308.2845,N,07727.8311,W,23.53,182.44,010525,,,A*4A
$GPGGA,145143.750,4308.2829,N,07727.8312,W,1,06,2.22,135.4,M,-34.4,M,,*50
$GPRMC,145144.000,A,4308.2812,N,07727.8313,W,23.61,182.35,010525,,,A*4F
$GPGGA,145144.250,4308.2796,N,07727.8314,W,1,06,2.22,135.3,M,-34.4,M,,*58
$GPRMC,145144.500,A,4308.2780,N,07727.8315,W,23.61,181.31,010525,,,A*4F
$GPGGA,145144.750,4308.2763,N,07727.8315,W,1,06,2.22,135.0,M,-34.4,M,,*55
$GPRMC,145145.000,A,4308.2747,N,07727.8315,W,23.62,180.72,010525,,,A*45
$GPGGA,145145.250,4308.2731,N,07727.8316,W,1,06,2.22,134.8,M,-34.4,M,,*5C
$GPRMC,145145.500,A,4308.2714,N,07727.8317,W,23.85,180.83,010525,,,A*43
$GPGGA,145145.750,4308.2697,N,07727.8318,W,1,06,2.22,134.6,M,-34.4,M,,*54
$GPRMC,145146.000,A,4308.2682,N,07727.8319,W,23.88,181.54,010525,,,A*43
$GPGGA,145146.250,4308.2666,N,07727.8319,W,1,06,2.22,134.3,M,-34.4,M,,*58
$GPRMC,145146.500,A,4308.2651,N,07727.8321,W,23.63,182.24,010525,,,A*42
$GPGGA,145146.750,4308.2636,N,07727.8322,W,1,06,2.22,133.9,M,-34.4,M,,*5D
$GPRMC,145147.000,A,4308.2621,N,07727.8323,W,23.21,182.63,010525,,,A*46
$GPGGA,145147.250,4308.2605,N,07727.8324,W,1,06,2.22,133.7,M,-34.4,M,,*51
$GPRMC,145147.500,A,4308.2589,N,07727.8326,W,22.95,183.22,010525,,,A*4D
$GPGGA,145147.750,4308.2572,N,07727.8328,W,1,06,2.22,133.9,M,-34.4,M,,*55
$GPRMC,145148.000,A,4308.2556,N,07727.8329,W,22.95,183.29,010525,,,A*41
$GPGGA,145148.250,4308.2540,N,07727.8331,W,1,06,2.22,134.2,M,-34.4,M,,*5A
$GPRMC,145148.500,A,4308.2524,N,07727.8334,W,22.87,183.13,010525,,,A*47
$GPGGA,145148.750,4308.2508,N,07727.8335,W,1,06,2.22,134.7,M,-34.4,M,,*52
$GPRMC,145149.000,A,4308.2493,N,07727.8337,W,22.30,182.42,010525,,,A*44
$GPGGA,145149.250,4308.2479,N,07727.8337,W,1,06,2.22,134.7,M,-34.4,M,,*53
$GPRMC,145149.500,A,4308.2466,N,07727.8338,W,21.24,181.35,010525,,,A*41
$GPGGA,145149.750,4308.2452,N,07727.8339,W,1,06,2.22,134.9,M,-34.4,M,,*5F
$GPRMC,145150.000,A,4308.2439,N,07727.8340,W,20.06,180.64,010525,,,A*4D
$GPGGA,145150.250,4308.2426,N,07727.8340,W,1,06,2.22,135.4,M,-34.4,M,,*53
$GPRMC,145150.500,A,4308.2413,N,07727.8341,W,19.07,180.90,010525,,,A*41
$GPGGA,145150.750,4308.2402,N,07727.8341,W,1,06,2.22,135.9,M,-34.4,M,,*5C
$GPRMC,145151.000,A,4308.2391,N,07727.8342,W,17.56,180.55,010525,,,A*48
$GPGGA,145151.250,4308.2381,N,07727.8342,W,1,06,2.22,135.9,M,-34.4,M,,*57
$GPRMC,145151.500,A,4308.2372,N,07727.8342,W,16.30,180.10,010525,,,A*40
$GPGGA,145151.750,4308.2363,N,07727.8343,W,1,06,2.22,135.8,M,-34.4,M,,*5E
$GPRMC,145152.000,A,4308.2354,N,07727.8343,W,15.10,180.24,010525,,,A*45
$GPGGA,145152.250,4308.2346,N,07727.8343,W,1,06,2.22,135.8,M,-34.4,M,,*5F
$GPRMC,145152.500,A,4308.2337,N,07727.8344,W,13.97,180.16,010525,,,A*4A
$GPGGA,145152.750,4308.2330,N,07727.8344,W,1,06,2.22,135.8,M,-34.4,M,,*5C
$GPRMC,145153.000,A,4308.2322,N,07727.8344,W,12.73,180.17,010525,,,A*40
$GPGGA,145153.250,4308.2315,N,07727.8344,W,1,06,2.22,136.3,M,-34.4,M,,*57
$GPRMC,145153.500,A,4308.2309,N,07727.8344,W,11.10,179.78,010525,,,A*45
$GPGGA,145153.750,4308.2305,N,07727.8344,W,1,06,2.22,136.4,M,-34.4,M,,*54
$GPRMC,145154.000,A,4308.2302,N,07727.8343,W,8.87,178.73,010525,,,A*77
$GPGGA,145154.250,4308.2298,N,07727.8343,W,1,06,2.22,136.1,M,-34.4,M,,*51
$GPRMC,145154.500,A,4308.2295,N,07727.8343,W,7.22,178.10,010525,,,A*78
$GPGGA,145154.750,4308.2292,N,07727.8343,W,1,06,2.21,136.2,M,-34.4,M,,*5E
$GPRMC,145155.000,A,4308.2289,N,07727.8343,W,5.95,179.35,010525,,,A*79
$GPGGA,145155.250,4308.2289,N,07727.8344,W,1,06,2.22,136.9,M,-34.4,M,,*5F
$GPRMC,145155.500,A,4308.2289,N,07727.8345,W,4.35,180.83,010525,,,A*7A
$GPGGA,145155.750,4308.2288,N,07727.8346,W,1,06,2.22,137.8,M,-34.4,M,,*59
$GPRMC,145156.000,A,4308.2288,N,07727.8345,W,2.84,179.25,010525,,,A*7B
$GPGGA,145156.250,4308.2286,N,07727.8345,W,1,06,1.73,138.0,M,-34.4,M,,*52
$GPRMC,145156.500,A,4308.2286,N,07727.8345,W,2.19,179.25,010525,,,A*74
$GPGGA,145156.750,4308.2286,N,07727.8345,W,1,06,1.74,138.5,M,-34.4,M,,*55
$GPGGA,145214.500,4308.2272,N,07727.8337,W,1,06,1.73,141.5,M,-34.4,M,,*50
$GPRMC,145214.500,A,4308.2272,N,07727.8337,W,0.49,179.25,010525,,,A*78
$GPGGA,145214.750,4308.2272,N,07727.8337,W,1,06,1.73,141.5,M,-34.4,M,,*57
$GPRMC,145214.750,A,4308.2272,N,07727.8337,W,0.51,179.25,010525,,,A*76
$GPGGA,145228.000,4308.2258,N,07727.8334,W,1,06,1.74,141.7,M,-34.4,M,,*54
$GPRMC,145228.000,A,4308.2258,N,07727.8334,W,0.30,179.25,010525,,,A*77
$GPGGA,145228.250,4308.2258,N,07727.8334,W,1,06,1.73,141.7,M,-34.4,M,,*54
$GPRMC,145228.250,A,4308.2258,N,07727.8334,W,0.29,179.25,010525,,,A*78
$GPRMC,145244.750,A,4308.2249,N,07727.8334,W,2.55,193.43,010525,,,A*7A
$GPGGA,145245.000,4308.2249,N,07727.8335,W,1,06,1.74,142.1,M,-34.4,M,,*5B
$GPRMC,145245.250,A,4308.2247,N,07727.8336,W,3.22,186.56,010525,,,A*73
$GPGGA,145245.500,4308.2247,N,07727.8336,W,1,06,1.74,142.3,M,-34.4,M,,*51
$GPRMC,145245.750,A,4308.2245,N,07727.8337,W,3.85,181.23,010525,,,A*7D
$GPGGA,145246.000,4308.2242,N,07727.8337,W,1,06,1.74,142.5,M,-34.4,M,,*55
$GPRMC,145246.250,A,4308.2240,N,07727.8337,W,4.58,180.11,010525,,,A*79
$GPGGA,145246.500,4308.2236,N,07727.8337,W,1,06,2.19,142.7,M,-34.4,M,,*59
$GPRMC,145246.750,A,4308.2232,N,07727.8337,W,5.46,179.58,010525,,,A*7C
$GPGGA,145247.000,4308.2229,N,07727.8338,W,1,06,2.19,143.0,M,-34.4,M,,*5A
$GPRMC,145247.250,A,4308.2225,N,07727.8338,W,6.28,178.99,010525,,,A*76
$GPGGA,145247.500,4308.2220,N,07727.8339,W,1,06,2.19,143.1,M,-34.4,M,,*56
$GPRMC,145247.750,A,4308.2212,N,07727.8339,W,7.44,179.13,010525,,,A*7E
$GPGGA,145248.000,4308.2202,N,07727.8339,W,1,06,2.19,143.1,M,-34.4,M,,*5C
$GPRMC,145248.250,A,4308.2194,N,07727.8338,W,9.09,176.54,010525,,,A*73
$GPGGA,145248.500,4308.2183,N,07727.8338,W,1,06,2.19,143.1,M,-34.4,M,,*52
$GPRMC,145248.750,A,4308.2172,N,07727.8337,W,10.83,175.13,010525,,,A*4B
$GPGGA,145249.000,4308.2160,N,07727.8337,W,1,06,2.19,143.1,M,-34.4,M,,*54
$GPRMC,145249.250,A,4308.2146,N,07727.8336,W,12.44,176.75,010525,,,A*43
$GPGGA,145249.500,4308.2133,N,07727.8336,W,1,06,2.19,143.1,M,-34.4,M,,*56
$GPRMC,145249.750,A,4308.2115,N,07727.8335,W,14.29,177.41,010525,,,A*48
$GPGGA,145250.000,4308.2098,N,07727.8335,W,1,06,2.19,143.1,M,-34.4,M,,*58
$GPRMC,145250.250,A,4308.2081,N,07727.8336,W,15.96,179.11,010525,,,A*44
$GPGGA,145250.500,4308.2062,N,07727.8336,W,1,06,2.19,143.0,M,-34.4,M,,*5A
$GPRMC,145250.750,A,4308.2041,N,07727.8337,W,17.84,179.69,010525,,,A*42
$GPGGA,145251.000,4308.2020,N,07727.8337,W,1,06,2.19,143.0,M,-34.4,M,,*59
$GPRMC,145251.250,A,4308.2000,N,07727.8338,W,19.75,180.14,010525,,,A*40
$GPGGA,145251.500,4308.1977,N,07727.8338,W,1,06,1.74,142.9,M,-34.4,M,,*5B
$GPRMC,145251.750,A,4308.1924,N,07727.8342,W,26.55,182.36,010525,,,A*48
$GPGGA,145252.000,4308.1901,N,07727.8342,W,1,06,2.19,143.2,M,-34.4,M,,*53
$GPRMC,145252.250,A,4308.1877,N,07727.8342,W,27.83,181.27,010525,,,A*40
$GPGGA,145252.500,4308.1851,N,07727.8343,W,1,06,2.19,143.1,M,-34.4,M,,*50
$GPRMC,145252.750,A,4308.1825,N,07727.8344,W,29.88,181.42,010525,,,A*42
$GPGGA,145253.000,4308.1799,N,07727.8344,W,1,06,2.19,143.0,M,-34.4,M,,*59
$GPRMC,145253.250,A,4308.1774,N,07727.8343,W,31.47,180.39,010525,,,A*4D
$GPGGA,145253.500,4308.1750,N,07727.8343,W,1,06,2.19,142.9,M,-34.4,M,,*56
$GPRMC,145253.750,A,4308.1726,N,07727.8342,W,32.26,179.47,010525,,,A*45
$GPGGA,145254.000,4308.1701,N,07727.8342,W,1,06,2.19,142.8,M,-34.4,M,,*50
$GPRMC,145254.250,A,4308.1677,N,07727.8342,W,32.90,179.28,010525,,,A*46
$GPGGA,145254.500,4308.1652,N,07727.8341,W,1,06,2.19,142.6,M,-34.4,M,,*5F
$GPRMC,145254.750,A,4308.1628,N,07727.8341,W,33.20,178.88,010525,,,A*4B
$GPGGA,145255.000,4308.1604,N,07727.8340,W,1,06,2.19,142.4,M,-34.4,M,,*5B
$GPRMC,145255.250,A,4308.1580,N,07727.8340,W,33.54,178.96,010525,,,A*43
$GPGGA,145255.500,4308.1556,N,07727.8341,W,1,06,2.19,142.2,M,-34.4,M,,*5D
$GPRMC,145255.750,A,4308.1532,N,07727.8340,W,33.60,179.05,010525,,,A*43
$GPGGA,145256.000,4308.1508,N,07727.8340,W,1,06,2.19,142.0,M,-34.4,M,,*53
$GPRMC,145256.250,A,4308.1485,N,07727.8341,W,33.61,179.49,010525,,,A*40
$GPGGA,145256.500,4308.1462,N,07727.8342,W,1,06,2.19,141.8,M,-34.4,M,,*52
$GPRMC,145256.750,A,4308.1439,N,07727.8343,W,33.27,180.18,010525,,,A*40
$GPGGA,145257.000,4308.1416,N,07727.8344,W,1,06,2.19,141.6,M,-34.4,M,,*5D
$GPRMC,145257.250,A,4308.1392,N,07727.8345,W,33.12,180.85,010525,,,A*46
$GPGGA,145257.500,4308.1369,N,07727.8346,W,1,06,2.18,141.3,M,-34.4,M,,*51
$GPRMC,145257.750,A,4308.1345,N,07727.8347,W,33.23,181.20,010525,,,A*47
$GPGGA,145258.000,4308.1322,N,07727.8349,W,1,06,2.18,141.1,M,-34.4,M,,*59
$GPRMC,145258.250,A,4308.1300,N,07727.8351,W,33.13,181.67,010525,,,A*4B
$GPGGA,145258.500,4308.1277,N,07727.8353,W,1,06,2.19,140.8,M,-34.4,M,,*5F
$GPRMC,145258.750,A,4308.1254,N,07727.8355,W,32.48,182.18,010525,,,A*4E
$GPGGA,145259.000,4308.1233,N,07727.8358,W,1,06,2.18,140.5,M,-34.4,M,,*5C
$GPRMC,145259.250,A,4308.1210,N,07727.8360,W,32.08,182.65,010525,,,A*42
$GPGGA,145259.500,4308.1188,N,07727.8362,W,1,06,1.74,140.3,M,-34.4,M,,*5C
$GPRMC,145259.750,A,4308.1166,N,07727.8365,W,31.88,183.03,010525,,,A*4A
$GPGGA,145300.000,4308.1144,N,07727.8368,W,1,06,2.18,140.0,M,-34.4,M,,*54
$GPRMC,145300.250,A,4308.1123,N,07727.8371,W,31.41,183.72,010525,,,A*45
$GPGGA,145300.500,4308.1101,N,07727.8374,W,1,06,2.18,139.8,M,-34.4,M,,*5B
$GPRMC,145300.750,A,4308.1079,N,07727.8377,W,31.22,184.55,010525,,,A*4F
$GPGGA,145301.000,4308.1058,N,07727.8381,W,1,06,2.18,139.6,M,-34.4,M,,*56
$GPRMC,145301.250,A,4308.1037,N,07727.8383,W,30.99,185.13,010525,,,A*48
$GPGGA,145301.500,4308.1016,N,07727.8386,W,1,06,2.18,139.4,M,-34.4,M,,*5C
$GPRMC,145301.750,A,4308.0992,N,07727.8389,W,30.43,184.90,010525,,,A*4D
$GPGGA,145302.000,4308.0968,N,07727.8390,W,1,06,2.18,139.2,M,-34.4,M,,*5A
$GPRMC,145302.250,A,4308.0945,N,07727.8391,W,30.76,183.86,010525,,,A*4E
$GPGGA,145302.500,4308.0921,N,07727.8392,W,1,06,2.18,139.0,M,-34.4,M,,*52
$GPRMC,145302.750,A,4308.0898,N,07727.8393,W,31.39,183.14,010525,,,A*49
$GPGGA,145303.000,4308.0876,N,07727.8393,W,1,06,2.18,138.8,M,-34.4,M,,*5D
$GPRMC,145303.250,A,4308.0853,N,07727.8394,W,31.42,181.98,010525,,,A*47
$GPGGA,145303.500,4308.0831,N,07727.8394,W,1,06,2.18,138.6,M,-34.4,M,,*52
$GPRMC,145303.750,A,4308.0809,N,07727.8395,W,31.20,181.50,010525,,,A*4C
$GPGGA,145304.000,4308.0788,N,07727.8397,W,1,06,2.18,138.4,M,-34.4,M,,*5C
$GPRMC,145304.250,A,4308.0766,N,07727.8398,W,30.88,181.86,010525,,,A*4D
$GPGGA,145304.500,4308.0745,N,07727.8398,W,1,06,2.18,138.3,M,-34.4,M,,*50
$GPRMC,145304.750,A,4308.0723,N,07727.8398,W,30.61,182.18,010525,,,A*4A
$GPGGA,145305.000,4308.0701,N,07727.8399,W,1,06,2.18,138.4,M,-34.4,M,,*52
$GPRMC,145305.250,A,4308.0679,N,07727.8399,W,30.46,182.23,010525,,,A*4C
$GPGGA,145305.500,4308.0658,N,07727.8400,W,1,06,2.18,138.5,M,-34.4,M,,*5C
$GPRMC,145305.750,A,4308.0635,N,07727.8398,W,30.51,181.73,010525,,,A*40
$GPGGA,145306.000,4308.0612,N,07727.8398,W,1,06,2.18,138.7,M,-34.4,M,,*50
$GPRMC,145306.250,A,4308.0589,N,07727.8398,W,30.52,181.32,010525,,,A*44
$GPGGA,145306.500,4308.0565,N,07727.8399,W,1,06,2.18,138.8,M,-34.4,M,,*58
$GPRMC,145306.750,A,4308.0541,N,07727.8400,W,31.85,181.53,010525,,,A*4F
$GPGGA,145307.000,4308.0518,N,07727.8401,W,1,06,2.18,138.8,M,-34.4,M,,*50
$GPRMC,145307.250,A,4308.0495,N,07727.8402,W,32.11,182.29,010525,,,A*41
$GPGGA,145307.500,4308.0472,N,07727.8404,W,1,06,2.18,138.9,M,-34.4,M,,*5C
$GPRMC,145307.750,A,4308.0448,N,07727.8405,W,32.23,182.69,010525,,,A*46
$GPGGA,145308.000,4308.0425,N,07727.8406,W,1,06,2.18,138.9,M,-34.4,M,,*56
$GPRMC,145308.250,A,4308.0402,N,07727.8407,W,32.16,182.16,010525,,,A*4E
$GPGGA,145308.500,4308.0379,N,07727.8408,W,1,06,2.18,138.9,M,-34.4,M,,*53
$GPRMC,145308.750,A,4308.0354,N,07727.8409,W,32.20,182.02,010525,,,A*41
$GPGGA,145309.000,4308.0329,N,07727.8409,W,1,06,2.18,138.9,M,-34.4,M,,*53
$GPRMC,145309.250,A,4308.0306,N,07727.8409,W,32.43,181.47,010525,,,A*45
$GPGGA,145309.500,4308.0282,N,07727.8409,W,1,06,2.18,139.0,M,-34.4,M,,*5E
$GPRMC,145309.750,A,4308.0259,N,07727.8408,W,32.65,181.02,010525,,,A*4F
$GPGGA,145310.000,4308.0235,N,07727.8408,W,1,06,2.18,139.0,M,-34.4,M,,*5E
$GPRMC,145310.250,A,4308.0212,N,07727.8408,W,32.76,180.68,010525,,,A*42
$GPGGA,145310.500,4308.0189,N,07727.8407,W,1,06,2.18,139.0,M,-34.4,M,,*50
$GPRMC,145310.750,A,4308.0166,N,07727.8407,W,32.27,180.08,010525,,,A*4A
$GPGGA,145311.000,4308.0143,N,07727.8406,W,1,06,2.18,138.8,M,-34.4,M,,*5A
$GPRMC,145311.250,A,4308.0121,N,07727.8406,W,31.98,179.29,010525,,,A*4E
$GPGGA,145311.500,4308.0098,N,07727.8405,W,1,06,2.18,138.6,M,-34.4,M,,*55
$GPRMC,145311.750,A,4308.0075,N,07727.8404,W,32.03,178.21,010525,,,A*41
$GPGGA,145312.000,4308.0053,N,07727.8404,W,1,06,2.18,138.4,M,-34.4,M,,*57
$GPRMC,145312.250,A,4308.0031,N,07727.8404,W,31.80,178.40,010525,,,A*48
$GPGGA,145312.500,4308.0010,N,07727.8404,W,1,06,2.18,138.3,M,-34.4,M,,*52
$GPRMC,145312.750,A,4307.9988,N,07727.8404,W,31.74,179.04,010525,,,A*4A
$GPGGA,145313.000,4307.9967,N,07727.8405,W,1,06,2.18,138.0,M,-34.4,M,,*5B
$GPRMC,145313.250,A,4307.9946,N,07727.8406,W,30.92,180.00,010525,,,A*45
$GPGGA,145313.500,4307.9924,N,07727.8408,W,1,06,2.18,137.9,M,-34.4,M,,*52
$GPRMC,145313.750,A,4307.9903,N,07727.8409,W,30.44,181.26,010525,,,A*40
$GPGGA,145314.000,4307.9883,N,07727.8411,W,1,06,2.18,137.7,M,-34.4,M,,*5A
$GPRMC,145314.250,A,4307.9861,N,07727.8412,W,30.20,181.76,010525,,,A*4A
$GPGGA,145314.500,4307.9842,N,07727.8415,W,1,06,2.18,137.7,M,-34.4,M,,*56
$GPRMC,145314.750,A,4307.9821,N,07727.8417,W,29.96,183.11,010525,,,A*48
$GPGGA,145315.000,4307.9800,N,07727.8418,W,1,06,2.18,137.6,M,-34.4,M,,*58
$GPRMC,145315.250,A,4307.9779,N,07727.8420,W,29.37,183.10,010525,,,A*40
$GPGGA,145315.500,4307.9757,N,07727.8421,W,1,06,1.74,137.5,M,-34.4,M,,*50
$GPRMC,145315.750,A,4307.9733,N,07727.8422,W,30.13,183.03,010525,,,A*45
$GPGGA,145316.000,4307.9710,N,07727.8423,W,1,06,2.18,137.3,M,-34.4,M,,*58
$GPRMC,145316.250,A,4307.9687,N,07727.8423,W,30.12,181.68,010525,,,A*42
$GPGGA,145316.500,4307.9664,N,07727.8423,W,1,06,2.18,137.2,M,-34.4,M,,*5E
$GPRMC,145316.750,A,4307.9641,N,07727.8423,W,30.52,180.55,010525,,,A*46
$GPGGA,145317.000,4307.9618,N,07727.8426,W,1,06,2.17,137.3,M,-34.4,M,,*5A
$GPRMC,145317.250,A,4307.9596,N,07727.8427,W,30.15,180.61,010525,,,A*4B
$GPGGA,145317.500,4307.9573,N,07727.8430,W,1,06,2.18,137.5,M,-34.4,M,,*5F
$GPRMC,145317.750,A,4307.9550,N,07727.8432,W,30.16,181.36,010525,,,A*40
$GPGGA,145318.000,4307.9528,N,07727.8434,W,1,06,2.17,137.8,M,-34.4,M,,*5D
$GPRMC,145318.250,A,4307.9506,N,07727.8436,W,29.74,181.47,010525,,,A*47
$GPGGA,145318.500,4307.9483,N,07727.8437,W,1,06,2.17,138.2,M,-34.4,M,,*5E
$GPRMC,145318.750,A,4307.9461,N,07727.8438,W,29.35,181.32,010525,,,A*4B
$GPGGA,145319.000,4307.9439,N,07727.8438,W,1,06,2.18,138.7,M,-34.4,M,,*5E
$GPRMC,145319.250,A,4307.9418,N,07727.8440,W,29.06,180.95,010525,,,A*42
$GPGGA,145319.500,4307.9397,N,07727.8441,W,1,06,2.18,139.1,M,-34.4,M,,*51
$GPRMC,145319.750,A,4307.9375,N,07727.8443,W,28.89,180.47,010525,,,A*41
$GPGGA,145320.000,4307.9355,N,07727.8444,W,1,06,2.17,139.4,M,-34.4,M,,*5F
$GPRMC,145320.250,A,4307.9334,N,07727.8445,W,28.83,180.54,010525,,,A*45
$GPGGA,145320.500,4307.9314,N,07727.8446,W,1,06,2.17,139.5,M,-34.4,M,,*5C
$GPRMC,145320.750,A,4307.9295,N,07727.8447,W,28.57,180.69,010525,,,A*4F
$GPGGA,145321.000,4307.9276,N,07727.8449,W,1,06,2.17,139.6,M,-34.4,M,,*51
$GPRMC,145321.250,A,4307.9257,N,07727.8449,W,26.63,180.24,010525,,,A*4B
$GPGGA,145321.500,4307.9239,N,07727.8450,W,1,06,2.17,139.7,M,-34.4,M,,*56
$GPRMC,145321.750,A,4307.9222,N,07727.8450,W,25.09,179.64,010525,,,A*49
$GPGGA,145322.000,4307.9205,N,07727.8451,W,1,06,2.17,139.8,M,-34.4,M,,*51
$GPRMC,145322.250,A,4307.9189,N,07727.8451,W,23.62,180.47,010525,,,A*40
$GPGGA,145322.500,4307.9172,N,07727.8451,W,1,06,2.17,140.0,M,-34.4,M,,*51
$GPRMC,145322.750,A,4307.9156,N,07727.8451,W,22.21,180.62,010525,,,A*46
$GPGGA,145323.000,4307.9141,N,07727.8451,W,1,06,2.17,140.5,M,-34.4,M,,*50
$GPRMC,145323.250,A,4307.9127,N,07727.8450,W,20.60,181.21,010525,,,A*44
$GPGGA,145323.500,4307.9113,N,07727.8450,W,1,06,2.17,140.8,M,-34.4,M,,*5E
$GPRMC,145323.750,A,4307.9100,N,07727.8450,W,18.44,181.06,010525,,,A*4C
$GPGGA,145324.000,4307.9088,N,07727.8451,W,1,06,2.17,141.2,M,-34.4,M,,*55
$GPRMC,145324.250,A,4307.9076,N,07727.8450,W,17.01,181.00,010525,,,A*46
$GPGGA,145324.500,4307.9064,N,07727.8450,W,1,06,2.17,141.5,M,-34.4,M,,*54
$GPRMC,145324.750,A,4307.9054,N,07727.8450,W,15.82,179.76,010525,,,A*4C
$GPGGA,145325.000,4307.9043,N,07727.8450,W,1,06,2.17,141.5,M,-34.4,M,,*55
$GPRMC,145325.250,A,4307.9033,N,07727.8449,W,15.31,179.49,010525,,,A*45
$GPGGA,145325.500,4307.9024,N,07727.8450,W,1,06,2.17,141.5,M,-34.4,M,,*51
