Vers 72
USE_SERIAL_FEEDBACK=true
DEVELOPMENT_MODE=false
USE_RMC_ONLY=false

$GPRMC,155934.750,A,4308.3170,N,07726.2615,W,2.13,45.65,050925,,,A*46
$GPGGA,155935.000,4308.3172,N,07726.2613,W,1,04,3.00,179.0,M,-34.4,M,,*5C
$GPRMC,155935.250,A,4308.3172,N,07726.2613,W,1.14,61.54,050925,,,A*46
$GPGGA,155935.500,4308.3172,N,07726.2614,W,1,04,3.00,178.8,M,-34.4,M,,*57
$GPGGA,155936.750,4308.3175,N,07726.2625,W,1,04,3.00,178.5,M,-34.4,M,,*5B
$GPRMC,155936.750,A,4308.3175,N,07726.2625,W,1.19,285.93,050925,,,A*7C
$GPGGA,155937.000,4308.3175,N,07726.2628,W,1,04,3.00,178.5,M,-34.4,M,,*55
$GPRMC,155937.000,A,4308.3175,N,07726.2628,W,1.36,286.07,050925,,,A*71
$GPGGA,155937.750,4308.3176,N,07726.2650,W,1,04,3.00,178.3,M,-34.4,M,,*5D
$GPRMC,155937.750,A,4308.3176,N,07726.2650,W,2.76,281.10,050925,,,A*79
$GPGGA,155938.000,4308.3176,N,07726.2671,W,1,04,3.00,178.3,M,-34.4,M,,*53
$GPRMC,155938.000,A,4308.3176,N,07726.2671,W,4.83,285.68,050925,,,A*70
$GPGGA,155938.250,4308.3177,N,07726.2688,W,1,04,3.13,178.2,M,-34.4,M,,*50
$GPRMC,155938.250,A,4308.3177,N,07726.2688,W,6.79,287.82,050925,,,A*71
$GPGGA,155938.500,4308.3177,N,07726.2701,W,1,04,3.13,178.2,M,-34.4,M,,*52
$GPRMC,155938.500,A,4308.3177,N,07726.2701,W,8.22,287.36,050925,,,A*7C
$GPGGA,155938.750,4308.3179,N,07726.2710,W,1,04,3.00,178.2,M,-34.4,M,,*59
$GPRMC,155938.750,A,4308.3179,N,07726.2710,W,8.75,287.41,050925,,,A*77
$GPGGA,155939.000,4308.3180,N,07726.2719,W,1,04,3.13,178.2,M,-34.4,M,,*57
$GPRMC,155939.000,A,4308.3180,N,07726.2719,W,9.18,287.45,050925,,,A*75
$GPGGA,155939.250,4308.3181,N,07726.2730,W,1,04,3.13,178.2,M,-34.4,M,,*5A
$GPRMC,155939.250,A,4308.3181,N,07726.2730,W,9.89,286.47,050925$GPGGA,155939.500,4308.3183,N,07726.2739,W,1,04,3.13,178.2,M,-34.4,M,,*53
$GPRMC,155939.750,A,4308.3185,N,07726.2749,W,10.43,287.01,050925,,,A*41
$GPGGA,155940.000,4308.3187,N,07726.2759,W,1,04,3.00,178.1,M,-34.4,M,,*5B
$GPRMC,155940.250,A,4308.3190,N,07726.2769,W,10.81,289.35,050925,,,A*4B
$GPGGA,155940.500,4308.3192,N,07726.2779,W,1,04,3.13,178.1,M,-34.4,M,,*5A
$GPRMC,155940.750,A,4308.3195,N,07726.2789,W,11.20,290.04,050925,,,A*45
$GPGGA,155941.000,4308.3198,N,07726.2800,W,1,04,3.00,178.1,M,-34.4,M,,*57
$GPRMC,155941.250,A,4308.3201,N,07726.2811,W,11.81,290.89,050925,,,A*4F
$GPGGA,155941.500,4308.3204,N,07726.2823,W,1,04,3.00,178.1,M,-34.4,M,,*55
$GPRMC,155941.750,A,4308.3207,N,07726.2834,W,12.53,291.10,050925,,,A*46
$GPGGA,155942.000,4308.3210,N,07726.2847,W,1,04,3.00,178.1,M,-34.4,M,,*54
$GPRMC,155942.250,A,4308.3213,N,07726.2860,W,13.48,290.47,050925,,,A*4C
$GPGGA,155942.500,4308.3215,N,07726.2873,W,1,04,3.00,178.0,M,-34.4,M,,*52
$GPRMC,155942.750,A,4308.3218,N,07726.2886,W,13.81,289.38,050925,,,A*4F
$GPGGA,155943.000,4308.3220,N,07726.2900,W,1,04,3.00,177.9,M,-34.4,M,,*53
$GPRMC,155943.250,A,4308.3223,N,07726.2913,W,14.18,289.36,050925,,,A*47
$GPGGA,155943.500,4308.3226,N,07726.2926,W,1,04,2.99,177.9,M,-34.4,M,,*55
$GPRMC,155943.750,A,4308.3230,N,07726.2940,W,14.57,290.11,050925,,,A*40
$GPGGA,155944.000,4308.3233,N,07726.2953,W,1,04,2.99,177.8,M,-34.4,M,,*50
$GPRMC,155944.250,A,4308.3237,N,07726.2966,W,14.93,291.33,050925,,,A*48
$GPGGA,155944.500,4308.3242,N,07726.2979,W,1,04,2.99,177.7,M,-34.4,M,,*54
$GPRMC,155944.750,A,4308.3246,N,07726.2991,W,15.01,293.70,050925,,,A*4C
$GPGGA,155945.000,4308.3252,N,07726.3004,W,1,04,2.99,177.7,M,-34.4,M,,*53
$GPRMC,155945.250,A,4308.3257,N,07726.3016,W,15.14,296.30,050925,,,A*4A
$GPGGA,155945.500,4308.3263,N,07726.3029,W,1,04,2.99,177.6,M,-34.4,M,,*5A
$GPRMC,155945.750,A,4308.3268,N,07726.3041,W,15.09,298.24,050925,,,A*46
$GPGGA,155946.000,4308.3274,N,07726.3054,W,1,04,2.99,177.6,M,-34.4,M,,*50
$GPRMC,155946.250,A,4308.3280,N,07726.3067,W,15.49,299.22,050925,,,A*41
$GPGGA,155946.500,4308.3286,N,07726.3081,W,1,04,2.99,177.5,M,-34.4,M,,*53
$GPRMC,155946.750,A,4308.3292,N,07726.3094,W,16.06,300.45,050925,,,A*43
$GPGGA,155947.000,4308.3299,N,07726.3107,W,1,04,2.99,177.5,M,-34.4,M,,*56
$GPRMC,155947.250,A,4308.3305,N,07726.3120,W,16.53,301.81,050925,,,A*4F
$GPGGA,155947.500,4308.3312,N,07726.3134,W,1,04,2.99,177.5,M,-34.4,M,,*51
$GPRMC,155947.750,A,4308.3318,N,07726.3148,W,16.94,302.09,050925,,,A*40
$GPGGA,155948.000,4308.3324,N,07726.3161,W,1,04,2.99,177.4,M,-34.4,M,,*5F
$GPRMC,155948.250,A,4308.3331,N,07726.3175,W,17.23,302.47,050925,,,A*48
$GPGGA,155948.500,4308.3337,N,07726.3189,W,1,04,2.99,177.4,M,-34.4,M,,*5E
$GPRMC,155948.750,A,4308.3344,N,07726.3203,W,17.54,302.79,050925,,,A*40
$GPGGA,155949.000,4308.3351,N,07726.3218,W,1,04,2.99,177.4,M,-34.4,M,,*51
$GPRMC,155949.250,A,4308.3358,N,07726.3232,W,18.16,303.55,050925,,,A*4D
$GPGGA,155949.500,4308.3366,N,07726.3246,W,1,04,2.99,177.4,M,-34.4,M,,*5B
$GPRMC,155949.750,A,4308.3373,N,07726.3261,W,18.65,304.06,050925,,,A*42
$GPGGA,155950.000,4308.3381,N,07726.3276,W,1,04,2.99,177.4,M,-34.4,M,,*5C
$GPRMC,155950.250,A,4308.3389,N,07726.3290,W,19.10,305.13,050925,,,A*42
$GPGGA,155950.500,4308.3397,N,07726.3305,W,1,04,3.12,177.3,M,-34.4,M,,*5E
$GPRMC,155950.750,A,4308.3405,N,07726.3320,W,19.33,305.82,050925,,,A*47
$GPGGA,155951.000,4308.3414,N,07726.3334,W,1,04,3.12,177.4,M,-34.4,M,,*53
$GPRMC,155951.250,A,4308.3422,N,07726.3349,W,19.55,306.24,050925,,,A*46
$GPGGA,155951.500,4308.3430,N,07726.3365,W,1,04,3.12,177.4,M,-34.4,M,,*54
$GPRMC,155951.750,A,4308.3438,N,07726.3380,W,19.63,306.01,050925,,,A*4F
$GPGGA,155952.000,4308.3445,N,07726.3396,W,1,04,3.12,177.4,M,-34.4,M,,*5C
$GPRMC,155952.250,A,4308.3453,N,07726.3412,W,20.04,305.49,050925,,,A*4C
$GPGGA,155952.500,4308.3460,N,07726.3428,W,1,04,2.99,177.4,M,-34.4,M,,*5E
$GPRMC,155952.750,A,4308.3468,N,07726.3444,W,20.33,305.07,050925,,,A*4C
$GPGGA,155953.000,4308.3476,N,07726.3460,W,1,04,2.99,177.4,M,-34.4,M,,*51
$GPRMC,155953.250,A,4308.3484,N,07726.3476,W,20.79,305.28,050925,,,A*48
$GPGGA,155953.500,4308.3493,N,07726.3492,W,1,04,2.99,177.4,M,-34.4,M,,*52
$GPRMC,155953.750,A,4308.3501,N,07726.3509,W,21.04,305.64,050925,,,A*4B
$GPGGA,155954.000,4308.3510,N,07726.3525,W,1,04,2.99,177.4,M,-34.4,M,,*57
$GPRMC,155954.250,A,4308.3519,N,07726.3542,W,21.19,306.19,050925,,,A*4A
$GPGGA,155954.500,4308.3527,N,07726.3558,W,1,04,2.99,177.4,M,-34.4,M,,*5C
$GPRMC,155954.750,A,4308.3536,N,07726.3574,W,21.27,306.99,050925,,,A*42
$GPGGA,155955.000,4308.3546,N,07726.3590,W,1,04,2.99,177.4,M,-34.4,M,,*5B
$GPRMC,155955.250,A,4308.3557,N,07726.3605,W,21.58,309.20,050925,,,A*41
$GPGGA,155955.500,4308.3568,N,07726.3620,W,1,04,2.99,177.4,M,-34.4,M,,*5A
$GPRMC,155955.750,A,4308.3578,N,07726.3635,W,21.55,311.23,050925,,,A*4D
$GPGGA,155955.999,4308.3588,N,07726.3650,W,1,04,2.99,177.4,M,-34.4,M,,*5F
$GPRMC,155956.249,A,4308.3600,N,07726.3663,W,21.30,313.83,050925,,,A*47
$GPGGA,155956.499,4308.3612,N,07726.3676,W,1,04,3.12,177.4,M,-34.4,M,,*57
$GPRMC,155956.750,A,4308.3625,N,07726.3688,W,21.12,318.75,050925,,,A*4A
$GPGGA,155957.000,4308.3637,N,07726.3700,W,1,04,2.98,177.4,M,-34.4,M,,*56
$GPRMC,155957.250,A,4308.3650,N,07726.3711,W,21.09,322.74,050925,,,A*4F
$GPGGA,155957.500,4308.3663,N,07726.3722,W,1,04,3.12,177.4,M,-34.4,M,,*51
$GPRMC,155957.750,A,4308.3675,N,07726.3733,W,21.14,324.70,050925,,,A*43
$GPGGA,155958.000,4308.3687,N,07726.3745,W,1,04,2.98,177.4,M,-34.4,M,,*53
$GPRMC,155958.250,A,4308.3699,N,07726.3756,W,21.20,325.06,050925,,,A*4F
$GPGGA,155958.500,4308.3710,N,07726.3767,W,1,04,2.98,177.4,M,-34.4,M,,*59
$GPRMC,155958.750,A,4308.3722,N,07726.3777,W,20.73,325.99,050925,,,A*49
$GPGGA,155959.000,4308.3733,N,07726.3787,W,1,04,2.98,177.4,M,-34.4,M,,*52
$GPRMC,155959.250,A,4308.3745,N,07726.3797,W,20.38,326.71,050925,,,A*48
$GPGGA,155959.500,4308.3756,N,07726.3807,W,1,04,2.98,177.4,M,-34.4,M,,*53
$GPRMC,155959.750,A,4308.3768,N,07726.3815,W,19.68,328.05,050925,,,A*45
$GPGGA,160000.000,4308.3779,N,07726.3823,W,1,04,2.98,177.4,M,-34.4,M,,*5E
$GPRMC,160000.250,A,4308.3793,N,07726.3826,W,18.76,332.64,050925,,,A*45
$GPGGA,160000.500,4308.3806,N,07726.3826,W,1,04,2.98,177.4,M,-34.4,M,,*59
$GPRMC,160000.750,A,4308.3822,N,07726.3820,W,17.89,343.36,050925,,,A*4D
$GPGGA,160001.000,4308.3836,N,07726.3822,W,1,04,2.98,177.4,M,-34.4,M,,*5A
$GPRMC,160001.250,A,4308.3850,N,07726.3822,W,17.93,347.82,050925,,,A*4E
$GPGGA,160001.500,4308.3864,N,07726.3818,W,1,04,3.11,177.5,M,-34.4,M,,*50
$GPRMC,160001.750,A,4308.3876,N,07726.3813,W,17.46,356.76,050925,,,A*4E
$GPGGA,160002.000,4308.3889,N,07726.3811,W,1,04,3.11,177.4,M,-34.4,M,,*5D
$GPRMC,160002.250,A,4308.3902,N,07726.3809,W,17.52,1.03,050925,,,A*47
$GPGGA,160002.500,4308.3914,N,07726.3806,W,1,04,3.11,177.4,M,-34.4,M,,*5B
$GPRMC,160002.750,A,4308.3928,N,07726.3804,W,18.02,3.63,050925,,,A*49
$GPGGA,160003.000,4308.3940,N,07726.3802,W,1,04,3.11,177.4,M,-34.4,M,,*5A
$GPRMC,160003.250,A,4308.3953,N,07726.3800,W,18.29,5.12,050925,,,A*4C
$GPGGA,160003.500,4308.3966,N,07726.3797,W,1,04,3.11,177.4,M,-34.4,M,,*58
$GPRMC,160003.750,A,4308.3978,N,07726.3794,W,18.35,6.91,050925,,,A*47
$GPGGA,160004.000,4308.3991,N,07726.3792,W,1,04,3.11,177.4,M,-34.4,M,,*57
$GPRMC,160004.250,A,4308.4004,N,07726.3789,W,18.57,7.56,050925,,,A*42
$GPGGA,160004.500,4308.4017,N,07726.3786,W,1,04,3.11,177.4,M,-34.4,M,,*57
$GPRMC,160004.750,A,4308.4030,N,07726.3784,W,18.71,7.60,050925,,,A*4C
$GPGGA,160005.000,4308.4043,N,07726.3782,W,1,04,3.11,177.4,M,-34.4,M,,*56
$GPRMC,160005.250,A,4308.4056,N,07726.3779,W,18.75,8.01,050925,,,A*46
$GPGGA,160005.500,4308.4069,N,07726.3776,W,1,04,3.11,177.4,M,-34.4,M,,*50
$GPRMC,160005.750,A,4308.4081,N,07726.3773,W,18.76,8.30,050925,,,A*42
$GPGGA,160006.000,4308.4094,N,07726.3770,W,1,04,3.11,177.4,M,-34.4,M,,*52
$GPRMC,160006.250,A,4308.4107,N,07726.3767,W,18.77,8.91,050925,,,A*44
$GPGGA,160006.500,4308.4121,N,07726.3763,W,1,04,3.11,177.5,M,-34.4,M,,*5B
$GPRMC,160006.750,A,4308.4133,N,07726.3761,W,18.96,9.20,050925,,,A*44
$GPGGA,160007.000,4308.4147,N,07726.3757,W,1,04,3.11,177.5,M,-34.4,M,,*58
$GPRMC,160007.250,A,4308.4159,N,07726.3754,W,18.97,9.35,050925,,,A*4F
$GPGGA,160007.500,4308.4172,N,07726.3751,W,1,04,3.11,177.6,M,-34.4,M,,*5E
$GPRMC,160007.750,A,4308.4186,N,07726.3748,W,18.98,9.30,050925,,,A*4F
$GPGGA,160008.000,4308.4199,N,07726.3745,W,1,04,3.11,177.6,M,-34.4,M,,*54
$GPRMC,160008.250,A,4308.4212,N,07726.3741,W,19.03,9.47,050925,,,A*41
$GPGGA,160008.500,4308.4226,N,07726.3738,W,1,04,3.11,177.7,M,-34.4,M,,*5D
$GPRMC,160008.750,A,4308.4239,N,07726.3735,W,19.16,9.20,050925,,,A*4B
$GPGGA,160009.000,4308.4252,N,07726.3733,W,1,04,3.11,177.7,M,-34.4,M,,*51
$GPRMC,160009.250,A,4308.4265,N,07726.3730,W,19.09,8.93,050925,,,A*44
$GPGGA,160009.500,4308.4277,N,07726.3727,W,1,04,3.11,177.8,M,-34.4,M,,*59
$GPRMC,160009.750,A,4308.4290,N,07726.3725,W,18.64,8.91,050925,,,A*47
$GPGGA,160010.000,4308.4302,N,07726.3722,W,1,04,3.11,177.8,M,-34.4,M,,*52
$GPRMC,160010.250,A,4308.4315,N,07726.3720,W,18.42,9.11,050925,,,A*4E
$GPGGA,160010.500,4308.4328,N,07726.3717,W,1,04,3.10,177.9,M,-34.4,M,,*59
$GPRMC,160010.750,A,4308.4341,N,07726.3713,W,18.39,8.95,050925,,,A*4B
$GPGGA,160011.000,4308.4354,N,07726.3709,W,1,04,3.10,177.8,M,-34.4,M,,*58
$GPRMC,160011.250,A,4308.4367,N,07726.3706,W,18.38,9.47,050925,,,A*40
$GPGGA,160011.500,4308.4380,N,07726.3702,W,1,04,3.10,177.8,M,-34.4,M,,*5F
$GPRMC,160011.750,A,4308.4393,N,07726.3699,W,17.82,9.70,050925,,,A*43
$GPGGA,160012.000,4308.4405,N,07726.3695,W,1,04,3.10,177.8,M,-34.4,M,,*5C
$GPRMC,160012.250,A,4308.4416,N,07726.3693,W,17.28,9.97,050925,,,A*4C
$GPGGA,160012.500,4308.4428,N,07726.3690,W,1,04,3.10,177.9,M,-34.4,M,,*52
$GPRMC,160012.750,A,4308.4439,N,07726.3688,W,16.70,10.35,050925,,,A*72
$GPGGA,160013.000,4308.4450,N,07726.3685,W,1,04,3.10,178.0,M,-34.4,M,,*5B
$GPRMC,160013.250,A,4308.4461,N,07726.3682,W,16.00,11.00,050925,,,A*71
$GPGGA,160013.500,4308.4471,N,07726.3679,W,1,04,3.10,178.0,M,-34.4,M,,*5E
$GPRMC,160013.750,A,4308.4481,N,07726.3677,W,15.05,12.41,050925,,,A*70
$GPGGA,160014.000,4308.4490,N,07726.3674,W,1,04,3.10,178.1,M,-34.4,M,,*5F
$GPRMC,160014.250,A,4308.4499,N,07726.3672,W,13.95,14.77,050925,,,A*72
$GPGGA,160014.500,4308.4506,N,07726.3669,W,1,04,3.10,178.2,M,-34.4,M,,*5B
$GPRMC,160014.750,A,4308.4514,N,07726.3667,W,12.69,16.73,050925,,,A*73
$GPGGA,160015.000,4308.4520,N,07726.3665,W,1,04,2.97,178.3,M,-34.4,M,,*58
$GPRMC,160015.250,A,4308.4526,N,07726.3664,W,11.39,16.54,050925,,,A*76
$GPGGA,160015.500,4308.4531,N,07726.3663,W,1,04,3.10,178.3,M,-34.4,M,,*55
$GPRMC,160015.750,A,4308.4536,N,07726.3662,W,9.68,16.80,050925,,,A*40
$GPGGA,160016.000,4308.4539,N,07726.3662,W,1,04,2.97,178.2,M,-34.4,M,,*55
$GPRMC,160016.250,A,4308.4541,N,07726.3663,W,7.57,15.21,050925,,,A*4D
$GPGGA,160016.500,4308.4540,N,07726.3664,W,1,04,2.97,178.1,M,-34.4,M,,*5B
$GPRMC,160016.750,A,4308.4542,N,07726.3665,W,5.25,16.16,050925,,,A*4D
$GPGGA,160017.000,4308.4544,N,07726.3664,W,1,04,2.97,178.1,M,-34.4,M,,*5B
$GPRMC,160017.250,A,4308.4546,N,07726.3665,W,4.67,9.58,050925,,,A*7E
$GPGGA,160017.500,4308.4549,N,07726.3665,W,1,04,3.10,178.2,M,-34.4,M,,*5F
$GPRMC,160017.750,A,4308.4552,N,07726.3665,W,4.60,3.15,050925,,,A*7A
$GPGGA,160018.000,4308.4554,N,07726.3666,W,1,04,3.10,178.2,M,-34.4,M,,*5A
$GPRMC,160018.250,A,4308.4558,N,07726.3668,W,5.03,349.46,050925,,,A*78
$GPGGA,160018.500,4308.4563,N,07726.3670,W,1,04,3.10,178.3,M,-34.4,M,,*5D
$GPRMC,160018.750,A,4308.4568,N,07726.3673,W,6.79,340.93,050925,,,A*7B
$GPGGA,160019.000,4308.4572,N,07726.3679,W,1,04,2.97,178.4,M,-34.4,M,,*59
$GPRMC,160019.250,A,4308.4577,N,07726.3685,W,8.40,330.08,050925,,,A*79
$GPGGA,160019.500,4308.4582,N,07726.3693,W,1,04,2.97,178.5,M,-34.4,M,,*56
$GPRMC,160019.750,A,4308.4586,N,07726.3702,W,10.05,320.59,050925,,,A*41
$GPGGA,160020.000,4308.4591,N,07726.3712,W,1,04,2.97,178.7,M,-34.4,M,,*51
$GPRMC,160020.250,A,4308.4594,N,07726.3724,W,11.58,311.12,050925,,,A*4D
$GPGGA,160020.500,4308.4596,N,07726.3738,W,1,04,2.97,178.7,M,-34.4,M,,*5B
$GPRMC,160020.750,A,4308.4598,N,07726.3753,W,13.92,299.53,050925,,,A*44
$GPGGA,160021.000,4308.4601,N,07726.3767,W,1,04,2.97,178.7,M,-34.4,M,,*58
$GPRMC,160021.250,A,4308.4604,N,07726.3783,W,15.35,294.68,050925,,,A*45
$GPGGA,160021.500,4308.4606,N,07726.3799,W,1,04,2.97,178.8,M,-34.4,M,,*54
$GPRMC,160021.750,A,4308.4607,N,07726.3817,W,16.67,288.47,050925,,,A*45
$GPGGA,160022.000,4308.4609,N,07726.3834,W,1,04,2.97,178.8,M,-34.4,M,,*55
$GPRMC,160022.250,A,4308.4610,N,07726.3853,W,18.04,284.04,050925,,,A*45
$GPGGA,160022.500,4308.4610,N,07726.3872,W,1,04,2.96,178.9,M,-34.4,M,,*5A
$GPRMC,160022.750,A,4308.4610,N,07726.3893,W,19.61,279.93,050925,,,A*42
$GPGGA,160023.000,4308.4611,N,07726.3912,W,1,04,2.97,178.9,M,-34.4,M,,*59
$GPRMC,160023.250,A,4308.4612,N,07726.3933,W,20.57,278.19,050925,,,A*43
$GPGGA,160023.500,4308.4614,N,07726.3953,W,1,04,3.09,179.0,M,-34.4,M,,*52
$GPRMC,160023.750,A,4308.4615,N,07726.3974,W,21.30,277.19,050925,,,A*4D
$GPGGA,160024.000,4308.4616,N,07726.3995,W,1,04,2.96,179.0,M,-34.4,M,,*5F
$GPRMC,160024.250,A,4308.4618,N,07726.4017,W,22.20,277.03,050925,,,A*40
$GPGGA,160024.500,4308.4620,N,07726.4038,W,1,04,3.09,178.9,M,-34.4,M,,*59
$GPRMC,160024.750,A,4308.4621,N,07726.4062,W,23.25,276.87,050925,,,A*44
$GPGGA,160025.000,4308.4623,N,07726.4084,W,1,04,2.96,178.9,M,-34.4,M,,*5E
$GPRMC,160025.250,A,4308.4624,N,07726.4109,W,24.47,276.70,050925,,,A*42
$GPGGA,160025.500,4308.4625,N,07726.4134,W,1,04,2.96,178.9,M,-34.4,M,,*57
$GPRMC,160025.750,A,4308.4626,N,07726.4160,W,26.63,276.28,050925,,,A*43
$GPGGA,160026.000,4308.4628,N,07726.4187,W,1,04,2.96,178.9,M,-34.4,M,,*54
$GPRMC,160026.250,A,4308.4629,N,07726.4214,W,28.77,276.51,050925,,,A*4F
$GPGGA,160026.500,4308.4631,N,07726.4244,W,1,04,2.96,178.8,M,-34.4,M,,*54
$GPRMC,160026.750,A,4308.4634,N,07726.4274,W,31.67,276.44,050925,,,A*4D
$GPGGA,160027.000,4308.4636,N,07726.4305,W,1,04,2.96,178.8,M,-34.4,M,,*53
$GPRMC,160027.250,A,4308.4639,N,07726.4337,W,33.48,276.80,050925,,,A*45
$GPGGA,160027.500,4308.4642,N,07726.4370,W,1,04,2.96,178.8,M,-34.4,M,,*57
$GPRMC,160027.750,A,4308.4645,N,07726.4402,W,34.52,276.88,050925,,,A*4E
$GPGGA,160028.000,4308.4648,N,07726.4435,W,1,04,2.96,178.7,M,-34.4,M,,*5E
$GPRMC,160028.250,A,4308.4651,N,07726.4467,W,34.58,277.64,050925,,,A*4B
$GPGGA,160028.500,4308.4656,N,07726.4498,W,1,04,2.96,178.7,M,-34.4,M,,*53
$GPRMC,160028.750,A,4308.4661,N,07726.4527,W,33.47,278.62,050925,,,A*48
$GPGGA,160029.000,4308.4665,N,07726.4557,W,1,04,2.96,178.5,M,-34.4,M,,*57
$GPRMC,160029.250,A,4308.4670,N,07726.4586,W,32.40,278.29,050925,,,A*4E
$GPGGA,160029.500,4308.4674,N,07726.4615,W,1,04,2.96,178.4,M,-34.4,M,,*56
$GPRMC,160029.750,A,4308.4677,N,07726.4645,W,31.73,278.02,050925,,,A*4A
$GPGGA,160030.000,4308.4681,N,07726.4674,W,1,04,2.96,178.3,M,-34.4,M,,*51
$GPRMC,160030.250,A,4308.4687,N,07726.4701,W,31.45,278.11,050925,,,A*4E
$GPGGA,160030.500,4308.4692,N,07726.4728,W,1,05,1.64,177.9,M,-34.4,M,,*54
$GPRMC,160030.750,A,4308.4699,N,07726.4753,W,31.25,278.61,050925,,,A*42
$GPGGA,160031.000,4308.4703,N,07726.4782,W,1,05,1.64,177.5,M,-34.4,M,,*55
$GPRMC,160031.250,A,4308.4710,N,07726.4808,W,31.30,279.21,050925,,,A*46
$GPGGA,160031.500,4308.4716,N,07726.4835,W,1,05,1.64,176.9,M,-34.4,M,,*5A
$GPRMC,160031.750,A,4308.4722,N,07726.4863,W,32.62,279.60,050925,,,A*4E
$GPGGA,160032.000,4308.4727,N,07726.4892,W,1,05,1.64,176.4,M,-34.4,M,,*5E
$GPRMC,160032.250,A,4308.4731,N,07726.4922,W,33.68,278.86,050925,,,A*4C
$GPGGA,160032.500,4308.4736,N,07726.4953,W,1,05,1.64,176.1,M,-34.4,M,,*52
$GPRMC,160032.750,A,4308.4741,N,07726.4983,W,34.48,278.63,050925,,,A*4B
$GPGGA,160033.000,4308.4745,N,07726.5014,W,1,05,1.64,175.8,M,-34.4,M,,*53
$GPRMC,160033.250,A,4308.4749,N,07726.5046,W,35.33,277.59,050925,,,A*4D
$GPGGA,160033.500,4308.4753,N,07726.5079,W,1,05,1.64,175.5,M,-34.4,M,,*57
$GPRMC,160033.750,A,4308.4756,N,07726.5113,W,36.20,276.50,050925,,,A*4E
$GPGGA,160034.000,4308.4759,N,07726.5147,W,1,05,1.64,175.4,M,-34.4,M,,*52
$GPRMC,160034.250,A,4308.4761,N,07726.5182,W,37.14,275.66,050925,,,A*40
$GPGGA,160034.500,4308.4765,N,07726.5217,W,1,05,1.64,175.3,M,-34.4,M,,*59
$GPRMC,160034.750,A,4308.4768,N,07726.5251,W,37.50,274.87,050925,,,A*4F
$GPGGA,160035.000,4308.4770,N,07726.5286,W,1,05,1.64,175.0,M,-34.4,M,,*52
$GPRMC,160035.250,A,4308.4773,N,07726.5321,W,37.54,274.01,050925,,,A*4D
$GPGGA,160035.500,4308.4775,N,07726.5355,W,1,05,1.73,174.8,M,-34.4,M,,*52
$GPRMC,160035.750,A,4308.4778,N,07726.5390,W,37.64,273.59,050925,,,A*40
$GPGGA,160036.000,4308.4779,N,07726.5425,W,1,05,1.64,174.7,M,-34.4,M,,*51
$GPRMC,160036.250,A,4308.4782,N,07726.5460,W,37.64,273.77,050925,,,A*47
$GPGGA,160036.500,4308.4784,N,07726.5494,W,1,05,1.73,174.5,M,-34.4,M,,*58
$GPRMC,160036.750,A,4308.4786,N,07726.5529,W,37.60,274.31,050925,,,A*4B
$GPGGA,160037.000,4308.4788,N,07726.5564,W,1,05,1.64,174.4,M,-34.4,M,,*59
$GPRMC,160037.250,A,4308.4790,N,07726.5600,W,37.96,274.57,050925,,,A*49
$GPGGA,160037.500,4308.4792,N,07726.5635,W,1,05,1.73,174.4,M,-34.4,M,,*56
$GPRMC,160037.750,A,4308.4795,N,07726.5670,W,37.96,275.08,050925,,,A*45
$GPGGA,160038.000,4308.4798,N,07726.5705,W,1,05,1.64,174.3,M,-34.4,M,,*55
$GPRMC,160038.250,A,4308.4801,N,07726.5740,W,37.72,274.37,050925,,,A*48
$GPGGA,160038.500,4308.4803,N,07726.5775,W,1,05,1.73,174.2,M,-34.4,M,,*5D
$GPRMC,160038.750,A,4308.4805,N,07726.5810,W,37.76,273.26,050925,,,A*40
$GPGGA,160039.000,4308.4808,N,07726.5845,W,1,05,1.64,174.0,M,-34.4,M,,*5A
$GPRMC,160039.250,A,4308.4811,N,07726.5880,W,37.80,272.40,050925,,,A*40
$GPGGA,160039.500,4308.4813,N,07726.5916,W,1,05,1.73,173.9,M,-34.4,M,,*5A
$GPRMC,160039.750,A,4308.4815,N,07726.5952,W,38.29,272.06,050925,,,A*41
$GPGGA,160040.000,4308.4817,N,07726.5987,W,1,05,1.64,173.7,M,-34.4,M,,*55
$GPRMC,160040.250,A,4308.4818,N,07726.6024,W,38.50,272.12,050925,,,A*47
$GPGGA,160040.500,4308.4819,N,07726.6060,W,1,05,1.64,173.7,M,-34.4,M,,*5D
$GPRMC,160040.750,A,4308.4820,N,07726.6097,W,38.76,271.99,050925,,,A*45
$GPGGA,160041.000,4308.4821,N,07726.6134,W,1,05,1.64,173.6,M,-34.4,M,,*53
$GPRMC,160041.250,A,4308.4821,N,07726.6172,W,39.40,271.27,050925,,,A*4B
$GPGGA,160041.500,4308.4822,N,07726.6210,W,1,05,1.73,173.6,M,-34.4,M,,*56
$GPRMC,160041.750,A,4308.4821,N,07726.6248,W,39.92,270.60,050925,,,A*49
$GPGGA,160042.000,4308.4821,N,07726.6286,W,1,05,1.64,173.6,M,-34.4,M,,*5A
$GPRMC,160042.250,A,4308.4821,N,07726.6324,W,40.21,270.12,050925,,,A*47
$GPGGA,160042.500,4308.4820,N,07726.6362,W,1,05,1.73,173.6,M,-34.4,M,,*53
$GPRMC,160042.750,A,4308.4820,N,07726.6400,W,40.42,269.92,050925,,,A*47
$GPGGA,160043.000,4308.4819,N,07726.6439,W,1,05,1.64,173.6,M,-34.4,M,,*52
$GPRMC,160043.250,A,4308.4818,N,07726.6477,W,40.54,269.36,050925,,,A*41
$GPGGA,160043.500,4308.4818,N,07726.6516,W,1,05,1.73,173.7,M,-34.4,M,,*5D
$GPRMC,160043.750,A,4308.4817,N,07726.6554,W,40.76,268.56,050925,,,A*4C
$GPGGA,160044.000,4308.4816,N,07726.6593,W,1,05,1.64,173.7,M,-34.4,M,,*5A
$GPRMC,160044.250,A,4308.4815,N,07726.6631,W,40.87,268.05,050925,,,A*44
$GPGGA,160044.500,4308.4813,N,07726.6670,W,1,05,1.73,173.8,M,-34.4,M,,*5D
$GPRMC,160044.750,A,4308.4812,N,07726.6709,W,41.16,267.30,050925,,,A*4C
$GPGGA,160045.000,4308.4810,N,07726.6747,W,1,05,1.64,173.9,M,-34.4,M,,*58
$GPRMC,160045.250,A,4308.4807,N,07726.6786,W,41.49,266.54,050925,,,A*42
$GPGGA,160045.500,4308.4805,N,07726.6825,W,1,05,1.73,174.0,M,-34.4,M,,*5A
$GPRMC,160045.750,A,4308.4803,N,07726.6863,W,41.27,266.25,050925,,,A*49
$GPGGA,160046.000,4308.4801,N,07726.6902,W,1,05,1.64,174.2,M,-34.4,M,,*58
$GPRMC,160046.250,A,4308.4799,N,07726.6941,W,41.16,266.24,050925,,,A*41
$GPGGA,160046.500,4308.4797,N,07726.6979,W,1,05,1.73,174.4,M,-34.4,M,,*51
$GPRMC,160046.750,A,4308.4795,N,07726.7018,W,41.09,266.23,050925,,,A*45
$GPGGA,160047.000,4308.4793,N,07726.7056,W,1,05,1.64,174.5,M,-34.4,M,,*53
$GPRMC,160047.250,A,4308.4791,N,07726.7094,W,40.97,266.10,050925,,,A*47
$GPGGA,160047.500,4308.4788,N,07726.7132,W,1,05,1.64,174.7,M,-34.4,M,,*5D
$GPRMC,160047.750,A,4308.4786,N,07726.7170,W,40.88,266.26,050925,,,A*44
$GPGGA,160048.000,4308.4784,N,07726.7208,W,1,05,1.64,175.0,M,-34.4,M,,*57
$GPRMC,160048.250,A,4308.4781,N,07726.7247,W,40.90,266.31,050925,,,A*41
$GPGGA,160048.500,4308.4778,N,07726.7286,W,1,05,1.64,175.2,M,-34.4,M,,*55
$GPRMC,160048.750,A,4308.4776,N,07726.7324,W,41.08,266.16,050925,,,A*4D
$GPGGA,160049.000,4308.4774,N,07726.7362,W,1,05,1.64,175.5,M,-34.4,M,,*51
$GPRMC,160049.250,A,4308.4771,N,07726.7400,W,40.86,265.93,050925,,,A*46
$GPGGA,160049.500,4308.4769,N,07726.7438,W,1,05,1.73,175.8,M,-34.4,M,,*5B
$GPRMC,160049.750,A,4308.4766,N,07726.7476,W,40.82,265.86,050925,,,A*44
$GPGGA,160050.000,4308.4764,N,07726.7514,W,1,05,1.64,176.1,M,-34.4,M,,*58
$GPRMC,160050.250,A,4308.4761,N,07726.7551,W,40.38,265.92,050925,,,A*4E
$GPGGA,160050.500,4308.4759,N,07726.7589,W,1,05,1.64,176.2,M,-34.4,M,,*54
$GPRMC,160050.750,A,4308.4758,N,07726.7625,W,40.30,266.69,050925,,,A*4E
$GPGGA,160051.000,4308.4756,N,07726.7661,W,1,05,1.64,176.6,M,-34.4,M,,*5E
$GPRMC,160051.250,A,4308.4754,N,07726.7698,W,39.58,266.61,050925,,,A*48
$GPGGA,160051.500,4308.4752,N,07726.7733,W,1,05,1.64,176.7,M,-34.4,M,,*58
$GPRMC,160051.750,A,4308.4750,N,07726.7769,W,38.54,265.97,050925,,,A*41
$GPGGA,160052.000,4308.4748,N,07726.7805,W,1,05,1.64,177.0,M,-34.4,M,,*59
$GPRMC,160052.250,A,4308.4746,N,07726.7842,W,38.19,265.63,050925,,,A*44
$GPGGA,160052.500,4308.4744,N,07726.7879,W,1,05,1.73,177.2,M,-34.4,M,,*5F
$GPRMC,160052.750,A,4308.4742,N,07726.7915,W,38.13,265.02,050925,,,A*4B
$GPGGA,160053.000,4308.4739,N,07726.7952,W,1,05,1.64,177.4,M,-34.4,M,,*59
$GPRMC,160053.250,A,4308.4737,N,07726.7988,W,37.97,265.21,050925,,,A*4B
$GPGGA,160053.500,4308.4735,N,07726.8024,W,1,05,1.73,177.5,M,-34.4,M,,*50
$GPRMC,160053.750,A,4308.4733,N,07726.8060,W,37.99,264.98,050925,,,A*47
$GPGGA,160054.000,4308.4730,N,07726.8096,W,1,05,1.64,177.5,M,-34.4,M,,*58
$GPRMC,160054.250,A,4308.4728,N,07726.8132,W,38.30,264.83,050925,,,A*4F
$GPGGA,160054.500,4308.4726,N,07726.8168,W,1,05,1.73,177.5,M,-34.4,M,,*5C
$GPRMC,160054.750,A,4308.4723,N,07726.8205,W,38.36,264.25,050925,,,A*4C
$GPGGA,160055.000,4308.4721,N,07726.8241,W,1,05,1.64,177.5,M,-34.4,M,,*51
$GPRMC,160055.250,A,4308.4719,N,07726.8276,W,38.32,264.80,050925,,,A*4E
$GPGGA,160055.500,4308.4717,N,07726.8311,W,1,05,1.73,177.4,M,-34.4,M,,*52
$GPRMC,160055.750,A,4308.4715,N,07726.8347,W,38.26,264.70,050925,,,A*4E
$GPGGA,160056.000,4308.4713,N,07726.8383,W,1,05,1.64,177.2,M,-34.4,M,,*5B
$GPRMC,160056.250,A,4308.4711,N,07726.8418,W,37.84,265.08,050925,,,A*48
$GPGGA,160056.500,4308.4708,N,07726.8455,W,1,05,1.73,177.1,M,-34.4,M,,*5D
$GPRMC,160056.750,A,4308.4706,N,07726.8491,W,37.90,265.36,050925,,,A*42
$GPGGA,160057.000,4308.4704,N,07726.8527,W,1,05,1.64,177.0,M,-34.4,M,,*56
$GPRMC,160057.250,A,4308.4701,N,07726.8563,W,37.99,265.13,050925,,,A*43
$GPGGA,160057.500,4308.4699,N,07726.8599,W,1,05,1.64,176.7,M,-34.4,M,,*55
$GPRMC,160057.750,A,4308.4696,N,07726.8634,W,38.24,264.95,050925,,,A*4E
$GPGGA,160058.000,4308.4694,N,07726.8670,W,1,05,1.64,176.5,M,-34.4,M,,*54
$GPRMC,160058.250,A,4308.4691,N,07726.8706,W,38.31,264.88,050925,,,A*4B
$GPGGA,160058.500,4308.4688,N,07726.8742,W,1,05,1.73,176.3,M,-34.4,M,,*5C
$GPRMC,160058.750,A,4308.4685,N,07726.8778,W,38.54,264.61,050925,,,A*46
$GPGGA,160059.000,4308.4683,N,07726.8814,W,1,05,1.64,176.1,M,-34.4,M,,*5B
$GPRMC,160059.250,A,4308.4680,N,07726.8850,W,38.53,264.88,050925,,,A*42
$GPGGA,160059.500,4308.4678,N,07726.8886,W,1,05,1.64,176.0,M,-34.4,M,,*50
$GPRMC,160059.750,A,4308.4676,N,07726.8922,W,38.34,265.44,050925,,,A*4A
$GPGGA,160100.000,4308.4673,N,07726.8958,W,1,05,1.64,175.9,M,-34.4,M,,*5B
$GPRMC,160100.250,A,4308.4671,N,07726.8994,W,38.39,265.29,050925,,,A*4E
$GPGGA,160100.500,4308.4668,N,07726.9030,W,1,05,1.73,175.8,M,-34.4,M,,*55
$GPRMC,160100.750,A,4308.4666,N,07726.9065,W,37.89,265.10,050925,,,A*45
$GPGGA,160101.000,4308.4664,N,07726.9101,W,1,05,1.64,175.8,M,-34.4,M,,*58
$GPRMC,160101.250,A,4308.4662,N,07726.9136,W,37.66,265.27,050925,,,A*47
$GPGGA,160101.500,4308.4660,N,07726.9172,W,1,05,1.64,175.7,M,-34.4,M,,*52
$GPRMC,160101.750,A,4308.4657,N,07726.9207,W,37.92,265.12,050925,,,A*48
$GPGGA,160102.000,4308.4655,N,07726.9243,W,1,05,1.64,175.6,M,-34.4,M,,*52
$GPRMC,160102.250,A,4308.4652,N,07726.9279,W,38.06,264.85,050925,,,A*4F
$GPGGA,160102.500,4308.4650,N,07726.9315,W,1,05,1.73,175.5,M,-34.4,M,,*55
$GPRMC,160102.750,A,4308.4648,N,07726.9350,W,38.06,265.11,050925,,,A*47
$GPGGA,160103.000,4308.4646,N,07726.9386,W,1,05,1.64,175.5,M,-34.4,M,,*5A
$GPRMC,160103.250,A,4308.4644,N,07726.9422,W,38.07,265.57,050925,,,A*4E
$GPGGA,160103.500,4308.4642,N,07726.9458,W,1,05,1.73,175.4,M,-34.4,M,,*58
$GPRMC,160103.750,A,4308.4640,N,07726.9494,W,38.27,265.84,050925,,,A*4E
$GPGGA,160104.000,4308.4638,N,07726.9530,W,1,05,1.64,175.3,M,-34.4,M,,*59
$GPRMC,160104.250,A,4308.4636,N,07726.9566,W,38.38,266.19,050925,,,A*48
$GPGGA,160104.500,4308.4634,N,07726.9602,W,1,05,1.73,175.2,M,-34.4,M,,*55
$GPRMC,160104.750,A,4308.4632,N,07726.9639,W,38.61,266.07,050925,,,A*43
$GPGGA,160105.000,4308.4629,N,07726.9675,W,1,05,1.64,175.1,M,-34.4,M,,*58
$GPRMC,160105.250,A,4308.4627,N,07726.9712,W,38.80,265.72,050925,,,A*45
$GPGGA,160105.500,4308.4624,N,07726.9748,W,1,05,1.73,175.0,M,-34.4,M,,*58
$GPRMC,160105.750,A,4308.4621,N,07726.9785,W,38.89,265.64,050925,,,A*46
$GPGGA,160106.000,4308.4619,N,07726.9822,W,1,05,1.64,174.9,M,-34.4,M,,*5D
$GPRMC,160106.250,A,4308.4616,N,07726.9859,W,39.02,265.67,050925,,,A*4B
$GPGGA,160106.500,4308.4614,N,07726.9896,W,1,05,1.73,174.9,M,-34.4,M,,*5C
$GPRMC,160106.750,A,4308.4611,N,07726.9933,W,39.64,265.69,050925,,,A*4A
$GPGGA,160107.000,4308.4609,N,07726.9971,W,1,05,1.64,174.9,M,-34.4,M,,*5A
$GPRMC,160107.250,A,4308.4606,N,07727.0008,W,39.82,266.10,050925,,,A*44
$GPGGA,160107.500,4308.4604,N,07727.0046,W,1,05,1.73,174.8,M,-34.4,M,,*50
$GPRMC,160107.750,A,4308.4602,N,07727.0084,W,40.56,266.45,050925,,,A*46
$GPGGA,160108.000,4308.4600,N,07727.0122,W,1,05,1.64,174.9,M,-34.4,M,,*5A
$GPRMC,160108.250,A,4308.4598,N,07727.0160,W,40.80,266.45,050925,,,A*4C
$GPGGA,160108.500,4308.4596,N,07727.0198,W,1,05,1.73,175.0,M,-34.4,M,,*5C
$GPRMC,160108.750,A,4308.4595,N,07727.0237,W,40.76,266.67,050925,,,A*4C
$GPGGA,160109.000,4308.4593,N,07727.0276,W,1,05,1.64,175.0,M,-34.4,M,,*58
$GPRMC,160109.250,A,4308.4592,N,07727.0314,W,40.97,267.69,050925,,,A*4F
$GPGGA,160109.500,4308.4591,N,07727.0352,W,1,05,1.73,175.1,M,-34.4,M,,*5F
$GPRMC,160109.750,A,4308.4591,N,07727.0390,W,40.87,269.01,050925,,,A*44
$GPGGA,160110.000,4308.4591,N,07727.0428,W,1,05,1.64,175.2,M,-34.4,M,,*5D
$GPRMC,160110.250,A,4308.4591,N,07727.0466,W,40.67,270.04,050925,,,A*44
$GPGGA,160110.500,4308.4592,N,07727.0504,W,1,05,1.73,175.3,M,-34.4,M,,*53
$GPRMC,160110.750,A,4308.4593,N,07727.0543,W,40.65,271.37,050925,,,A*46
$GPGGA,160111.000,4308.4594,N,07727.0582,W,1,05,1.64,175.4,M,-34.4,M,,*5E
$GPRMC,160111.250,A,4308.4595,N,07727.0621,W,41.64,272.46,050925,,,A*46
$GPGGA,160111.500,4308.4597,N,07727.0661,W,1,05,1.73,175.5,M,-34.4,M,,*51
$GPRMC,160111.750,A,4308.4599,N,07727.0700,W,41.71,273.81,050925,,,A*43
$GPGGA,160112.000,4308.4601,N,07727.0739,W,1,05,1.64,175.6,M,-34.4,M,,*52
$GPRMC,160112.250,A,4308.4604,N,07727.0778,W,41.68,275.00,050925,,,A*4A
$GPGGA,160112.500,4308.4607,N,07727.0816,W,1,05,1.73,175.7,M,-34.4,M,,*54
$GPRMC,160112.750,A,4308.4610,N,07727.0855,W,41.61,275.85,050925,,,A*4E
$GPGGA,160113.000,4308.4614,N,07727.0894,W,1,05,1.64,175.8,M,-34.4,M,,*51
$GPRMC,160113.250,A,4308.4617,N,07727.0934,W,41.63,276.75,050925,,,A*45
$GPGGA,160113.500,4308.4621,N,07727.0973,W,1,05,1.73,175.9,M,-34.4,M,,*5D
$GPRMC,160113.750,A,4308.4625,N,07727.1013,W,42.26,277.43,050925,,,A*4A
$GPGGA,160114.000,4308.4629,N,07727.1053,W,1,05,1.64,176.1,M,-34.4,M,,*50
$GPRMC,160114.250,A,4308.4634,N,07727.1093,W,41.55,277.94,050925,,,A*4D
$GPGGA,160114.500,4308.4638,N,07727.1132,W,1,05,1.64,176.0,M,-34.4,M,,*52
$GPRMC,160114.750,A,4308.4642,N,07727.1171,W,41.65,278.11,050925,,,A*45
$GPGGA,160115.000,4308.4646,N,07727.1210,W,1,05,1.64,175.7,M,-34.4,M,,*58
$GPRMC,160115.250,A,4308.4650,N,07727.1249,W,42.06,278.60,050925,,,A*4A
$GPGGA,160115.500,4308.4655,N,07727.1289,W,1,05,1.73,175.4,M,-34.4,M,,*5A
$GPRMC,160115.750,A,4308.4659,N,07727.1328,W,42.17,279.06,050925,,,A*41
$GPGGA,160116.000,4308.4664,N,07727.1368,W,1,05,1.64,175.2,M,-34.4,M,,*50
$GPRMC,160116.250,A,4308.4668,N,07727.1406,W,42.03,279.45,050925,,,A*4C
$GPGGA,160116.500,4308.4672,N,07727.1445,W,1,05,1.64,175.0,M,-34.4,M,,*58
$GPRMC,160116.750,A,4308.4676,N,07727.1483,W,41.81,280.09,050925,,,A*4C
$GPGGA,160117.000,4308.4679,N,07727.1522,W,1,05,1.64,174.9,M,-34.4,M,,*5F
$GPRMC,160117.250,A,4308.4683,N,07727.1560,W,41.51,279.78,050925,,,A*43
$GPGGA,160117.500,4308.4688,N,07727.1599,W,1,05,1.64,174.8,M,-34.4,M,,*55
$GPRMC,160117.750,A,4308.4693,N,07727.1637,W,41.27,280.14,050925,,,A*4B
$GPGGA,160118.000,4308.4697,N,07727.1675,W,1,05,1.64,174.7,M,-34.4,M,,*5F
$GPRMC,160118.250,A,4308.4702,N,07727.1714,W,40.79,279.86,050925,,,A*4F
$GPGGA,160118.500,4308.4707,N,07727.1752,W,1,05,1.64,174.7,M,-34.4,M,,*56
$GPRMC,160118.750,A,4308.4712,N,07727.1790,W,40.43,279.96,050925,,,A*4F
$GPGGA,160119.000,4308.4717,N,07727.1827,W,1,05,1.64,174.7,M,-34.4,M,,*5E
$GPRMC,160119.250,A,4308.4722,N,07727.1865,W,40.06,279.54,050925,,,A*42
$GPGGA,160119.500,4308.4728,N,07727.1902,W,1,05,1.73,174.8,M,-34.4,M,,*58
$GPRMC,160119.750,A,4308.4733,N,07727.1939,W,39.85,279.23,050925,,,A*4A
$GPGGA,160120.000,4308.4738,N,07727.1976,W,1,05,1.64,174.8,M,-34.4,M,,*53
$GPRMC,160120.250,A,4308.4742,N,07727.2013,W,39.51,278.82,050925,,,A*42
$GPGGA,160120.500,4308.4747,N,07727.2049,W,1,05,1.64,174.7,M,-34.4,M,,*57
$GPRMC,160120.750,A,4308.4752,N,07727.2086,W,39.45,278.09,050925,,,A*4C
$GPGGA,160121.000,4308.4756,N,07727.2123,W,1,05,1.64,174.7,M,-34.4,M,,*5E
$GPRMC,160121.250,A,4308.4760,N,07727.2160,W,39.31,277.35,050925,,,A*43
$GPGGA,160121.500,4308.4764,N,07727.2197,W,1,05,1.64,174.6,M,-34.4,M,,*54
$GPRMC,160121.750,A,4308.4767,N,07727.2233,W,39.21,276.55,050925,,,A*42
$GPGGA,160122.000,4308.4771,N,07727.2270,W,1,05,1.64,174.5,M,-34.4,M,,*5F
$GPRMC,160122.250,A,4308.4776,N,07727.2307,W,39.08,276.45,050925,,,A*48
$GPGGA,160122.500,4308.4780,N,07727.2343,W,1,05,1.64,174.4,M,-34.4,M,,*54
$GPRMC,160122.750,A,4308.4784,N,07727.2378,W,38.34,276.73,050925,,,A*43
$GPGGA,160123.000,4308.4788,N,07727.2415,W,1,05,1.64,174.2,M,-34.4,M,,*5A
$GPRMC,160123.250,A,4308.4792,N,07727.2450,W,38.54,277.35,050925,,,A*48
$GPGGA,160123.500,4308.4796,N,07727.2486,W,1,05,1.64,174.0,M,-34.4,M,,*58
$GPRMC,160123.750,A,4308.4801,N,07727.2522,W,38.51,277.98,050925,,,A*4E
$GPGGA,160124.000,4308.4805,N,07727.2557,W,1,05,1.64,173.7,M,-34.4,M,,*52
$GPRMC,160124.250,A,4308.4810,N,07727.2593,W,38.31,278.35,050925,,,A*48
$GPGGA,160124.500,4308.4814,N,07727.2628,W,1,05,1.73,173.5,M,-34.4,M,,*58
$GPRMC,160124.750,A,4308.4819,N,07727.2664,W,38.24,279.04,050925,,,A*48
$GPGGA,160125.000,4308.4824,N,07727.2699,W,1,05,1.64,173.3,M,-34.4,M,,*55
$GPRMC,160125.250,A,4308.4829,N,07727.2735,W,38.51,279.82,050925,,,A*46
$GPGGA,160125.500,4308.4834,N,07727.2771,W,1,05,1.64,173.0,M,-34.4,M,,*55
$GPRMC,160125.750,A,4308.4838,N,07727.2807,W,38.45,280.25,050925,,,A*43
$GPGGA,160126.000,4308.4843,N,07727.2842,W,1,05,1.64,172.8,M,-34.4,M,,*55
$GPRMC,160126.250,A,4308.4848,N,07727.2878,W,38.22,280.68,050925,,,A*42
$GPGGA,160126.500,4308.4853,N,07727.2913,W,1,05,1.73,172.7,M,-34.4,M,,*5D
$GPRMC,160126.750,A,4308.4859,N,07727.2948,W,38.21,281.57,050925,,,A*4B
$GPGGA,160127.000,4308.4864,N,07727.2984,W,1,05,1.64,172.5,M,-34.4,M,,*57
$GPRMC,160127.250,A,4308.4868,N,07727.3019,W,38.20,281.66,050925,,,A*42
$GPGGA,160127.500,4308.4873,N,07727.3055,W,1,05,1.64,172.4,M,-34.4,M,,*51
$GPRMC,160127.750,A,4308.4878,N,07727.3090,W,37.76,281.61,050925,,,A*4C
$GPGGA,160128.000,4308.4883,N,07727.3125,W,1,05,1.64,172.4,M,-34.4,M,,*52
$GPRMC,160128.250,A,4308.4888,N,07727.3160,W,37.76,281.33,050925,,,A*40
$GPGGA,160128.500,4308.4893,N,07727.3196,W,1,05,1.73,172.3,M,-34.4,M,,*5F
$GPRMC,160128.750,A,4308.4897,N,07727.3231,W,37.75,281.15,050925,,,A*4B
$GPGGA,160129.000,4308.4902,N,07727.3267,W,1,05,1.64,172.3,M,-34.4,M,,*59
$GPRMC,160129.250,A,4308.4906,N,07727.3302,W,37.76,280.76,050925,,,A*40
$GPGGA,160129.500,4308.4910,N,07727.3337,W,1,05,1.64,172.3,M,-34.4,M,,*5B
$GPRMC,160129.750,A,4308.4914,N,07727.3373,W,37.69,280.28,050925,,,A*45
$GPGGA,160130.000,4308.4918,N,07727.3408,W,1,05,1.64,172.4,M,-34.4,M,,*52
$GPRMC,160130.250,A,4308.4922,N,07727.3444,W,37.64,279.48,050925,,,A*43
$GPGGA,160130.500,4308.4926,N,07727.3479,W,1,05,1.73,172.4,M,-34.4,M,,*5A
$GPRMC,160130.750,A,4308.4930,N,07727.3514,W,37.62,279.11,050925,,,A*4B
$GPGGA,160131.000,4308.4934,N,07727.3550,W,1,05,1.64,172.4,M,-34.4,M,,*51
$GPRMC,160131.250,A,4308.4937,N,07727.3585,W,37.65,278.98,050925,,,A*47
$GPGGA,160131.500,4308.4941,N,07727.3621,W,1,05,1.64,172.4,M,-34.4,M,,*53
$GPRMC,160131.750,A,4308.4945,N,07727.3657,W,37.90,278.53,050925,,,A*46
$GPGGA,160132.000,4308.4949,N,07727.3693,W,1,05,1.64,172.4,M,-34.4,M,,*54
$GPRMC,160132.250,A,4308.4953,N,07727.3728,W,38.16,278.56,050925,,,A*4A
$GPGGA,160132.500,4308.4957,N,07727.3765,W,1,05,1.64,172.4,M,-34.4,M,,*56
$GPRMC,160132.750,A,4308.4961,N,07727.3801,W,38.42,278.79,050925,,,A*46
$GPGGA,160133.000,4308.4965,N,07727.3837,W,1,05,1.64,172.3,M,-34.4,M,,*5C
$GPRMC,160133.250,A,4308.4969,N,07727.3874,W,38.51,278.82,050925,,,A*4E
$GPGGA,160133.500,4308.4973,N,07727.3910,W,1,05,1.64,172.2,M,-34.4,M,,*5B
$GPRMC,160133.750,A,4308.4978,N,07727.3946,W,38.57,279.33,050925,,,A*46
$GPGGA,160134.000,4308.4982,N,07727.3982,W,1,05,1.64,172.2,M,-34.4,M,,*5C
$GPRMC,160134.250,A,4308.4987,N,07727.4018,W,38.64,280.26,050925,,,A*43
$GPGGA,160134.500,4308.4992,N,07727.4055,W,1,05,1.64,172.1,M,-34.4,M,,*5F
$GPRMC,160134.750,A,4308.4998,N,07727.4091,W,39.05,280.98,050925,,,A*4A
$GPGGA,160135.000,4308.5003,N,07727.4128,W,1,05,1.64,172.2,M,-34.4,M,,*53
$GPRMC,160135.250,A,4308.5008,N,07727.4164,W,39.16,281.42,050925,,,A*40
$GPGGA,160135.500,4308.5013,N,07727.4201,W,1,05,1.64,172.2,M,-34.4,M,,*5F
$GPRMC,160135.750,A,4308.5019,N,07727.4238,W,39.24,281.35,050925,,,A*4E
$GPGGA,160136.000,4308.5025,N,07727.4275,W,1,05,1.64,172.3,M,-34.4,M,,*5E
$GPRMC,160136.250,A,4308.5031,N,07727.4312,W,39.34,281.33,050925,,,A*4C
$GPGGA,160136.500,4308.5037,N,07727.4348,W,1,05,1.73,172.5,M,-34.4,M,,*57
$GPRMC,160136.750,A,4308.5043,N,07727.4386,W,39.57,281.52,050925,,,A*43
$GPGGA,160137.000,4308.5048,N,07727.4423,W,1,05,1.64,172.8,M,-34.4,M,,*5A
$GPRMC,160137.250,A,4308.5054,N,07727.4460,W,39.54,281.43,050925,,,A*4D
$GPGGA,160137.500,4308.5059,N,07727.4497,W,1,05,1.73,173.0,M,-34.4,M,,*5F
$GPRMC,160137.750,A,4308.5064,N,07727.4533,W,39.56,281.21,050925,,,A*4A
$GPGGA,160138.000,4308.5068,N,07727.4571,W,1,05,1.64,173.2,M,-34.4,M,,*5A
$GPRMC,160138.250,A,4308.5072,N,07727.4607,W,39.54,280.73,050925,,,A*47
$GPGGA,160138.500,4308.5077,N,07727.4644,W,1,05,1.73,173.5,M,-34.4,M,,*55
$GPRMC,160138.750,A,4308.5081,N,07727.4681,W,39.31,280.68,050925,,,A*49
$GPGGA,160139.000,4308.5085,N,07727.4718,W,1,05,1.64,173.7,M,-34.4,M,,*50
$GPRMC,160139.250,A,4308.5089,N,07727.4755,W,39.36,280.11,050925,,,A*44
$GPGGA,160139.500,4308.5094,N,07727.4792,W,1,05,1.73,174.0,M,-34.4,M,,*51
$GPRMC,160139.750,A,4308.5098,N,07727.4829,W,39.63,279.28,050925,,,A*49
$GPGGA,160140.000,4308.5102,N,07727.4866,W,1,05,1.64,174.3,M,-34.4,M,,*55
$GPRMC,160140.250,A,4308.5107,N,07727.4904,W,39.94,279.38,050925,,,A*42
$GPGGA,160140.500,4308.5111,N,07727.4941,W,1,05,1.64,174.5,M,-34.4,M,,*50
$GPRMC,160140.750,A,4308.5115,N,07727.4978,W,39.79,279.91,050925,,,A*4F
$GPGGA,160141.000,4308.5120,N,07727.5015,W,1,05,1.64,174.7,M,-34.4,M,,*5D
$GPRMC,160141.250,A,4308.5126,N,07727.5052,W,39.57,280.42,050925,,,A*4F
$GPGGA,160141.500,4308.5131,N,07727.5088,W,1,05,1.73,174.9,M,-34.4,M,,*54
$GPRMC,160141.750,A,4308.5137,N,07727.5125,W,39.61,280.45,050925,,,A*49
$GPGGA,160142.000,4308.5142,N,07727.5161,W,1,05,1.64,175.0,M,-34.4,M,,*5E
$GPRMC,160142.250,A,4308.5147,N,07727.5196,W,39.52,280.49,050925,,,A*4C
$GPGGA,160142.500,4308.5152,N,07727.5232,W,1,05,1.64,174.8,M,-34.4,M,,*56
$GPRMC,160142.750,A,4308.5157,N,07727.5268,W,39.55,280.34,050925,,,A*47
$GPGGA,160143.000,4308.5162,N,07727.5304,W,1,05,1.64,174.6,M,-34.4,M,,*5B
$GPRMC,160143.250,A,4308.5167,N,07727.5340,W,39.30,280.15,050925,,,A*4B
$GPGGA,160143.500,4308.5172,N,07727.5376,W,1,05,1.64,174.5,M,-34.4,M,,*59
$GPRMC,160143.750,A,4308.5177,N,07727.5412,W,39.32,280.49,050925,,,A*44
$GPGGA,160144.000,4308.5182,N,07727.5449,W,1,05,1.64,174.3,M,-34.4,M,,*59
$GPRMC,160144.250,A,4308.5187,N,07727.5484,W,39.15,280.74,050925,,,A*4D
$GPGGA,160144.500,4308.5192,N,07727.5519,W,1,05,1.73,174.1,M,-34.4,M,,*5D
$GPRMC,160144.750,A,4308.5197,N,07727.5555,W,37.99,280.87,050925,,,A*42
$GPGGA,160145.000,4308.5202,N,07727.5590,W,1,05,1.64,173.9,M,-34.4,M,,*5B
$GPRMC,160145.250,A,4308.5207,N,07727.5626,W,37.75,280.63,050925,,,A*43
$GPGGA,160145.500,4308.5212,N,07727.5660,W,1,05,1.64,173.8,M,-34.4,M,,*52
$GPRMC,160145.750,A,4308.5216,N,07727.5695,W,37.44,280.62,050925,,,A*4D
$GPGGA,160146.000,4308.5221,N,07727.5730,W,1,05,1.64,173.5,M,-34.4,M,,*5D
$GPRMC,160146.250,A,4308.5226,N,07727.5763,W,37.02,280.86,050925,,,A*48
$GPGGA,160146.500,4308.5231,N,07727.5797,W,1,05,1.73,173.3,M,-34.4,M,,*54
$GPRMC,160146.750,A,4308.5236,N,07727.5831,W,36.89,280.63,050925,,,A*4D
$GPGGA,160147.000,4308.5241,N,07727.5865,W,1,05,1.64,173.2,M,-34.4,M,,*52
$GPRMC,160147.250,A,4308.5245,N,07727.5899,W,36.85,279.89,050925,,,A*41
$GPGGA,160147.500,4308.5249,N,07727.5933,W,1,05,1.73,173.0,M,-34.4,M,,*59
$GPRMC,160147.750,A,4308.5253,N,07727.5967,W,36.57,279.07,050925,,,A*4A
$GPGGA,160148.000,4308.5257,N,07727.6001,W,1,05,1.64,172.9,M,-34.4,M,,*59
$GPRMC,160148.250,A,4308.5260,N,07727.6035,W,36.57,278.57,050925,,,A*49
$GPGGA,160148.500,4308.5264,N,07727.6069,W,1,05,1.64,172.7,M,-34.4,M,,*5C
$GPRMC,160148.750,A,4308.5268,N,07727.6102,W,36.50,278.73,050925,,,A*40
$GPGGA,160149.000,4308.5271,N,07727.6137,W,1,05,1.64,172.5,M,-34.4,M,,*54
$GPRMC,160149.250,A,4308.5274,N,07727.6170,W,36.23,278.42,050925,,,A*4A
$GPGGA,160149.500,4308.5277,N,07727.6204,W,1,05,1.64,172.3,M,-34.4,M,,*52
$GPRMC,160149.750,A,4308.5279,N,07727.6238,W,36.16,277.84,050925,,,A*4E
$GPGGA,160150.000,4308.5282,N,07727.6271,W,1,05,1.64,172.0,M,-34.4,M,,*54
$GPRMC,160150.250,A,4308.5286,N,07727.6304,W,35.99,278.39,050925,,,A*40
$GPGGA,160150.500,4308.5288,N,07727.6336,W,1,05,1.73,171.7,M,-34.4,M,,*5B
$GPRMC,160150.750,A,4308.5289,N,07727.6369,W,35.19,278.50,050925,,,A*46
$GPGGA,160151.000,4308.5292,N,07727.6401,W,1,05,1.73,171.5,M,-34.4,M,,*55
$GPRMC,160151.250,A,4308.5295,N,07727.6433,W,34.93,278.62,050925,,,A*45
$GPGGA,160151.500,4308.5298,N,07727.6466,W,1,05,1.73,171.3,M,-34.4,M,,*5D
$GPRMC,160151.750,A,4308.5299,N,07727.6498,W,34.81,278.89,050925,,,A*4B
$GPGGA,160152.000,4308.5300,N,07727.6530,W,1,05,1.64,171.1,M,-34.4,M,,*5D
$GPRMC,160152.250,A,4308.5303,N,07727.6562,W,34.32,278.59,050925,,,A*4E
$GPGGA,160152.500,4308.5304,N,07727.6593,W,1,05,1.73,170.8,M,-34.4,M,,*5B
$GPRMC,160152.750,A,4308.5306,N,07727.6625,W,34.40,277.48,050925,,,A*44
$GPGGA,160153.000,4308.5307,N,07727.6658,W,1,05,1.63,170.6,M,-34.4,M,,*57
$GPRMC,160153.250,A,4308.5308,N,07727.6690,W,34.36,276.45,050925,,,A*4D
$GPGGA,160153.500,4308.5310,N,07727.6721,W,1,05,1.73,170.4,M,-34.4,M,,*58
$GPRMC,160153.750,A,4308.5312,N,07727.6753,W,34.04,276.15,050925,,,A*49
$GPGGA,160154.000,4308.5315,N,07727.6784,W,1,05,1.63,170.3,M,-34.4,M,,*56
$GPRMC,160154.250,A,4308.5317,N,07727.6815,W,33.54,276.08,050925,,,A*4D
$GPGGA,160154.500,4308.5318,N,07727.6846,W,1,05,1.73,170.2,M,-34.4,M,,*5F
$GPRMC,160154.750,A,4308.5320,N,07727.6876,W,33.01,275.77,050925,,,A*42
$GPGGA,160155.000,4308.5322,N,07727.6907,W,1,05,1.64,170.2,M,-34.4,M,,*50
$GPRMC,160155.250,A,4308.5324,N,07727.6937,W,32.83,275.53,050925,,,A*4B
$GPGGA,160155.500,4308.5325,N,07727.6967,W,1,05,1.73,170.1,M,-34.4,M,,*51
$GPRMC,160155.750,A,4308.5327,N,07727.6998,W,32.39,275.74,050925,,,A*4C
$GPGGA,160156.000,4308.5329,N,07727.7028,W,1,05,1.63,170.2,M,-34.4,M,,*5A
$GPRMC,160156.250,A,4308.5331,N,07727.7058,W,32.45,275.34,050925,,,A*46
$GPGGA,160156.500,4308.5332,N,07727.7089,W,1,05,1.64,170.2,M,-34.4,M,,*59
$GPRMC,160156.750,A,4308.5334,N,07727.7120,W,32.40,274.70,050925,,,A*4C
$GPGGA,160157.000,4308.5335,N,07727.7151,W,1,05,1.63,170.2,M,-34.4,M,,*59
$GPRMC,160157.250,A,4308.5337,N,07727.7181,W,32.39,274.43,050925,,,A*4E
$GPGGA,160157.500,4308.5338,N,07727.7211,W,1,05,1.73,170.2,M,-34.4,M,,*57
$GPRMC,160157.750,A,4308.5340,N,07727.7241,W,31.93,274.37,050925,,,A*44
$GPGGA,160158.000,4308.5341,N,07727.7272,W,1,05,1.63,170.2,M,-34.4,M,,*57
$GPRMC,160158.250,A,4308.5342,N,07727.7302,W,31.87,274.30,050925,,,A*48
$GPGGA,160158.500,4308.5344,N,07727.7332,W,1,05,1.73,170.2,M,-34.4,M,,*53
$GPRMC,160158.750,A,4308.5345,N,07727.7361,W,31.15,275.16,050925,,,A*41
$GPGGA,160159.000,4308.5348,N,07727.7388,W,1,05,1.63,170.2,M,-34.4,M,,*5B
$GPRMC,160159.250,A,4308.5349,N,07727.7416,W,30.19,276.14,050925,,,A*42
$GPGGA,160159.500,4308.5352,N,07727.7443,W,1,05,1.73,170.2,M,-34.4,M,,*54
$GPRMC,160159.750,A,4308.5354,N,07727.7469,W,29.66,277.66,050925,,,A*47
$GPGGA,160200.000,4308.5356,N,07727.7494,W,1,05,1.63,170.2,M,-34.4,M,,*51
$GPRMC,160200.250,A,4308.5357,N,07727.7520,W,27.36,277.55,050925,,,A*49
$GPGGA,160200.500,4308.5357,N,07727.7544,W,1,05,1.73,170.2,M,-34.4,M,,*58
$GPRMC,160200.750,A,4308.5358,N,07727.7568,W,25.80,275.95,050925,,,A*4E
$GPGGA,160201.000,4308.5359,N,07727.7591,W,1,05,1.63,170.4,M,-34.4,M,,*5D
$GPRMC,160201.250,A,4308.5360,N,07727.7612,W,23.96,276.14,050925,,,A*44
$GPGGA,160201.500,4308.5361,N,07727.7632,W,1,05,1.73,170.5,M,-34.4,M,,*59
$GPRMC,160201.750,A,4308.5361,N,07727.7652,W,22.46,275.94,050925,,,A*43
$GPGGA,160202.000,4308.5362,N,07727.7671,W,1,05,1.73,170.7,M,-34.4,M,,*59
$GPRMC,160202.250,A,4308.5363,N,07727.7690,W,20.92,275.76,050925,,,A*4E
$GPGGA,160202.500,4308.5363,N,07727.7707,W,1,05,1.73,171.0,M,-34.4,M,,*5B
$GPRMC,160202.750,A,4308.5363,N,07727.7723,W,18.99,275.75,050925,,,A*41
$GPGGA,160203.000,4308.5363,N,07727.7739,W,1,05,1.73,171.2,M,-34.4,M,,*50
$GPRMC,160203.250,A,4308.5363,N,07727.7755,W,17.70,275.21,050925,,,A*4D
$GPGGA,160203.500,4308.5363,N,07727.7770,W,1,05,1.73,171.5,M,-34.4,M,,*5F
$GPRMC,160203.750,A,4308.5363,N,07727.7784,W,16.42,275.27,050925,,,A*42
$GPGGA,160204.000,4308.5364,N,07727.7798,W,1,05,1.73,171.8,M,-34.4,M,,*51
$GPRMC,160204.250,A,4308.5365,N,07727.7811,W,15.32,275.75,050925,,,A*46
$GPGGA,160204.500,4308.5366,N,07727.7824,W,1,05,1.73,172.0,M,-34.4,M,,*55
$GPRMC,160204.750,A,4308.5367,N,07727.7835,W,13.83,277.35,050925,,,A*4D
$GPGGA,160205.000,4308.5369,N,07727.7847,W,1,05,1.63,172.2,M,-34.4,M,,*58
$GPRMC,160205.250,A,4308.5370,N,07727.7857,W,12.51,279.23,050925,,,A*4C
$GPGGA,160205.500,4308.5371,N,07727.7868,W,1,05,1.73,172.3,M,-34.4,M,,*59
$GPRMC,160205.750,A,4308.5372,N,07727.7877,W,11.22,281.05,050925,,,A*4D
$GPGGA,160206.000,4308.5373,N,07727.7887,W,1,05,1.73,172.5,M,-34.4,M,,*5A
$GPRMC,160206.250,A,4308.5373,N,07727.7896,W,10.34,280.99,050925,,,A*47
$GPGGA,160206.500,4308.5373,N,07727.7904,W,1,05,1.73,172.6,M,-34.4,M,,*56
$GPRMC,160206.750,A,4308.5372,N,07727.7912,W,9.45,277.30,050925,,,A*7B
$GPGGA,160207.000,4308.5373,N,07727.7920,W,1,05,1.73,172.8,M,-34.4,M,,*5A
$GPRMC,160207.250,A,4308.5373,N,07727.7928,W,8.79,277.54,050925,,,A*7B
$GPGGA,160207.500,4308.5373,N,07727.7935,W,1,05,1.73,173.0,M,-34.4,M,,*52
$GPRMC,160207.750,A,4308.5373,N,07727.7942,W,8.21,278.74,050925,,,A*72
$GPGGA,160208.000,4308.5374,N,07727.7949,W,1,05,1.73,173.2,M,-34.4,M,,*56
$GPRMC,160208.250,A,4308.5374,N,07727.7956,W,7.65,279.49,050925,,,A*7A
$GPGGA,160208.500,4308.5375,N,07727.7962,W,1,05,1.73,173.3,M,-34.4,M,,*5A
$GPRMC,160208.750,A,4308.5375,N,07727.7968,W,6.92,280.43,050925,,,A*76
$GPGGA,160209.000,4308.5376,N,07727.7973,W,1,05,1.63,173.3,M,-34.4,M,,*5C
$GPRMC,160209.250,A,4308.5377,N,07727.7977,W,6.15,285.30,050925,,,A*70
$GPGGA,160209.500,4308.5378,N,07727.7983,W,1,05,1.73,173.4,M,-34.4,M,,*5E
$GPRMC,160209.750,A,4308.5378,N,07727.7988,W,6.03,286.37,050925,,,A*79
$GPGGA,160210.000,4308.5379,N,07727.7993,W,1,05,1.73,173.4,M,-34.4,M,,*53
$GPRMC,160210.250,A,4308.5380,N,07727.7998,W,5.91,287.55,050925,,,A*7F
$GPGGA,160210.500,4308.5380,N,07727.8003,W,1,05,1.73,173.5,M,-34.4,M,,*5E
$GPRMC,160210.750,A,4308.5381,N,07727.8008,W,5.64,287.04,050925,,,A*7A
$GPGGA,160211.000,4308.5382,N,07727.8012,W,1,05,1.63,173.6,M,-34.4,M,,*5A
$GPRMC,160211.250,A,4308.5383,N,07727.8017,W,5.59,288.81,050925,,,A*7E
$GPGGA,160211.500,4308.5384,N,07727.8022,W,1,05,1.73,173.7,M,-34.4,M,,*5A
$GPRMC,160211.750,A,4308.5385,N,07727.8027,W,5.64,289.93,050925,,,A*72
$GPGGA,160212.000,4308.5385,N,07727.8031,W,1,05,1.63,173.9,M,-34.4,M,,*50
$GPRMC,160212.250,A,4308.5386,N,07727.8036,W,5.40,289.93,050925,,,A*71
$GPGGA,160212.500,4308.5386,N,07727.8039,W,1,05,1.73,173.9,M,-34.4,M,,*5F
$GPRMC,160212.750,A,4308.5386,N,07727.8043,W,4.85,289.66,050925,,,A*74
$GPGGA,160213.000,4308.5386,N,07727.8047,W,1,05,1.73,173.9,M,-34.4,M,,*52
$GPRMC,160213.250,A,4308.5387,N,07727.8050,W,4.32,290.36,050925,,,A*72
$GPGGA,160213.500,4308.5387,N,07727.8053,W,1,05,1.73,174.0,M,-34.4,M,,*5D
$GPRMC,160213.750,A,4308.5387,N,07727.8056,W,3.67,289.23,050925,,,A*7A
$GPGGA,160214.000,4308.5388,N,07727.8059,W,1,05,1.63,174.0,M,-34.4,M,,*5B
$GPRMC,160214.250,A,4308.5388,N,07727.8061,W,3.44,289.95,050925,,,A*7F
$GPGGA,160214.500,4308.5388,N,07727.8064,W,1,05,1.63,174.0,M,-34.4,M,,*50
$GPRMC,160214.750,A,4308.5388,N,07727.8067,W,3.53,289.48,050925,,,A*7A
$GPGGA,160215.000,4308.5388,N,07727.8070,W,1,05,1.63,173.6,M,-34.4,M,,*50
$GPRMC,160215.250,A,4308.5388,N,07727.8074,W,4.13,290.80,050925,,,A*73
$GPGGA,160215.500,4308.5388,N,07727.8078,W,1,05,1.73,173.7,M,-34.4,M,,*5D
$GPRMC,160215.750,A,4308.5388,N,07727.8082,W,4.38,289.24,050925,,,A*70
$GPGGA,160216.000,4308.5387,N,07727.8086,W,1,05,1.73,173.8,M,-34.4,M,,*5A
$GPRMC,160216.250,A,4308.5386,N,07727.8090,W,4.49,284.11,050925,,,A*76
$GPGGA,160216.500,4308.5385,N,07727.8094,W,1,05,1.63,173.9,M,-34.4,M,,*5E
$GPRMC,160216.750,A,4308.5385,N,07727.8097,W,4.43,280.98,050925,,,A*78
$GPGGA,160217.000,4308.5383,N,07727.8101,W,1,05,1.63,173.9,M,-34.4,M,,*51
$GPRMC,160217.250,A,4308.5383,N,07727.8105,W,4.45,282.70,050925,,,A*72
$GPGGA,160217.500,4308.5382,N,07727.8109,W,1,05,1.73,174.0,M,-34.4,M,,*52
$GPRMC,160217.750,A,4308.5381,N,07727.8114,W,5.12,281.88,050925,,,A*72
$GPGGA,160218.000,4308.5381,N,07727.8121,W,1,05,1.63,174.1,M,-34.4,M,,*51
$GPRMC,160218.250,A,4308.5381,N,07727.8128,W,6.94,281.64,050925,,,A*78
$GPGGA,160218.500,4308.5381,N,07727.8136,W,1,05,1.73,174.2,M,-34.4,M,,*50
$GPRMC,160218.750,A,4308.5381,N,07727.8147,W,9.10,278.76,050925,,,A*72
$GPGGA,160219.000,4308.5380,N,07727.8159,W,1,05,1.63,174.2,M,-34.4,M,,*5D
$GPRMC,160219.250,A,4308.5380,N,07727.8171,W,11.54,277.47,050925,,,A*46
$GPGGA,160219.500,4308.5380,N,07727.8185,W,1,05,1.73,174.4,M,-34.4,M,,*5E
$GPRMC,160219.750,A,4308.5380,N,07727.8201,W,14.50,277.24,050925,,,A*43
$GPGGA,160220.000,4308.5380,N,07727.8217,W,1,05,1.73,174.5,M,-34.4,M,,*58
$GPRMC,160220.250,A,4308.5380,N,07727.8234,W,16.53,276.07,050925,,,A*4B
$GPGGA,160220.500,4308.5380,N,07727.8251,W,1,05,1.73,174.7,M,-34.4,M,,*5D
$GPRMC,160220.750,A,4308.5380,N,07727.8269,W,18.29,275.13,050925,,,A*43
$GPGGA,160221.000,4308.5380,N,07727.8287,W,1,05,1.63,174.5,M,-34.4,M,,*51
$GPRMC,160221.250,A,4308.5380,N,07727.8306,W,19.50,275.40,050925,,,A*46
$GPGGA,160221.500,4308.5380,N,07727.8326,W,1,05,1.73,174.8,M,-34.4,M,,*52
$GPRMC,160221.750,A,4308.5379,N,07727.8347,W,21.09,273.67,050925,,,A*44
$GPGGA,160222.000,4308.5379,N,07727.8368,W,1,05,1.63,174.4,M,-34.4,M,,*55
$GPRMC,160222.250,A,4308.5378,N,07727.8389,W,22.30,273.02,050925,,,A*4B
$GPGGA,160222.500,4308.5378,N,07727.8412,W,1,05,1.73,174.6,M,-34.4,M,,*58
$GPRMC,160222.750,A,4308.5377,N,07727.8435,W,23.80,272.24,050925,,,A*4E
$GPGGA,160223.000,4308.5375,N,07727.8458,W,1,05,1.63,174.3,M,-34.4,M,,*5B
$GPRMC,160223.250,A,4308.5375,N,07727.8481,W,24.72,272.49,050925,,,A*46
$GPGGA,160223.500,4308.5376,N,07727.8505,W,1,05,1.73,174.0,M,-34.4,M,,*56
$GPRMC,160223.750,A,4308.5376,N,07727.8530,W,25.45,272.86,050925,,,A*4D
$GPGGA,160224.000,4308.5377,N,07727.8554,W,1,05,1.63,174.2,M,-34.4,M,,*52
$GPRMC,160224.250,A,4308.5376,N,07727.8578,W,25.53,271.87,050925,,,A*46
$GPGGA,160224.500,4308.5376,N,07727.8602,W,1,05,1.63,174.4,M,-34.4,M,,*50
$GPRMC,160224.750,A,4308.5376,N,07727.8627,W,25.85,270.82,050925,,,A*45
$GPGGA,160225.000,4308.5376,N,07727.8651,W,1,05,1.63,174.6,M,-34.4,M,,*50
$GPRMC,160225.250,A,4308.5376,N,07727.8675,W,25.64,270.30,050925,,,A*40
$GPGGA,160225.500,4308.5376,N,07727.8699,W,1,05,1.63,174.8,M,-34.4,M,,*5F
$GPRMC,160225.750,A,4308.5375,N,07727.8723,W,25.63,269.98,050925,,,A*49
$GPGGA,160226.000,4308.5375,N,07727.8748,W,1,05,1.63,175.0,M,-34.4,M,,*5E
$GPRMC,160226.250,A,4308.5376,N,07727.8774,W,26.06,270.13,050925,,,A*45
$GPGGA,160226.500,4308.5376,N,07727.8799,W,1,05,1.73,175.2,M,-34.4,M,,*57
$GPRMC,160226.750,A,4308.5377,N,07727.8824,W,26.05,271.12,050925,,,A*48
$GPGGA,160227.000,4308.5378,N,07727.8849,W,1,05,1.63,175.4,M,-34.4,M,,*58
$GPRMC,160227.250,A,4308.5379,N,07727.8874,W,25.98,271.47,050925,,,A*40
$GPGGA,160227.500,4308.5380,N,07727.8899,W,1,05,1.73,175.5,M,-34.4,M,,*57
$GPRMC,160227.750,A,4308.5381,N,07727.8924,W,25.67,271.02,050925,,,A*47
$GPGGA,160228.000,4308.5382,N,07727.8949,W,1,05,1.63,175.7,M,-34.4,M,,*50
$GPRMC,160228.250,A,4308.5382,N,07727.8974,W,25.63,270.46,050925,,,A*4E
$GPGGA,160228.500,4308.5382,N,07727.8998,W,1,05,1.73,175.8,M,-34.4,M,,*57
$GPRMC,160228.750,A,4308.5383,N,07727.9023,W,25.60,270.02,050925,,,A*43
$GPGGA,160229.000,4308.5383,N,07727.9048,W,1,05,1.63,176.0,M,-34.4,M,,*5D
$GPRMC,160229.250,A,4308.5383,N,07727.9073,W,25.95,269.02,050925,,,A*40
$GPGGA,160229.500,4308.5382,N,07727.9098,W,1,05,1.73,176.1,M,-34.4,M,,*54
$GPRMC,160229.750,A,4308.5382,N,07727.9123,W,26.31,267.33,050925,,,A*41
$GPGGA,160230.000,4308.5381,N,07727.9148,W,1,05,1.63,176.2,M,-34.4,M,,*54
$GPRMC,160230.250,A,4308.5380,N,07727.9174,W,26.81,266.99,050925,,,A*46
$GPGGA,160230.500,4308.5380,N,07727.9200,W,1,05,1.63,176.3,M,-34.4,M,,*5E
$GPRMC,160230.750,A,4308.5380,N,07727.9227,W,27.53,268.00,050925,,,A*46
$GPGGA,160231.000,4308.5381,N,07727.9255,W,1,05,1.63,176.4,M,-34.4,M,,*5C
$GPRMC,160231.250,A,4308.5381,N,07727.9282,W,28.00,268.04,050925,,,A*41
$GPGGA,160231.500,4308.5381,N,07727.9309,W,1,05,1.63,176.5,M,-34.4,M,,*50
$GPRMC,160231.750,A,4308.5382,N,07727.9337,W,28.38,267.97,050925,,,A*46
$GPGGA,160232.000,4308.5381,N,07727.9365,W,1,05,1.63,176.5,M,-34.4,M,,*5C
$GPRMC,160232.250,A,4308.5381,N,07727.9393,W,28.74,267.82,050925,,,A*41
$GPGGA,160232.500,4308.5380,N,07727.9421,W,1,05,1.63,176.6,M,-34.4,M,,*5C
$GPRMC,160232.750,A,4308.5380,N,07727.9450,W,29.07,267.14,050925,,,A*47
$GPGGA,160233.000,4308.5379,N,07727.9480,W,1,05,1.63,176.6,M,-34.4,M,,*55
$GPRMC,160233.250,A,4308.5379,N,07727.9509,W,29.39,267.41,050925,,,A*45
$GPGGA,160233.500,4308.5380,N,07727.9540,W,1,05,1.63,176.6,M,-34.4,M,,*5B
$GPRMC,160233.750,A,4308.5382,N,07727.9571,W,29.67,268.42,050925,,,A*4C
$GPGGA,160234.000,4308.5384,N,07727.9602,W,1,05,1.63,176.6,M,-34.4,M,,*58
$GPRMC,160234.250,A,4308.5386,N,07727.9632,W,29.95,269.35,050925,,,A*42
$GPGGA,160234.500,4308.5388,N,07727.9664,W,1,05,1.73,176.7,M,-34.4,M,,*51
$GPRMC,160234.750,A,4308.5389,N,07727.9694,W,30.25,270.40,050925,,,A*4D
$GPGGA,160235.000,4308.5391,N,07727.9726,W,1,05,1.63,176.7,M,-34.4,M,,*5B
$GPRMC,160235.250,A,4308.5394,N,07727.9758,W,32.12,271.31,050925,,,A*45
$GPGGA,160235.500,4308.5396,N,07727.9791,W,1,05,1.73,176.8,M,-34.4,M,,*5B
$GPRMC,160235.750,A,4308.5399,N,07727.9823,W,31.80,271.65,050925,,,A*47
$GPGGA,160236.000,4308.5400,N,07727.9854,W,1,05,1.63,176.7,M,-34.4,M,,*5D
$GPRMC,160236.250,A,4308.5402,N,07727.9886,W,32.33,271.98,050925,,,A*42
$GPGGA,160236.500,4308.5404,N,07727.9919,W,1,05,1.73,176.6,M,-34.4,M,,*54
$GPRMC,160236.750,A,4308.5404,N,07727.9953,W,33.81,272.07,050925,,,A*45
$GPGGA,160237.000,4308.5405,N,07727.9987,W,1,05,1.63,176.4,M,-34.4,M,,*55
$GPRMC,160237.250,A,4308.5406,N,07728.0018,W,33.98,272.51,050925,,,A*48
$GPGGA,160237.500,4308.5407,N,07728.0051,W,1,05,1.63,176.3,M,-34.4,M,,*51
$GPRMC,160237.750,A,4308.5409,N,07728.0083,W,34.35,273.30,050925,,,A*46
$GPGGA,160238.000,4308.5410,N,07728.0116,W,1,05,1.63,176.3,M,-34.4,M,,*5F
$GPRMC,160238.250,A,4308.5411,N,07728.0149,W,34.71,273.83,050925,,,A*4A
$GPGGA,160238.500,4308.5413,N,07728.0183,W,1,05,1.73,176.2,M,-34.4,M,,*55
$GPRMC,160238.750,A,4308.5414,N,07728.0217,W,35.20,274.15,050925,,,A*4F
$GPGGA,160239.000,4308.5416,N,07728.0251,W,1,05,1.63,176.2,M,-34.4,M,,*59
$GPRMC,160239.250,A,4308.5417,N,07728.0285,W,35.46,274.46,050925,,,A*45
$GPGGA,160239.500,4308.5419,N,07728.0320,W,1,05,1.63,176.2,M,-34.4,M,,*54
$GPRMC,160239.750,A,4308.5419,N,07728.0356,W,35.79,274.84,050925,,,A*43
$GPGGA,160240.000,4308.5419,N,07728.0392,W,1,05,1.63,176.3,M,-34.4,M,,*57
$GPRMC,160240.250,A,4308.5419,N,07728.0428,W,37.34,274.49,050925,,,A*4C
$GPGGA,160240.500,4308.5419,N,07728.0464,W,1,05,1.63,176.3,M,-34.4,M,,*5C
$GPRMC,160240.750,A,4308.5419,N,07728.0500,W,37.37,273.26,050925,,,A*4F
$GPGGA,160241.000,4308.5420,N,07728.0536,W,1,05,1.63,176.4,M,-34.4,M,,*53
$GPRMC,160241.250,A,4308.5421,N,07728.0572,W,37.90,273.52,050925,,,A*4B
$GPGGA,160241.500,4308.5422,N,07728.0609,W,1,05,1.63,176.6,M,-34.4,M,,*59
$GPRMC,160241.750,A,4308.5423,N,07728.0646,W,38.45,273.74,050925,,,A*4B
$GPGGA,160242.000,4308.5424,N,07728.0684,W,1,05,1.63,176.7,M,-34.4,M,,*5D
$GPRMC,160242.250,A,4308.5426,N,07728.0722,W,38.73,273.30,050925,,,A*4E
$GPGGA,160242.500,4308.5426,N,07728.0761,W,1,05,1.63,176.9,M,-34.4,M,,*5E
$GPRMC,160242.750,A,4308.5427,N,07728.0800,W,40.13,272.41,050925,,,A*4B
$GPGGA,160243.000,4308.5428,N,07728.0839,W,1,05,1.63,177.1,M,-34.4,M,,*5F
$GPRMC,160243.250,A,4308.5430,N,07728.0878,W,40.55,272.43,050925,,,A*46
$GPGGA,160243.500,4308.5431,N,07728.0919,W,1,05,1.63,177.1,M,-34.4,M,,*51
$GPRMC,160243.750,A,4308.5433,N,07728.0959,W,40.96,272.79,050925,,,A*44
$GPGGA,160244.000,4308.5434,N,07728.0999,W,1,05,1.63,177.3,M,-34.4,M,,*5C
$GPRMC,160244.250,A,4308.5435,N,07728.1039,W,41.63,272.86,050925,,,A*45
$GPGGA,160244.500,4308.5435,N,07728.1079,W,1,05,1.63,177.6,M,-34.4,M,,*5B
$GPRMC,160244.750,A,4308.5436,N,07728.1120,W,42.04,272.74,050925,,,A*45
$GPGGA,160245.000,4308.5437,N,07728.1159,W,1,05,1.63,177.9,M,-34.4,M,,*51
$GPRMC,160245.250,A,4308.5438,N,07728.1199,W,42.02,272.67,050925,,,A*49
$GPGGA,160245.500,4308.5439,N,07728.1239,W,1,05,1.63,178.1,M,-34.4,M,,*58
$GPRMC,160245.750,A,4308.5440,N,07728.1279,W,41.99,272.50,050925,,,A*4B
$GPGGA,160246.000,4308.5442,N,07728.1318,W,1,05,1.63,178.4,M,-34.4,M,,*55
$GPRMC,160246.250,A,4308.5443,N,07728.1358,W,41.57,272.68,050925,,,A*45
$GPGGA,160246.500,4308.5445,N,07728.1397,W,1,05,1.73,178.7,M,-34.4,M,,*52
$GPRMC,160246.750,A,4308.5446,N,07728.1437,W,41.62,272.44,050925,,,A*43
$GPGGA,160247.000,4308.5447,N,07728.1477,W,1,05,1.63,179.0,M,-34.4,M,,*5A
$GPRMC,160247.250,A,4308.5448,N,07728.1517,W,41.64,271.90,050925,,,A*46
$GPGGA,160247.500,4308.5450,N,07728.1558,W,1,05,1.73,179.2,M,-34.4,M,,*56
$GPRMC,160247.750,A,4308.5451,N,07728.1599,W,42.25,272.50,050925,,,A*44
$GPGGA,160248.000,4308.5453,N,07728.1639,W,1,05,1.63,179.4,M,-34.4,M,,*5C
$GPRMC,160248.250,A,4308.5454,N,07728.1679,W,42.49,272.15,050925,,,A*4D
$GPGGA,160248.500,4308.5455,N,07728.1721,W,1,05,1.73,179.6,M,-34.4,M,,*54
$GPRMC,160248.750,A,4308.5457,N,07728.1761,W,42.31,272.30,050925,,,A*4B
$GPGGA,160249.000,4308.5459,N,07728.1802,W,1,05,1.63,179.8,M,-34.4,M,,*5D
$GPRMC,160249.250,A,4308.5460,N,07728.1843,W,42.36,272.53,050925,,,A*46
$GPGGA,160249.500,4308.5462,N,07728.1884,W,1,05,1.73,180.0,M,-34.4,M,,*51
$GPRMC,160249.750,A,4308.5463,N,07728.1924,W,42.28,273.15,050925,,,A*4C
$GPGGA,160250.000,4308.5465,N,07728.1965,W,1,05,1.63,180.2,M,-34.4,M,,*56
$GPRMC,160250.250,A,4308.5467,N,07728.2005,W,42.20,273.28,050925,,,A*4A
$GPGGA,160250.500,4308.5469,N,07728.2045,W,1,05,1.73,180.4,M,-34.4,M,,*50
$GPRMC,160250.750,A,4308.5470,N,07728.2085,W,42.06,272.75,050925,,,A*4C
$GPGGA,160251.000,4308.5472,N,07728.2125,W,1,05,1.63,180.6,M,-34.4,M,,*5A
$GPRMC,160251.250,A,4308.5474,N,07728.2165,W,41.43,273.11,050925,,,A*42
$GPGGA,160251.500,4308.5475,N,07728.2204,W,1,05,1.73,180.8,M,-34.4,M,,*57
$GPRMC,160251.750,A,4308.5477,N,07728.2244,W,41.19,273.23,050925,,,A*4A
$GPGGA,160252.000,4308.5479,N,07728.2283,W,1,05,1.73,180.9,M,-34.4,M,,*53
$GPRMC,160252.250,A,4308.5480,N,07728.2323,W,41.04,272.92,050925,,,A*43
$GPGGA,160252.500,4308.5481,N,07728.2362,W,1,05,1.73,181.1,M,-34.4,M,,*56
$GPRMC,160252.750,A,4308.5482,N,07728.2402,W,41.23,272.60,050925,,,A*48
$GPGGA,160253.000,4308.5484,N,07728.2442,W,1,05,1.63,181.3,M,-34.4,M,,*51
$GPRMC,160253.250,A,4308.5485,N,07728.2482,W,41.33,272.71,050925,,,A*42
$GPGGA,160253.500,4308.5486,N,07728.2522,W,1,05,1.73,181.4,M,-34.4,M,,*57
$GPRMC,160253.750,A,4308.5488,N,07728.2562,W,41.32,272.77,050925,,,A*42
$GPGGA,160254.000,4308.5489,N,07728.2603,W,1,05,1.63,181.5,M,-34.4,M,,*5A
$GPRMC,160254.250,A,4308.5491,N,07728.2643,W,41.35,272.89,050925,,,A*4E
$GPGGA,160254.500,4308.5492,N,07728.2684,W,1,05,1.73,181.5,M,-34.4,M,,*5B
$GPRMC,160254.750,A,4308.5494,N,07728.2724,W,41.78,273.24,050925,,,A*41
$GPGGA,160255.000,4308.5495,N,07728.2765,W,1,05,1.63,181.6,M,-34.4,M,,*54
$GPRMC,160255.250,A,4308.5496,N,07728.2805,W,41.58,273.29,050925,,,A*44
$GPGGA,160255.500,4308.5497,N,07728.2845,W,1,05,1.73,181.6,M,-34.4,M,,*5F
$GPRMC,160255.750,A,4308.5498,N,07728.2884,W,41.25,273.20,050925,,,A*45
$GPGGA,160256.000,4308.5499,N,07728.2924,W,1,05,1.63,181.7,M,-34.4,M,,*51
$GPRMC,160256.250,A,4308.5500,N,07728.2963,W,41.15,273.01,050925,,,A*4B
$GPGGA,160256.500,4308.5501,N,07728.3002,W,1,05,1.73,181.9,M,-34.4,M,,*57
$GPRMC,160256.750,A,4308.5503,N,07728.3042,W,41.02,273.21,050925,,,A*42
$GPGGA,160257.000,4308.5504,N,07728.3081,W,1,05,1.63,182.0,M,-34.4,M,,*56
$GPRMC,160257.250,A,4308.5505,N,07728.3120,W,41.03,273.85,050925,,,A*4A
$GPGGA,160257.500,4308.5507,N,07728.3160,W,1,05,1.73,182.1,M,-34.4,M,,*5E
$GPRMC,160257.750,A,4308.5508,N,07728.3199,W,41.38,274.62,050925,,,A*46
$GPGGA,160258.000,4308.5510,N,07728.3239,W,1,05,1.63,182.3,M,-34.4,M,,*5E
$GPRMC,160258.250,A,4308.5512,N,07728.3279,W,41.60,274.91,050925,,,A*4B
$GPGGA,160258.500,4308.5514,N,07728.3318,W,1,05,1.73,182.4,M,-34.4,M,,*5B
$GPRMC,160258.750,A,4308.5516,N,07728.3357,W,41.57,274.66,050925,,,A*4B
$GPGGA,160259.000,4308.5517,N,07728.3395,W,1,05,1.63,182.7,M,-34.4,M,,*5B
$GPRMC,160259.250,A,4308.5518,N,07728.3434,W,41.45,274.40,050925,,,A*44
