Vers 72
USE_SERIAL_FEEDBACK=true
DEVELOPMENT_MODE=false
USE_RMC_ONLY=false

$GPRMC,171910.500,A,4308.4605,N,07726.4353,W,9.73,283.88,100925,,,A*70
$GPGGA,171910.750,4308.4604,N,07726.4359,W,1,03,3.88,182.7,M,-34.4,M,,*57
$GPRMC,171911.000,A,4308.4606,N,07726.4364,W,7.72,288.69,100925,,,A*78
$GPGGA,171911.250,4308.4607,N,07726.4369,W,1,03,3.89,182.5,M,-34.4,M,,*50
$GPRMC,171911.500,A,4308.4608,N,07726.4373,W,6.28,292.60,100925,,,A*79
$GPGGA,171911.750,4308.4609,N,07726.4378,W,1,03,3.88,182.4,M,-34.4,M,,*5B
$GPRMC,171912.000,A,4308.4610,N,07726.4382,W,5.46,293.86,100925,,,A*7A
$GPGGA,171912.082,4308.4609,N,07726.4383,W,1,03,3.89,182.3,M,-34.4,M,,*52
$GPRMC,171912.500,A,4308.4608,N,07726.4389,W,4.76,287.85,100925,,,A*79
$GPGGA,171912.750,4308.4607,N,07726.4392,W,1,03,3.89,182.1,M,-34.4,M,,*56
$GPRMC,171913.000,A,4308.4607,N,07726.4395,W,3.92,288.76,100925,,,A*71
$GPGGA,171913.250,4308.4607,N,07726.4398,W,1,03,3.89,182.0,M,-34.4,M,,*59
$GPRMC,171913.500,A,4308.4607,N,07726.4400,W,3.33,290.39,100925,,,A*76
$GPGGA,171913.750,4308.4607,N,07726.4402,W,1,03,3.89,181.9,M,-34.4,M,,*52
$GPRMC,171914.000,A,4308.4608,N,07726.4403,W,2.22,298.32,100925,,,A*7A
$GPGGA,171914.250,4308.4609,N,07726.4404,W,1,03,3.89,181.7,M,-34.4,M,,*56
$GPGGA,171918.080,4308.4597,N,07726.4408,W,1,03,3.89,181.8,M,-34.4,M,,*52
$GPRMC,171918.080,A,4308.4597,N,07726.4408,W,0.25,316.95,100925,,,A*7F
$GPRMC,171918.500,A,4308.4601,N,07726.4397,W,0.12,290.13,100925,,,A*7A
$GPGGA,171918.750,4308.4603,N,07726.4393,W,1,04,2.45,179.3,M,-34.4,M,,*59
$GPRMC,171919.000,A,4308.4605,N,07726.4390,W,0.10,264.75,100925,,,A*74
$GPGGA,171919.250,4308.4608,N,07726.4386,W,1,04,2.45,177.9,M,-34.4,M,,*56
$GPGGA,171920.000,4308.4617,N,07726.4377,W,1,04,2.45,176.0,M,-34.4,M,,*53
$GPRMC,171920.000,A,4308.4617,N,07726.4377,W,0.04,196.34,100925,,,A*7A
$GPGGA,171920.250,4308.4618,N,07726.4374,W,1,04,2.45,175.5,M,-34.4,M,,*5E
$GPRMC,171920.250,A,4308.4618,N,07726.4374,W,0.14,146.37,10092
$GPGGA,171921.250,4308.4623,N,07726.4367,W,1,04,2.45,173.9,M,-34.4,M,,*5F
$GPRMC,171921.250,A,4308.4623,N,07726.4367,W,0.15,161.56,100925,,,A*76
$GPGGA,171921.500,4308.4624,N,07726.4366,W,1,04,2.45,173.6,M,-34.4,M,,*54
$GPRMC,171921.500,A,4308.4624,N,07726.4366,W,0.13,170.29,10092
$GPGGA,171923.250,4308.4637,N,07726.4357,W,1,04,2.45,171.3,M,-34.4,M,,*53
$GPRMC,171923.250,A,4308.4637,N,07726.4357,W,0.18,60.29,100925,,,A*47
$GPGGA,171923.500,4308.4640,N,07726.4357,W,1,04,2.45,171.0,M,-34.4,M,,*52
$GPRMC,171923.500,A,4308.4640,N,07726.4357,W,0.17,63.63,100925
$GPGGA,171925.000,4308.4651,N,07726.4357,W,1,04,2.45,169.2,M,-34.4,M,,*5A
$GPRMC,171925.000,A,4308.4651,N,07726.4357,W,0.15,215.33,100925,,,A*70
$GPGGA,171925.250,4308.4652,N,07726.4357,W,1,04,2.45,168.9,M,-34.4,M,,*54
$GPRMC,171925.250,A,4308.4652,N,07726.4357,W,0.25,219.92,100925,,,A*70
$GPGGA,171928.000,4308.4666,N,07726.4356,W,1,04,2.44,166.8,M,-34.4,M,,*56
$GPRMC,171928.000,A,4308.4666,N,07726.4356,W,0.12,251.14,100925,,,A*7A
$GPGGA,171928.250,4308.4667,N,07726.4355,W,1,04,2.45,166.6,M,-34.4,M,,*5C
$GPRMC,171928.250,A,4308.4667,N,07726.4355,W,0.10,243.42,100925,,,A*7D
$GPGGA,171932.500,4308.4680,N,07726.4368,W,1,04,2.44,165.1,M,-34.4,M,,*57
$GPRMC,171932.500,A,4308.4680,N,07726.4368,W,1.39,273.76,100925,,,A*7D
$GPGGA,171932.750,4308.4681,N,07726.4371,W,1,04,2.44,165.1,M,-34.4,M,,*59
$GPRMC,171932.750,A,4308.4681,N,07726.4371,W,1.50,272.65,100925,,,A*7F
$GPGGA,171933.750,4308.4683,N,07726.4386,W,1,04,2.44,164.8,M,-34.4,M,,*5A
$GPRMC,171933.750,A,4308.4683,N,07726.4386,W,2.31,269.87,100925,,,A*76
$GPGGA,171934.000,4308.4683,N,07726.4389,W,1,04,2.44,164.8,M,-34.4,M,,*50
$GPRMC,171934.000,A,4308.4683,N,07726.4389,W,2.93,268.26,100925,,,A*7E
$GPGGA,171934.250,4308.4682,N,07726.4393,W,1,04,2.44,164.7,M,-34.4,M,,*52
$GPRMC,171934.250,A,4308.4682,N,07726.4393,W,3.51,265.69,100925,,,A*7A
$GPGGA,171934.500,4308.4681,N,07726.4397,W,1,04,2.44,164.6,M,-34.4,M,,*56
$GPRMC,171934.500,A,4308.4681,N,07726.4397,W,3.54,259.74,100925,,,A*79
$GPGGA,171934.750,4308.4681,N,07726.4400,W,1,04,2.44,164.5,M,-34.4,M,,*5B
$GPRMC,171934.750,A,4308.4681,N,07726.4400,W,3.55,259.67,100925,,,A*74
$GPGGA,171935.000,4308.4682,N,07726.4404,W,1,04,2.44,164.4,M,-34.4,M,,*5E
$GPRMC,171935.000,A,4308.4682,N,07726.4404,W,3.78,264.20,100925,,,A*72
$GPGGA,171935.250,4308.4682,N,07726.4409,W,1,04,2.44,164.3,M,-34.4,M,,*53
$GPRMC,171935.250,A,4308.4682,N,07726.4409,W,3.92,263.04,100925,,,A*7D
$GPGGA,171935.500,4308.4683,N,07726.4413,W,1,04,2.53,164.2,M,-34.4,M,,*5C
$GPRMC,171935.500,A,4308.4683,N,07726.4413,W,4.18,264.67,100925,,,A*72
$GPGGA,171935.750,4308.4683,N,07726.4417,W,1,04,2.52,164.1,M,-34.4,M,,*5D
$GPRMC,171935.750,A,4308.4683,N,07726.4417,W,4.18,266.56,100925,,,A*71
$GPGGA,171936.000,4308.4683,N,07726.4422,W,1,04,2.52,164.0,M,-34.4,M,,*5B
$GPRMC,171936.000,A,4308.4683,N,07726.4422,W,4.26,266.75,100925,,,A*7A
$GPGGA,171936.250,4308.4682,N,07726.4426,W,1,04,2.52,163.9,M,-34.4,M,,*57
$GPRMC,171936.250,A,4308.4682,N,07726.4426,W,4.39,261.41,100925,,,A*76
$GPGGA,171936.500,4308.4681,N,07726.4431,W,1,04,2.52,163.8,M,-34.4,M,,*51
$GPRMC,171936.500,A,4308.4681,N,07726.4431,W,4.52,255.59,100925,,,A*72
$GPGGA,171936.750,4308.4681,N,07726.4436,W,1,04,2.44,163.8,M,-34.4,M,,*56
$GPRMC,171936.750,A,4308.4681,N,07726.4436,W,4.46,254.69,100925,,,A*75
$GPGGA,171937.000,4308.4683,N,07726.4440,W,1,04,2.52,163.7,M,-34.4,M,,*5E
$GPRMC,171937.000,A,4308.4683,N,07726.4440,W,4.34,258.66,100925,,,A*73
$GPGGA,171937.250,4308.4684,N,07726.4445,W,1,04,2.52,163.6,M,-34.4,M,,*5A
$GPRMC,171937.250,A,4308.4684,N,07726.4445,W,4.38,265.98,100925,,,A*75
$GPGGA,171937.500,4308.4685,N,07726.4450,W,1,04,2.52,163.6,M,-34.4,M,,*5D
$GPRMC,171937.500,A,4308.4685,N,07726.4450,W,4.95,273.15,100925,,,A*77
$GPGGA,171937.750,4308.4685,N,07726.4455,W,1,04,2.44,163.5,M,-34.4,M,,*5B
$GPRMC,171937.750,A,4308.4685,N,07726.4455,W,5.24,275.46,100925$GPGGA,171938.000,4308.4687,N,07726.4461,W,1,04,2.53,163.5,M,-34.4,M,,*55
$GPRMC,171938.250,A,4308.4687,N,07726.4469,W,6.66,276.17,100925,,,A*7B
$GPGGA,171938.500,4308.4687,N,07726.4477,W,1,04,2.52,163.3,M,-34.4,M,,*50
$GPRMC,171938.750,A,4308.4688,N,07726.4485,W,7.79,275.51,100925,,,A*7D
$GPGGA,171939.000,4308.4689,N,07726.4493,W,1,04,2.53,163.2,M,-34.4,M,,*50
$GPRMC,171939.250,A,4308.4689,N,07726.4502,W,9.06,276.39,100925,,,A*7D
$GPGGA,171939.500,4308.4690,N,07726.4513,W,1,04,2.52,163.1,M,-34.4,M,,*56
$GPRMC,171939.750,A,4308.4691,N,07726.4523,W,10.40,276.69,100925,,,A*4D
$GPGGA,171940.000,4308.4692,N,07726.4534,W,1,04,2.44,163.0,M,-34.4,M,,*5C
$GPRMC,171940.250,A,4308.4693,N,07726.4545,W,11.46,277.55,100925,,,A*4D
$GPGGA,171940.500,4308.4694,N,07726.4558,W,1,04,2.44,162.9,M,-34.4,M,,*5D
$GPRMC,171940.750,A,4308.4696,N,07726.4571,W,12.69,277.40,100925,,,A*40
$GPGGA,171941.000,4308.4699,N,07726.4586,W,1,04,2.44,162.7,M,-34.4,M,,*59
$GPRMC,171941.250,A,4308.4701,N,07726.4601,W,14.25,278.80,100925,,,A*42
$GPGGA,171941.500,4308.4702,N,07726.4617,W,1,04,2.44,162.7,M,-34.4,M,,*54
$GPRMC,171941.750,A,4308.4704,N,07726.4633,W,15.43,279.05,100925,,,A*4E
$GPGGA,171942.000,4308.4705,N,07726.4650,W,1,04,2.44,162.6,M,-34.4,M,,*57
$GPRMC,171942.250,A,4308.4706,N,07726.4668,W,16.86,278.48,100925,,,A*46
$GPGGA,171942.500,4308.4708,N,07726.4687,W,1,04,2.44,162.6,M,-34.4,M,,*55
$GPRMC,171942.750,A,4308.4708,N,07726.4707,W,18.30,277.66,100925,,,A*45
$GPGGA,171943.000,4308.4709,N,07726.4728,W,1,04,2.44,162.5,M,-34.4,M,,*57
$GPRMC,171943.250,A,4308.4711,N,07726.4750,W,20.04,277.55,100925,,,A*47
$GPGGA,171943.500,4308.4713,N,07726.4774,W,1,04,2.44,162.4,M,-34.4,M,,*51
$GPRMC,171943.750,A,4308.4716,N,07726.4796,W,21.68,277.90,100925,,,A*4D
$GPGGA,171944.000,4308.4716,N,07726.4822,W,1,04,2.44,162.4,M,-34.4,M,,*5A
$GPRMC,171944.250,A,4308.4717,N,07726.4847,W,23.47,276.49,100925,,,A*47
$GPGGA,171944.500,4308.4719,N,07726.4874,W,1,04,2.44,162.3,M,-34.4,M,,*54
$GPRMC,171944.750,A,4308.4719,N,07726.4901,W,25.06,275.20,100925,,,A*40
$GPGGA,171945.000,4308.4719,N,07726.4929,W,1,04,2.44,162.2,M,-34.4,M,,*58
$GPRMC,171945.250,A,4308.4721,N,07726.4957,W,26.50,274.43,100925,,,A*48
$GPGGA,171945.500,4308.4722,N,07726.4986,W,1,04,2.44,162.2,M,-34.4,M,,*50
$GPRMC,171945.750,A,4308.4725,N,07726.5015,W,27.70,274.35,100925,,,A*45
$GPGGA,171946.000,4308.4726,N,07726.5045,W,1,04,2.44,162.1,M,-34.4,M,,*56
$GPRMC,171946.250,A,4308.4726,N,07726.5074,W,28.63,272.96,100925,,,A*45
$GPGGA,171946.500,4308.4727,N,07726.5105,W,1,04,2.44,162.0,M,-34.4,M,,*56
$GPRMC,171946.750,A,4308.4726,N,07726.5136,W,29.87,271.77,100925,,,A*40
$GPGGA,171947.000,4308.4726,N,07726.5168,W,1,04,2.44,161.9,M,-34.4,M,,*52
$GPRMC,171947.250,A,4308.4726,N,07726.5199,W,30.89,271.43,100925,,,A*40
$GPGGA,171947.500,4308.4727,N,07726.5230,W,1,04,2.44,161.9,M,-34.4,M,,*58
$GPRMC,171947.750,A,4308.4728,N,07726.5261,W,31.19,271.47,100925,,,A*43
$GPGGA,171948.000,4308.4729,N,07726.5291,W,1,04,2.44,161.8,M,-34.4,M,,*56
$GPRMC,171948.250,A,4308.4729,N,07726.5321,W,30.95,271.10,100925,,,A*4A
$GPGGA,171948.500,4308.4730,N,07726.5351,W,1,04,2.44,161.8,M,-34.4,M,,*56
$GPRMC,171948.750,A,4308.4731,N,07726.5380,W,30.65,271.36,100925,,,A*46
$GPGGA,171949.000,4308.4731,N,07726.5409,W,1,04,2.44,161.7,M,-34.4,M,,*56
$GPRMC,171949.250,A,4308.4731,N,07726.5438,W,30.42,271.16,100925,,,A*41
$GPGGA,171949.500,4308.4731,N,07726.5468,W,1,04,2.44,161.7,M,-34.4,M,,*54
$GPRMC,171949.750,A,4308.4732,N,07726.5497,W,30.45,271.17,100925,,,A*44
$GPGGA,171950.000,4308.4732,N,07726.5527,W,1,04,2.43,161.6,M,-34.4,M,,*56
$GPRMC,171950.250,A,4308.4733,N,07726.5556,W,30.51,271.01,100925,,,A*46
$GPGGA,171950.500,4308.4734,N,07726.5586,W,1,04,2.43,161.5,M,-34.4,M,,*5D
$GPRMC,171950.750,A,4308.4735,N,07726.5616,W,30.62,271.59,100925,,,A*4F
$GPGGA,171951.000,4308.4736,N,07726.5646,W,1,04,2.44,161.5,M,-34.4,M,,*53
$GPRMC,171951.250,A,4308.4737,N,07726.5675,W,30.90,272.05,100925,,,A*4B
$GPGGA,171951.500,4308.4738,N,07726.5705,W,1,04,2.43,161.5,M,-34.4,M,,*59
$GPRMC,171951.750,A,4308.4740,N,07726.5736,W,31.02,272.26,100925,,,A*43
$GPGGA,171952.000,4308.4741,N,07726.5766,W,1,04,2.43,161.4,M,-34.4,M,,*55
$GPRMC,171952.250,A,4308.4743,N,07726.5796,W,31.16,272.38,100925,,,A*46
$GPGGA,171952.500,4308.4744,N,07726.5826,W,1,04,2.43,161.3,M,-34.4,M,,*59
$GPRMC,171952.750,A,4308.4745,N,07726.5856,W,31.26,272.68,100925,,,A*40
$GPGGA,171953.000,4308.4748,N,07726.5886,W,1,04,2.43,161.2,M,-34.4,M,,*5A
$GPRMC,171953.250,A,4308.4750,N,07726.5916,W,31.32,273.72,100925,,,A*4A
$GPGGA,171953.500,4308.4753,N,07726.5946,W,1,04,2.43,161.2,M,-34.4,M,,*58
$GPRMC,171953.750,A,4308.4755,N,07726.5976,W,31.33,274.60,100925,,,A*49
$GPGGA,171954.000,4308.4758,N,07726.6005,W,1,04,2.43,161.0,M,-34.4,M,,*5E
$GPRMC,171954.250,A,4308.4761,N,07726.6035,W,31.12,275.59,100925,,,A*49
$GPGGA,171954.500,4308.4765,N,07726.6065,W,1,04,2.43,160.9,M,-34.4,M,,*5B
$GPRMC,171954.750,A,4308.4767,N,07726.6096,W,31.02,275.81,100925,,,A*47
$GPGGA,171955.000,4308.4770,N,07726.6125,W,1,04,2.43,160.8,M,-34.4,M,,*5F
$GPRMC,171955.250,A,4308.4771,N,07726.6154,W,30.93,274.99,100925,,,A*4A
$GPGGA,171955.500,4308.4771,N,07726.6184,W,1,04,2.43,160.7,M,-34.4,M,,*5F
$GPRMC,171955.750,A,4308.4773,N,07726.6213,W,30.72,273.84,100925,,,A*49
$GPGGA,171956.000,4308.4773,N,07726.6243,W,1,04,2.43,160.6,M,-34.4,M,,*52
$GPRMC,171956.250,A,4308.4774,N,07726.6272,W,30.75,272.52,100925,,,A*42
$GPGGA,171956.500,4308.4774,N,07726.6301,W,1,04,2.43,160.5,M,-34.4,M,,*54
$GPRMC,171956.750,A,4308.4775,N,07726.6331,W,30.71,271.75,100925,,,A*42
$GPGGA,171957.000,4308.4774,N,07726.6360,W,1,04,2.43,160.4,M,-34.4,M,,*56
$GPRMC,171957.250,A,4308.4773,N,07726.6390,W,30.66,269.63,100925,,,A*43
$GPGGA,171957.500,4308.4773,N,07726.6419,W,1,04,2.43,160.3,M,-34.4,M,,*5A
$GPRMC,171957.750,A,4308.4774,N,07726.6450,W,30.59,268.52,100925,,,A*45
$GPGGA,171958.000,4308.4774,N,07726.6480,W,1,04,2.43,160.1,M,-34.4,M,,*55
$GPRMC,171958.250,A,4308.4773,N,07726.6510,W,30.58,266.89,100925,,,A*44
$GPGGA,171958.500,4308.4771,N,07726.6540,W,1,04,2.43,160.0,M,-34.4,M,,*59
$GPRMC,171958.750,A,4308.4771,N,07726.6571,W,30.84,265.77,100925,,,A*47
$GPGGA,171959.000,4308.4770,N,07726.6601,W,1,04,2.43,159.8,M,-34.4,M,,*58
$GPRMC,171959.250,A,4308.4771,N,07726.6633,W,31.18,264.42,100925,,,A*45
$GPGGA,171959.500,4308.4768,N,07726.6663,W,1,04,2.43,159.6,M,-34.4,M,,*5E
$GPRMC,171959.750,A,4308.4766,N,07726.6693,W,31.51,264.09,100925,,,A*4E
$GPGGA,172000.000,4308.4765,N,07726.6724,W,1,04,2.43,159.5,M,-34.4,M,,*51
$GPRMC,172000.250,A,4308.4763,N,07726.6755,W,32.04,264.96,100925,,,A*46
$GPGGA,172000.500,4308.4761,N,07726.6785,W,1,04,2.43,159.3,M,-34.4,M,,*5D
$GPRMC,172000.750,A,4308.4759,N,07726.6816,W,32.39,265.85,100925,,,A*4F
$GPGGA,172001.000,4308.4758,N,07726.6847,W,1,04,2.43,159.2,M,-34.4,M,,*53
$GPRMC,172001.250,A,4308.4757,N,07726.6878,W,32.61,266.73,100925,,,A*4A
$GPGGA,172001.500,4308.4754,N,07726.6908,W,1,04,2.43,159.1,M,-34.4,M,,*53
$GPRMC,172001.750,A,4308.4752,N,07726.6938,W,32.72,266.85,100925,,,A*44
$GPGGA,172002.000,4308.4751,N,07726.6969,W,1,04,2.43,159.0,M,-34.4,M,,*56
$GPRMC,172002.250,A,4308.4750,N,07726.7000,W,33.06,268.11,100925,,,A*42
$GPGGA,172002.500,4308.4748,N,07726.7031,W,1,04,2.43,158.9,M,-34.4,M,,*56
$GPRMC,172002.750,A,4308.4748,N,07726.7063,W,33.46,268.55,100925,,,A*4F
$GPGGA,172003.000,4308.4747,N,07726.7095,W,1,04,2.43,158.8,M,-34.4,M,,*52
$GPRMC,172003.250,A,4308.4746,N,07726.7127,W,33.97,269.04,100925,,,A*4D
$GPGGA,172003.500,4308.4746,N,07726.7159,W,1,04,2.43,158.8,M,-34.4,M,,*57
$GPRMC,172003.750,A,4308.4745,N,07726.7192,W,34.16,269.22,100925,,,A*4F
$GPGGA,172004.000,4308.4744,N,07726.7224,W,1,04,2.43,158.7,M,-34.4,M,,*51
$GPRMC,172004.250,A,4308.4743,N,07726.7257,W,34.51,269.68,100925,,,A*4C
$GPGGA,172004.500,4308.4742,N,07726.7289,W,1,04,2.43,158.7,M,-34.4,M,,*55
$GPRMC,172004.750,A,4308.4742,N,07726.7323,W,34.82,269.63,100925,,,A*4F
$GPGGA,172005.000,4308.4741,N,07726.7356,W,1,04,2.43,158.7,M,-34.4,M,,*51
$GPRMC,172005.250,A,4308.4739,N,07726.7389,W,35.07,268.80,100925,,,A*47
$GPGGA,172005.500,4308.4739,N,07726.7423,W,1,04,2.43,158.6,M,-34.4,M,,*5F
$GPRMC,172005.750,A,4308.4739,N,07726.7457,W,35.61,268.76,100925,,,A*4F
$GPGGA,172006.000,4308.4738,N,07726.7492,W,1,04,2.43,158.6,M,-34.4,M,,*52
$GPRMC,172006.250,A,4308.4738,N,07726.7526,W,36.02,268.90,100925,,,A*41
$GPGGA,172006.500,4308.4738,N,07726.7561,W,1,04,2.43,158.6,M,-34.4,M,,*5A
$GPRMC,172006.750,A,4308.4737,N,07726.7595,W,36.14,268.13,100925,,,A*4F
$GPGGA,172007.000,4308.4735,N,07726.7629,W,1,04,2.43,158.6,M,-34.4,M,,*5C
$GPRMC,172007.250,A,4308.4734,N,07726.7665,W,36.36,266.51,100925,,,A*4C
$GPGGA,172007.500,4308.4732,N,07726.7700,W,1,04,2.43,158.5,M,-34.4,M,,*57
$GPRMC,172007.750,A,4308.4732,N,07726.7736,W,36.39,265.66,100925,,,A*40
$GPGGA,172008.000,4308.4730,N,07726.7771,W,1,04,2.43,158.5,M,-34.4,M,,*59
$GPRMC,172008.250,A,4308.4731,N,07726.7807,W,36.41,264.85,100925,,,A*47
$GPGGA,172008.500,4308.4729,N,07726.7841,W,1,04,2.43,158.4,M,-34.4,M,,*59
$GPRMC,172008.750,A,4308.4726,N,07726.7874,W,35.19,264.28,100925,,,A*49
$GPGGA,172009.000,4308.4722,N,07726.7907,W,1,04,2.43,158.3,M,-34.4,M,,*52
$GPRMC,172009.250,A,4308.4719,N,07726.7940,W,34.72,263.06,100925,,,A*40
$GPGGA,172009.500,4308.4716,N,07726.7972,W,1,04,2.43,158.3,M,-34.4,M,,*52
$GPRMC,172009.750,A,4308.4712,N,07726.8005,W,34.72,263.18,100925,,,A*46
$GPGGA,172010.000,4308.4709,N,07726.8037,W,1,04,2.43,158.3,M,-34.4,M,,*56
$GPRMC,172010.250,A,4308.4707,N,07726.8070,W,34.52,263.78,100925,,,A*49
$GPGGA,172010.500,4308.4705,N,07726.8102,W,1,04,2.43,158.2,M,-34.4,M,,*59
$GPRMC,172010.750,A,4308.4703,N,07726.8136,W,34.85,264.40,100925,,,A*4D
$GPGGA,172011.000,4308.4700,N,07726.8169,W,1,04,2.43,158.2,M,-34.4,M,,*55
$GPRMC,172011.250,A,4308.4698,N,07726.8202,W,35.49,264.62,100925,,,A*4F
$GPGGA,172011.500,4308.4696,N,07726.8236,W,1,04,2.43,158.1,M,-34.4,M,,*54
$GPRMC,172011.750,A,4308.4694,N,07726.8270,W,35.95,264.72,100925,,,A*43
$GPGGA,172012.000,4308.4691,N,07726.8303,W,1,04,2.43,158.1,M,-34.4,M,,*52
$GPRMC,172012.250,A,4308.4688,N,07726.8337,W,36.42,264.81,100925,,,A*4F
$GPGGA,172012.500,4308.4685,N,07726.8371,W,1,04,2.43,158.0,M,-34.4,M,,*56
$GPRMC,172012.750,A,4308.4683,N,07726.8405,W,36.86,265.19,100925,,,A*4F
$GPGGA,172013.000,4308.4680,N,07726.8440,W,1,04,2.42,158.0,M,-34.4,M,,*53
$GPRMC,172013.250,A,4308.4677,N,07726.8474,W,37.30,265.55,100925,,,A*42
$GPGGA,172013.500,4308.4675,N,07726.8509,W,1,04,2.42,158.0,M,-34.4,M,,*50
$GPRMC,172013.750,A,4308.4672,N,07726.8544,W,37.54,265.67,100925,,,A*43
$GPGGA,172014.000,4308.4668,N,07726.8579,W,1,04,2.42,158.1,M,-34.4,M,,*58
$GPRMC,172014.250,A,4308.4666,N,07726.8614,W,37.67,265.56,100925,,,A*40
$GPGGA,172014.500,4308.4663,N,07726.8650,W,1,04,2.42,158.1,M,-34.4,M,,*5E
$GPRMC,172014.750,A,4308.4661,N,07726.8685,W,37.63,265.45,100925,,,A*4C
$GPGGA,172015.000,4308.4659,N,07726.8721,W,1,04,2.42,158.1,M,-34.4,M,,*54
$GPRMC,172015.250,A,4308.4656,N,07726.8756,W,37.32,265.11,100925,,,A*46
$GPGGA,172015.500,4308.4653,N,07726.8791,W,1,04,2.42,158.2,M,-34.4,M,,*53
$GPRMC,172015.750,A,4308.4651,N,07726.8827,W,36.92,264.82,100925,,,A*4D
$GPGGA,172016.000,4308.4649,N,07726.8861,W,1,04,2.42,158.2,M,-34.4,M,,*5E
$GPRMC,172016.250,A,4308.4647,N,07726.8896,W,36.42,264.89,100925,,,A*40
$GPGGA,172016.500,4308.4646,N,07726.8931,W,1,04,2.42,158.2,M,-34.4,M,,*50
$GPRMC,172016.750,A,4308.4644,N,07726.8966,W,36.20,265.07,100925,,,A*4B
$GPGGA,172017.000,4308.4643,N,07726.9001,W,1,04,2.42,158.3,M,-34.4,M,,*5B
$GPRMC,172017.250,A,4308.4641,N,07726.9035,W,35.97,264.95,100925,,,A*41
$GPGGA,172017.500,4308.4639,N,07726.9069,W,1,04,2.42,158.2,M,-34.4,M,,*5C
$GPRMC,172017.750,A,4308.4637,N,07726.9104,W,35.85,264.55,100925,,,A*49
$GPGGA,172018.000,4308.4635,N,07726.9138,W,1,04,2.42,158.2,M,-34.4,M,,*5F
$GPRMC,172018.250,A,4308.4632,N,07726.9172,W,35.58,263.86,100925,,,A*4E
$GPGGA,172018.500,4308.4630,N,07726.9206,W,1,04,2.42,158.3,M,-34.4,M,,*50
$GPRMC,172018.750,A,4308.4628,N,07726.9240,W,35.55,264.04,100925,,,A*42
$GPGGA,172019.000,4308.4626,N,07726.9274,W,1,04,2.42,158.2,M,-34.4,M,,*57
$GPRMC,172019.250,A,4308.4625,N,07726.9309,W,35.48,264.26,100925,,,A*4B
$GPGGA,172019.500,4308.4624,N,07726.9343,W,1,04,2.42,158.2,M,-34.4,M,,*55
$GPRMC,172019.750,A,4308.4622,N,07726.9377,W,35.42,264.40,100925,,,A*4A
$GPGGA,172020.000,4308.4620,N,07726.9412,W,1,04,2.42,158.2,M,-34.4,M,,*5D
$GPRMC,172020.250,A,4308.4618,N,07726.9446,W,35.83,263.67,100925,,,A*46
$GPGGA,172020.500,4308.4616,N,07726.9480,W,1,04,2.42,158.1,M,-34.4,M,,*55
$GPRMC,172020.750,A,4308.4614,N,07726.9515,W,36.02,263.92,100925,,,A*48
$GPGGA,172021.000,4308.4611,N,07726.9549,W,1,04,2.42,158.0,M,-34.4,M,,*53
$GPRMC,172021.250,A,4308.4609,N,07726.9584,W,36.22,263.57,100925,,,A*43
$GPGGA,172021.500,4308.4606,N,07726.9618,W,1,04,2.42,157.8,M,-34.4,M,,*50
$GPRMC,172021.750,A,4308.4603,N,07726.9653,W,36.53,263.47,100925,,,A*42
$GPGGA,172022.000,4308.4601,N,07726.9688,W,1,04,2.42,157.7,M,-34.4,M,,*57
$GPRMC,172022.250,A,4308.4598,N,07726.9722,W,36.66,264.18,100925,,,A*49
$GPGGA,172022.500,4308.4596,N,07726.9757,W,1,04,2.42,157.7,M,-34.4,M,,*5C
$GPRMC,172022.750,A,4308.4593,N,07726.9791,W,36.74,264.79,100925,,,A*4B
$GPGGA,172023.000,4308.4592,N,07726.9826,W,1,04,2.42,157.7,M,-34.4,M,,*55
$GPRMC,172023.250,A,4308.4590,N,07726.9861,W,36.47,265.60,100925,,,A*45
$GPGGA,172023.500,4308.4588,N,07726.9895,W,1,04,2.42,157.6,M,-34.4,M,,*52
$GPRMC,172023.750,A,4308.4586,N,07726.9929,W,36.49,265.33,100925,,,A*42
$GPGGA,172024.000,4308.4584,N,07726.9964,W,1,04,2.42,157.6,M,-34.4,M,,*53
$GPRMC,172024.250,A,4308.4583,N,07726.9999,W,36.61,265.61,100925,,,A*43
$GPGGA,172024.500,4308.4582,N,07727.0033,W,1,04,2.42,157.6,M,-34.4,M,,*53
$GPRMC,172024.750,A,4308.4581,N,07727.0068,W,36.75,266.38,100925,,,A*41
$GPGGA,172025.000,4308.4580,N,07727.0103,W,1,04,2.42,157.7,M,-34.4,M,,*56
$GPRMC,172025.250,A,4308.4579,N,07727.0138,W,36.77,266.35,100925,,,A*49
$GPGGA,172025.500,4308.4577,N,07727.0173,W,1,04,2.42,157.7,M,-34.4,M,,*5C
$GPRMC,172025.750,A,4308.4576,N,07727.0208,W,37.06,266.21,100925,,,A*41
$GPGGA,172026.000,4308.4575,N,07727.0244,W,1,04,2.42,157.7,M,-34.4,M,,*5F
$GPRMC,172026.250,A,4308.4574,N,07727.0279,W,37.50,266.35,100925,,,A*45
$GPGGA,172026.500,4308.4572,N,07727.0315,W,1,04,2.42,157.8,M,-34.4,M,,*57
$GPRMC,172026.750,A,4308.4571,N,07727.0350,W,37.41,266.73,100925,,,A*4D
$GPGGA,172027.000,4308.4570,N,07727.0385,W,1,04,2.42,157.8,M,-34.4,M,,*58
$GPRMC,172027.250,A,4308.4570,N,07727.0421,W,37.19,267.88,100925,,,A*41
$GPGGA,172027.500,4308.4570,N,07727.0456,W,1,04,2.42,157.8,M,-34.4,M,,*54
$GPRMC,172027.750,A,4308.4570,N,07727.0492,W,37.17,268.48,100925,,,A*41
$GPGGA,172028.000,4308.4570,N,07727.0527,W,1,04,2.42,157.9,M,-34.4,M,,*58
$GPRMC,172028.250,A,4308.4570,N,07727.0562,W,37.07,268.95,100925,,,A*44
$GPGGA,172028.500,4308.4570,N,07727.0597,W,1,04,2.42,157.9,M,-34.4,M,,*56
$GPRMC,172028.750,A,4308.4571,N,07727.0632,W,37.07,269.85,100925,,,A*46
$GPGGA,172029.000,4308.4572,N,07727.0667,W,1,04,2.42,157.9,M,-34.4,M,,*5C
$GPRMC,172029.250,A,4308.4573,N,07727.0703,W,37.03,270.74,100925,,,A*41
$GPGGA,172029.500,4308.4574,N,07727.0738,W,1,04,2.42,158.0,M,-34.4,M,,*52
$GPRMC,172029.750,A,4308.4575,N,07727.0772,W,36.71,271.30,100925,,,A*41
$GPGGA,172030.000,4308.4576,N,07727.0806,W,1,04,2.42,158.0,M,-34.4,M,,*5F
$GPRMC,172030.250,A,4308.4577,N,07727.0840,W,36.29,272.28,100925,,,A*47
$GPGGA,172030.500,4308.4579,N,07727.0874,W,1,04,2.42,158.1,M,-34.4,M,,*51
$GPRMC,172030.750,A,4308.4580,N,07727.0908,W,35.88,272.73,100925,,,A*41
$GPGGA,172031.000,4308.4582,N,07727.0942,W,1,04,2.42,158.1,M,-34.4,M,,*55
$GPRMC,172031.250,A,4308.4583,N,07727.0975,W,35.54,273.22,100925,,,A*48
$GPGGA,172031.500,4308.4584,N,07727.1008,W,1,04,2.42,158.1,M,-34.4,M,,*50
$GPRMC,172031.750,A,4308.4586,N,07727.1041,W,35.30,273.69,100925,,,A*4A
$GPGGA,172032.000,4308.4588,N,07727.1074,W,1,04,2.42,158.2,M,-34.4,M,,*52
$GPRMC,172032.250,A,4308.4590,N,07727.1106,W,35.06,275.36,100925,,,A*40
$GPGGA,172032.500,4308.4593,N,07727.1138,W,1,04,2.42,158.2,M,-34.4,M,,*54
$GPRMC,172032.750,A,4308.4595,N,07727.1170,W,34.72,276.96,100925,,,A*4A
$GPGGA,172033.000,4308.4599,N,07727.1203,W,1,04,2.42,158.3,M,-34.4,M,,*50
$GPRMC,172033.250,A,4308.4603,N,07727.1235,W,34.47,278.47,100925,,,A*44
$GPGGA,172033.500,4308.4606,N,07727.1267,W,1,04,2.42,158.3,M,-34.4,M,,*52
$GPRMC,172033.750,A,4308.4610,N,07727.1299,W,34.41,279.17,100925,,,A*47
$GPGGA,172034.000,4308.4613,N,07727.1331,W,1,04,2.42,158.3,M,-34.4,M,,*56
$GPRMC,172034.250,A,4308.4617,N,07727.1363,W,34.24,279.56,100925,,,A*40
$GPGGA,172034.500,4308.4621,N,07727.1395,W,1,04,2.42,158.4,M,-34.4,M,,*5B
$GPRMC,172034.750,A,4308.4625,N,07727.1427,W,33.95,279.62,100925,,,A*49
$GPGGA,172035.000,4308.4629,N,07727.1459,W,1,04,2.42,158.4,M,-34.4,M,,*50
$GPRMC,172035.250,A,4308.4633,N,07727.1491,W,34.01,280.19,100925,,,A*47
$GPGGA,172035.500,4308.4637,N,07727.1522,W,1,04,2.42,158.5,M,-34.4,M,,*56
$GPRMC,172035.750,A,4308.4641,N,07727.1553,W,34.07,280.75,100925,,,A*44
$GPGGA,172036.000,4308.4646,N,07727.1584,W,1,04,2.42,158.5,M,-34.4,M,,*5A
$GPRMC,172036.250,A,4308.4649,N,07727.1614,W,33.61,281.30,100925,,,A*4D
$GPGGA,172036.500,4308.4652,N,07727.1645,W,1,04,2.41,158.6,M,-34.4,M,,*54
$GPRMC,172036.750,A,4308.4655,N,07727.1675,W,33.62,280.26,100925,,,A*47
$GPGGA,172037.000,4308.4658,N,07727.1705,W,1,04,2.41,158.6,M,-34.4,M,,*5F
$GPRMC,172037.250,A,4308.4661,N,07727.1735,W,33.37,280.22,100925,,,A*45
$GPGGA,172037.500,4308.4666,N,07727.1765,W,1,04,2.42,158.7,M,-34.4,M,,*53
$GPRMC,172037.750,A,4308.4670,N,07727.1795,W,33.20,281.02,100925,,,A*4F
$GPGGA,172038.000,4308.4674,N,07727.1825,W,1,04,2.41,158.8,M,-34.4,M,,*5D
$GPRMC,172038.250,A,4308.4679,N,07727.1854,W,33.01,282.06,100925,,,A*4A
$GPGGA,172038.500,4308.4683,N,07727.1884,W,1,04,2.41,158.9,M,-34.4,M,,*5A
$GPRMC,172038.750,A,4308.4687,N,07727.1913,W,32.05,282.38,100925,,,A*44
$GPGGA,172039.000,4308.4691,N,07727.1942,W,1,04,2.41,158.9,M,-34.4,M,,*56
$GPRMC,172039.250,A,4308.4695,N,07727.1971,W,31.81,282.60,100925,,,A*45
$GPGGA,172039.500,4308.4699,N,07727.2000,W,1,04,2.41,159.0,M,-34.4,M,,*5F
$GPRMC,172039.750,A,4308.4702,N,07727.2028,W,31.29,282.22,100925,,,A*4D
$GPGGA,172040.000,4308.4706,N,07727.2056,W,1,04,2.41,159.1,M,-34.4,M,,*51
$GPRMC,172040.250,A,4308.4709,N,07727.2084,W,30.98,282.34,100925,,,A*47
$GPGGA,172040.500,4308.4712,N,07727.2112,W,1,04,2.41,159.2,M,-34.4,M,,*53
$GPRMC,172040.750,A,4308.4716,N,07727.2140,W,30.81,282.03,100925,,,A*49
$GPGGA,172041.000,4308.4719,N,07727.2169,W,1,04,2.41,159.3,M,-34.4,M,,*51
$GPRMC,172041.250,A,4308.4723,N,07727.2198,W,31.33,282.33,100925,,,A*45
$GPGGA,172041.500,4308.4726,N,07727.2226,W,1,04,2.41,159.4,M,-34.4,M,,*57
$GPRMC,172041.750,A,4308.4730,N,07727.2255,W,31.39,282.58,100925,,,A*47
$GPGGA,172042.000,4308.4734,N,07727.2284,W,1,04,2.41,159.6,M,-34.4,M,,*58
$GPRMC,172042.250,A,4308.4737,N,07727.2311,W,31.14,283.37,100925,,,A*40
$GPGGA,172042.500,4308.4741,N,07727.2338,W,1,04,2.41,159.7,M,-34.4,M,,*58
$GPRMC,172042.750,A,4308.4744,N,07727.2366,W,31.03,283.84,100925,,,A*4F
$GPGGA,172043.000,4308.4747,N,07727.2393,W,1,04,2.41,159.9,M,-34.4,M,,*55
$GPRMC,172043.250,A,4308.4751,N,07727.2421,W,31.03,284.14,100925,,,A*45
$GPGGA,172043.500,4308.4754,N,07727.2448,W,1,04,2.41,160.0,M,-34.4,M,,*50
$GPRMC,172043.750,A,4308.4758,N,07727.2476,W,31.26,284.78,100925,,,A*46
$GPGGA,172044.000,4308.4762,N,07727.2504,W,1,04,2.41,160.2,M,-34.4,M,,*5C
$GPRMC,172044.250,A,4308.4765,N,07727.2531,W,31.89,284.79,100925,,,A*4C
$GPGGA,172044.500,4308.4768,N,07727.2559,W,1,04,2.41,160.4,M,-34.4,M,,*5D
$GPRMC,172044.750,A,4308.4771,N,07727.2586,W,31.89,284.40,100925,,,A*4A
$GPGGA,172045.000,4308.4775,N,07727.2614,W,1,04,2.41,160.6,M,-34.4,M,,*5D
$GPRMC,172045.250,A,4308.4779,N,07727.2642,W,31.95,284.93,100925,,,A*4E
$GPGGA,172045.500,4308.4782,N,07727.2670,W,1,04,2.41,160.8,M,-34.4,M,,*5C
$GPRMC,172045.750,A,4308.4785,N,07727.2698,W,32.00,284.96,100925,,,A*45
$GPGGA,172046.000,4308.4791,N,07727.2727,W,1,04,2.41,160.9,M,-34.4,M,,*5A
$GPRMC,172046.250,A,4308.4794,N,07727.2755,W,30.20,279.81,100925,,,A*47
$GPGGA,172046.500,4308.4796,N,07727.2783,W,1,04,2.41,160.6,M,-34.4,M,,*59
$GPRMC,172046.750,A,4308.4799,N,07727.2811,W,30.14,278.94,100925,,,A*42
$GPGGA,172047.000,4308.4802,N,07727.2839,W,1,04,2.41,160.4,M,-34.4,M,,*53
$GPRMC,172047.250,A,4308.4804,N,07727.2868,W,30.22,278.15,100925,,,A*4F
$GPGGA,172047.500,4308.4806,N,07727.2896,W,1,04,2.41,160.2,M,-34.4,M,,*51
$GPRMC,172047.750,A,4308.4808,N,07727.2923,W,29.58,276.79,100925,,,A*49
$GPGGA,172048.000,4308.4810,N,07727.2951,W,1,04,2.41,160.0,M,-34.4,M,,*54
$GPRMC,172048.250,A,4308.4811,N,07727.2979,W,28.99,275.29,100925,,,A*4E
$GPGGA,172048.500,4308.4813,N,07727.3006,W,1,04,2.41,159.8,M,-34.4,M,,*5A
$GPRMC,172048.750,A,4308.4814,N,07727.3033,W,28.95,275.08,100925,,,A*47
$GPGGA,172049.000,4308.4816,N,07727.3060,W,1,04,2.41,159.5,M,-34.4,M,,*56
$GPRMC,172049.250,A,4308.4818,N,07727.3087,W,29.20,275.55,100925,,,A*47
$GPGGA,172049.500,4308.4820,N,07727.3115,W,1,04,2.41,159.2,M,-34.4,M,,*52
$GPRMC,172049.750,A,4308.4822,N,07727.3142,W,29.28,275.68,100925,,,A*45
$GPGGA,172050.000,4308.4825,N,07727.3169,W,1,04,2.41,158.9,M,-34.4,M,,*5B
$GPRMC,172050.250,A,4308.4828,N,07727.3197,W,29.53,276.30,100925,,,A*48
$GPGGA,172050.500,4308.4831,N,07727.3224,W,1,04,2.41,158.6,M,-34.4,M,,*5E
$GPRMC,172050.750,A,4308.4833,N,07727.3251,W,29.75,277.19,100925,,,A*40
$GPGGA,172051.000,4308.4835,N,07727.3278,W,1,04,2.41,158.4,M,-34.4,M,,*55
$GPRMC,172051.250,A,4308.4838,N,07727.3305,W,29.65,277.81,100925,,,A*4F
$GPGGA,172051.500,4308.4841,N,07727.3332,W,1,04,2.41,158.2,M,-34.4,M,,*5A
$GPRMC,172051.750,A,4308.4843,N,07727.3359,W,29.41,277.89,100925,,,A*41
$GPGGA,172052.000,4308.4846,N,07727.3386,W,1,04,2.41,158.0,M,-34.4,M,,*56
$GPRMC,172052.250,A,4308.4848,N,07727.3414,W,29.31,277.95,100925,,,A*48
$GPGGA,172052.500,4308.4852,N,07727.3441,W,1,04,2.41,157.8,M,-34.4,M,,*5D
$GPRMC,172052.750,A,4308.4855,N,07727.3469,W,29.73,278.65,100925,,,A*4D
$GPGGA,172053.000,4308.4858,N,07727.3496,W,1,04,2.41,157.6,M,-34.4,M,,*57
$GPRMC,172053.250,A,4308.4861,N,07727.3523,W,29.96,279.84,100925,,,A*44
$GPGGA,172053.500,4308.4865,N,07727.3551,W,1,04,2.41,157.5,M,-34.4,M,,*55
$GPRMC,172053.750,A,4308.4868,N,07727.3578,W,29.75,280.05,100925,,,A*44
$GPGGA,172054.000,4308.4871,N,07727.3605,W,1,04,2.41,157.4,M,-34.4,M,,*51
$GPRMC,172054.250,A,4308.4874,N,07727.3632,W,29.70,281.01,100925,,,A*46
$GPGGA,172054.500,4308.4878,N,07727.3659,W,1,04,2.41,157.2,M,-34.4,M,,*52
$GPRMC,172054.750,A,4308.4881,N,07727.3686,W,29.96,282.13,100925,,,A*4E
$GPGGA,172055.000,4308.4884,N,07727.3712,W,1,04,2.41,157.0,M,-34.4,M,,*59
$GPRMC,172055.250,A,4308.4887,N,07727.3739,W,30.16,283.21,100925,,,A*49
$GPGGA,172055.500,4308.4890,N,07727.3765,W,1,04,2.41,156.9,M,-34.4,M,,*51
$GPRMC,172055.750,A,4308.4894,N,07727.3792,W,29.95,282.82,100925,,,A*44
$GPGGA,172056.000,4308.4896,N,07727.3819,W,1,04,2.41,156.9,M,-34.4,M,,*55
$GPRMC,172056.250,A,4308.4897,N,07727.3845,W,29.91,282.16,100925,,,A*4D
$GPGGA,172056.500,4308.4898,N,07727.3870,W,1,04,2.41,156.9,M,-34.4,M,,*51
$GPRMC,172056.750,A,4308.4900,N,07727.3895,W,29.66,282.03,100925,,,A*46
$GPGGA,172057.000,4308.4902,N,07727.3921,W,1,04,2.41,156.8,M,-34.4,M,,*53
$GPRMC,172057.250,A,4308.4904,N,07727.3946,W,29.69,282.92,100925,,,A*4E
$GPGGA,172057.500,4308.4907,N,07727.3972,W,1,04,2.41,156.8,M,-34.4,M,,*55
$GPRMC,172057.750,A,4308.4911,N,07727.3998,W,29.70,284.11,100925,,,A*49
$GPGGA,172058.000,4308.4913,N,07727.4024,W,1,04,2.41,156.9,M,-34.4,M,,*56
$GPRMC,172058.250,A,4308.4915,N,07727.4049,W,29.66,284.01,100925,,,A*43
$GPGGA,172058.500,4308.4918,N,07727.4074,W,1,04,2.40,157.0,M,-34.4,M,,*54
$GPRMC,172058.750,A,4308.4921,N,07727.4099,W,29.62,284.68,100925,,,A*47
$GPGGA,172059.000,4308.4925,N,07727.4125,W,1,04,2.41,157.1,M,-34.4,M,,*5B
$GPRMC,172059.250,A,4308.4928,N,07727.4151,W,29.58,284.90,100925,,,A*41
$GPGGA,172059.500,4308.4932,N,07727.4176,W,1,04,2.40,157.1,M,-34.4,M,,*5F
$GPRMC,172059.750,A,4308.4935,N,07727.4202,W,28.96,284.61,100925,,,A*40
$GPGGA,172100.000,4308.4938,N,07727.4227,W,1,04,2.41,157.2,M,-34.4,M,,*58
$GPRMC,172100.250,A,4308.4941,N,07727.4252,W,28.89,283.58,100925,,,A*4D
$GPGGA,172100.500,4308.4944,N,07727.4277,W,1,04,2.40,157.4,M,-34.4,M,,*54
$GPRMC,172100.750,A,4308.4948,N,07727.4302,W,28.06,282.93,100925,,,A*44
$GPGGA,172101.000,4308.4951,N,07727.4327,W,1,04,2.40,157.5,M,-34.4,M,,*51
$GPRMC,172101.250,A,4308.4955,N,07727.4353,W,28.35,283.22,100925,,,A*43
$GPGGA,172101.500,4308.4959,N,07727.4379,W,1,04,2.40,157.6,M,-34.4,M,,*54
$GPRMC,172101.750,A,4308.4963,N,07727.4404,W,28.44,283.68,100925,,,A*4E
$GPGGA,172102.000,4308.4967,N,07727.4430,W,1,04,2.40,157.8,M,-34.4,M,,*5B
$GPRMC,172102.250,A,4308.4970,N,07727.4455,W,28.49,284.60,100925,,,A*4C
$GPGGA,172102.500,4308.4973,N,07727.4480,W,1,04,2.40,157.9,M,-34.4,M,,*51
$GPRMC,172102.750,A,4308.4977,N,07727.4505,W,28.30,284.56,100925,,,A*41
$GPGGA,172103.000,4308.4980,N,07727.4530,W,1,04,2.41,158.1,M,-34.4,M,,*55
$GPRMC,172103.250,A,4308.4983,N,07727.4555,W,28.19,284.61,100925,,,A*44
$GPGGA,172103.500,4308.4986,N,07727.4579,W,1,04,2.40,158.4,M,-34.4,M,,*5F
$GPRMC,172103.750,A,4308.4990,N,07727.4604,W,28.05,284.20,100925,,,A*4C
$GPGGA,172104.000,4308.4993,N,07727.4630,W,1,04,2.40,158.6,M,-34.4,M,,*55
$GPRMC,172104.250,A,4308.4998,N,07727.4655,W,25.90,278.06,100925,,,A*44
$GPGGA,172104.500,4308.5001,N,07727.4679,W,1,04,2.40,158.7,M,-34.4,M,,*5F
$GPRMC,172104.750,A,4308.5004,N,07727.4703,W,25.94,279.07,100925,,,A*4A
$GPGGA,172105.000,4308.5007,N,07727.4726,W,1,04,2.40,158.7,M,-34.4,M,,*56
$GPRMC,172105.250,A,4308.5010,N,07727.4750,W,25.89,279.06,100925,,,A*40
$GPGGA,172105.500,4308.5014,N,07727.4773,W,1,04,2.40,158.6,M,-34.4,M,,*50
$GPRMC,172105.750,A,4308.5017,N,07727.4796,W,25.67,278.35,100925,,,A*49
$GPGGA,172106.000,4308.5019,N,07727.4820,W,1,04,2.40,158.6,M,-34.4,M,,*52
$GPRMC,172106.250,A,4308.5022,N,07727.4844,W,25.39,276.58,100925,,,A*47
$GPGGA,172106.500,4308.5024,N,07727.4869,W,1,04,2.40,158.4,M,-34.4,M,,*56
$GPRMC,172106.750,A,4308.5028,N,07727.4895,W,25.87,276.85,100925,,,A*41
$GPGGA,172107.000,4308.5031,N,07727.4921,W,1,04,2.40,158.2,M,-34.4,M,,*5D
$GPRMC,172107.250,A,4308.5035,N,07727.4948,W,26.28,277.49,100925,,,A*4F
$GPGGA,172107.500,4308.5038,N,07727.4974,W,1,04,2.40,158.0,M,-34.4,M,,*53
$GPRMC,172107.750,A,4308.5040,N,07727.4999,W,26.62,278.61,100925,,,A*4F
$GPGGA,172108.000,4308.5043,N,07727.5025,W,1,04,2.40,157.8,M,-34.4,M,,*5E
$GPRMC,172108.250,A,4308.5045,N,07727.5050,W,26.80,280.23,100925,,,A*40
$GPGGA,172108.500,4308.5048,N,07727.5077,W,1,04,2.40,157.6,M,-34.4,M,,*59
$GPRMC,172108.750,A,4308.5051,N,07727.5103,W,28.24,280.93,100925,,,A*4C
$GPGGA,172109.000,4308.5054,N,07727.5129,W,1,04,2.40,157.5,M,-34.4,M,,*59
$GPRMC,172109.250,A,4308.5059,N,07727.5156,W,29.05,282.68,100925,,,A*44
$GPGGA,172109.500,4308.5062,N,07727.5183,W,1,04,2.40,157.4,M,-34.4,M,,*58
$GPRMC,172109.750,A,4308.5066,N,07727.5210,W,29.72,283.38,100925,,,A*48
$GPGGA,172110.000,4308.5070,N,07727.5238,W,1,04,2.40,157.3,M,-34.4,M,,*52
$GPRMC,172110.250,A,4308.5075,N,07727.5265,W,30.90,285.39,100925,,,A*46
$GPGGA,172110.500,4308.5079,N,07727.5293,W,1,04,2.40,157.2,M,-34.4,M,,*5E
$GPRMC,172110.750,A,4308.5083,N,07727.5321,W,31.81,285.64,100925,,,A*42
$GPGGA,172111.000,4308.5087,N,07727.5349,W,1,04,2.40,157.2,M,-34.4,M,,*5D
$GPRMC,172111.250,A,4308.5091,N,07727.5377,W,32.24,286.28,100925,,,A*41
$GPGGA,172111.500,4308.5092,N,07727.5403,W,1,04,2.40,157.1,M,-34.4,M,,*56
$GPRMC,172111.750,A,4308.5097,N,07727.5432,W,32.46,286.31,100925,,,A*48
$GPGGA,172112.000,4308.5101,N,07727.5460,W,1,04,2.40,157.1,M,-34.4,M,,*5E
$GPRMC,172112.250,A,4308.5106,N,07727.5489,W,32.65,287.21,100925,,,A*46
$GPGGA,172112.500,4308.5111,N,07727.5518,W,1,04,2.40,157.1,M,-34.4,M,,*54
$GPRMC,172112.750,A,4308.5117,N,07727.5548,W,33.94,287.49,100925,,,A*4E
$GPGGA,172113.000,4308.5123,N,07727.5579,W,1,04,2.40,157.1,M,-34.4,M,,*56
$GPRMC,172113.250,A,4308.5128,N,07727.5608,W,34.45,287.49,100925,,,A*4A
$GPGGA,172113.500,4308.5132,N,07727.5638,W,1,04,2.40,157.3,M,-34.4,M,,*57
$GPRMC,172113.750,A,4308.5137,N,07727.5668,W,34.43,286.87,100925,,,A*42
$GPGGA,172114.000,4308.5141,N,07727.5698,W,1,04,2.40,157.3,M,-34.4,M,,*5B
$GPRMC,172114.250,A,4308.5145,N,07727.5728,W,34.07,285.97,100925,,,A*42
$GPGGA,172114.500,4308.5149,N,07727.5758,W,1,04,2.40,157.3,M,-34.4,M,,*5B
$GPRMC,172114.750,A,4308.5152,N,07727.5787,W,33.71,284.94,100925,,,A*40
$GPGGA,172115.000,4308.5154,N,07727.5815,W,1,04,2.40,157.3,M,-34.4,M,,*55
$GPRMC,172115.250,A,4308.5155,N,07727.5842,W,33.33,284.18,100925,,,A*47
$GPGGA,172115.500,4308.5156,N,07727.5870,W,1,04,2.40,157.3,M,-34.4,M,,*51
$GPRMC,172115.750,A,4308.5159,N,07727.5899,W,33.34,283.67,100925,,,A*40
$GPGGA,172116.000,4308.5162,N,07727.5928,W,1,04,2.40,157.4,M,-34.4,M,,*5B
$GPRMC,172116.250,A,4308.5167,N,07727.5958,W,33.51,284.21,100925,,,A*41
$GPGGA,172116.500,4308.5171,N,07727.5986,W,1,04,2.40,157.6,M,-34.4,M,,*5A
$GPRMC,172116.750,A,4308.5175,N,07727.6016,W,33.29,284.28,100925,,,A*41
$GPGGA,172117.000,4308.5178,N,07727.6044,W,1,04,2.40,157.8,M,-34.4,M,,*5D
$GPRMC,172117.250,A,4308.5181,N,07727.6073,W,33.09,284.16,100925,,,A*42
$GPGGA,172117.500,4308.5185,N,07727.6101,W,1,04,2.40,158.1,M,-34.4,M,,*5C
$GPRMC,172117.750,A,4308.5190,N,07727.6130,W,33.10,284.52,100925,,,A*49
$GPGGA,172118.000,4308.5194,N,07727.6158,W,1,04,2.40,158.3,M,-34.4,M,,*58
$GPRMC,172118.250,A,4308.5197,N,07727.6186,W,32.98,284.91,100925,,,A*47
$GPGGA,172118.500,4308.5201,N,07727.6214,W,1,04,2.40,158.5,M,-34.4,M,,*5F
$GPRMC,172118.750,A,4308.5205,N,07727.6243,W,32.82,284.78,100925,,,A*4C
$GPGGA,172119.000,4308.5209,N,07727.6272,W,1,04,2.40,158.8,M,-34.4,M,,*5E
$GPRMC,172119.250,A,4308.5212,N,07727.6299,W,32.72,284.68,100925,,,A*47
$GPGGA,172119.500,4308.5216,N,07727.6327,W,1,04,2.40,159.1,M,-34.4,M,,*5C
$GPRMC,172119.750,A,4308.5220,N,07727.6354,W,32.40,285.45,100925,,,A*4C
$GPGGA,172120.000,4308.5223,N,07727.6381,W,1,04,2.40,159.2,M,-34.4,M,,*5A
$GPRMC,172120.250,A,4308.5227,N,07727.6408,W,31.93,285.41,100925,,,A*43
$GPGGA,172120.500,4308.5230,N,07727.6434,W,1,04,2.40,159.3,M,-34.4,M,,*55
$GPRMC,172120.750,A,4308.5233,N,07727.6460,W,31.82,285.06,100925,,,A*4E
$GPGGA,172121.000,4308.5237,N,07727.6487,W,1,04,2.40,159.4,M,-34.4,M,,*59
$GPRMC,172121.250,A,4308.5240,N,07727.6514,W,31.60,285.16,100925,,,A*41
$GPGGA,172121.500,4308.5243,N,07727.6540,W,1,04,2.40,159.6,M,-34.4,M,,*57
$GPRMC,172121.750,A,4308.5247,N,07727.6567,W,31.40,285.30,100925,,,A*41
$GPGGA,172122.000,4308.5250,N,07727.6594,W,1,04,2.39,159.9,M,-34.4,M,,*5B
$GPRMC,172122.250,A,4308.5252,N,07727.6622,W,31.65,285.32,100925,,,A*44
$GPGGA,172122.500,4308.5254,N,07727.6649,W,1,04,2.40,160.3,M,-34.4,M,,*57
$GPRMC,172122.750,A,4308.5257,N,07727.6677,W,31.75,284.65,100925,,,A*46
$GPGGA,172123.000,4308.5257,N,07727.6704,W,1,04,2.39,160.7,M,-34.4,M,,*52
$GPRMC,172123.250,A,4308.5258,N,07727.6730,W,32.00,283.68,100925,,,A*44
$GPGGA,172123.500,4308.5258,N,07727.6757,W,1,04,2.39,160.8,M,-34.4,M,,*51
$GPRMC,172123.750,A,4308.5258,N,07727.6784,W,31.95,282.68,100925,,,A*40
$GPGGA,172124.000,4308.5259,N,07727.6810,W,1,04,2.39,160.8,M,-34.4,M,,*5E
$GPRMC,172124.250,A,4308.5259,N,07727.6836,W,31.97,282.12,100925,,,A*4A
$GPGGA,172124.500,4308.5260,N,07727.6864,W,1,04,2.39,161.0,M,-34.4,M,,*5B
$GPRMC,172124.750,A,4308.5263,N,07727.6894,W,32.59,281.38,100925,,,A*44
$GPGGA,172125.000,4308.5265,N,07727.6924,W,1,04,2.39,161.4,M,-34.4,M,,*5B
$GPRMC,172125.250,A,4308.5266,N,07727.6951,W,33.22,281.36,100925,,,A*4E
$GPGGA,172125.500,4308.5265,N,07727.6976,W,1,04,2.39,161.3,M,-34.4,M,,*5E
$GPRMC,172125.750,A,4308.5266,N,07727.7002,W,33.02,282.91,100925,,,A*49
$GPGGA,172126.000,4308.5266,N,07727.7027,W,1,04,2.39,161.3,M,-34.4,M,,*57
$GPRMC,172126.250,A,4308.5265,N,07727.7053,W,33.10,282.23,100925,,,A*42
$GPGGA,172126.500,4308.5266,N,07727.7082,W,1,04,2.39,161.6,M,-34.4,M,,*58
$GPRMC,172126.750,A,4308.5268,N,07727.7111,W,32.92,280.62,100925,,,A*41
$GPGGA,172127.000,4308.5271,N,07727.7140,W,1,04,2.39,162.1,M,-34.4,M,,*51
$GPRMC,172127.250,A,4308.5273,N,07727.7169,W,32.82,280.44,100925,,,A*45
$GPGGA,172127.500,4308.5274,N,07727.7197,W,1,04,2.39,162.5,M,-34.4,M,,*5F
$GPRMC,172127.750,A,4308.5278,N,07727.7225,W,32.99,282.06,100925,,,A*4E
$GPGGA,172128.000,4308.5280,N,07727.7255,W,1,04,2.39,162.5,M,-34.4,M,,*53
$GPRMC,172128.250,A,4308.5282,N,07727.7285,W,33.31,281.59,100925,,,A*41
$GPGGA,172128.500,4308.5285,N,07727.7315,W,1,04,2.39,162.8,M,-34.4,M,,*5B
$GPRMC,172128.750,A,4308.5287,N,07727.7345,W,33.59,281.26,100925,,,A*4A
$GPGGA,172129.000,4308.5289,N,07727.7375,W,1,04,2.39,163.2,M,-34.4,M,,*5E
$GPRMC,172129.250,A,4308.5288,N,07727.7401,W,33.54,281.81,100925,,,A*46
$GPGGA,172129.500,4308.5287,N,07727.7427,W,1,04,2.39,163.3,M,-34.4,M,,*54
$GPRMC,172129.750,A,4308.5290,N,07727.7455,W,33.16,282.98,100925,,,A*46
$GPGGA,172130.000,4308.5290,N,07727.7480,W,1,04,2.39,163.2,M,-34.4,M,,*53
$GPRMC,172130.250,A,4308.5288,N,07727.7505,W,32.96,282.98,100925,,,A*4F
$GPGGA,172130.500,4308.5286,N,07727.7529,W,1,04,2.39,163.4,M,-34.4,M,,*55
$GPRMC,172130.750,A,4308.5286,N,07727.7553,W,29.99,282.31,100925,,,A*41
$GPGGA,172131.000,4308.5286,N,07727.7577,W,1,04,2.39,163.7,M,-34.4,M,,*59
$GPRMC,172131.250,A,4308.5285,N,07727.7600,W,27.91,281.49,100925,,,A*49
$GPGGA,172131.500,4308.5283,N,07727.7620,W,1,04,2.39,164.0,M,-34.4,M,,*58
$GPRMC,172131.750,A,4308.5283,N,07727.7640,W,25.63,281.77,100925,,,A*4C
$GPGGA,172132.000,4308.5281,N,07727.7658,W,1,04,2.39,164.2,M,-34.4,M,,*51
$GPRMC,172132.250,A,4308.5279,N,07727.7674,W,23.11,282.92,100925,,,A*43
$GPGGA,172132.500,4308.5279,N,07727.7690,W,1,04,2.49,164.0,M,-34.4,M,,*52
$GPRMC,172132.750,A,4308.5280,N,07727.7706,W,20.85,284.41,100925,,,A*42
$GPGGA,172133.000,4308.5282,N,07727.7721,W,1,04,2.39,163.8,M,-34.4,M,,*51
$GPRMC,172133.250,A,4308.5283,N,07727.7734,W,18.50,287.11,100925,,,A*41
$GPGGA,172133.500,4308.5285,N,07727.7748,W,1,04,2.50,163.7,M,-34.4,M,,*5C
$GPRMC,172133.750,A,4308.5288,N,07727.7761,W,17.00,289.01,100925,,,A*4A
$GPGGA,172134.000,4308.5290,N,07727.7773,W,1,04,2.39,163.5,M,-34.4,M,,*5F
$GPRMC,172134.250,A,4308.5292,N,07727.7785,W,16.03,290.61,100925,,,A*45
$GPGGA,172134.500,4308.5296,N,07727.7798,W,1,04,2.39,163.5,M,-34.4,M,,*59
$GPRMC,172134.750,A,4308.5298,N,07727.7810,W,15.91,291.96,100925,,,A*48
$GPGGA,172135.000,4308.5301,N,07727.7822,W,1,04,2.39,163.4,M,-34.4,M,,*5D
$GPRMC,172135.250,A,4308.5305,N,07727.7835,W,15.89,293.09,100925,,,A*43
$GPGGA,172135.500,4308.5307,N,07727.7847,W,1,04,2.39,163.3,M,-34.4,M,,*5A
$GPRMC,172135.750,A,4308.5308,N,07727.7858,W,15.42,293.14,100925,,,A*4B
$GPGGA,172136.000,4308.5310,N,07727.7869,W,1,04,2.39,163.3,M,-34.4,M,,*56
$GPRMC,172136.250,A,4308.5310,N,07727.7879,W,15.13,292.80,100925,,,A*4F
$GPGGA,172136.500,4308.5312,N,07727.7890,W,1,04,2.39,163.3,M,-34.4,M,,*57
$GPRMC,172136.750,A,4308.5315,N,07727.7901,W,15.07,294.05,100925,,,A*4F
$GPGGA,172137.000,4308.5317,N,07727.7912,W,1,04,2.39,163.3,M,-34.4,M,,*5D
$GPRMC,172137.250,A,4308.5318,N,07727.7922,W,14.60,294.75,100925,,,A*40
$GPGGA,172137.500,4308.5318,N,07727.7931,W,1,04,2.39,163.3,M,-34.4,M,,*56
$GPRMC,172137.750,A,4308.5320,N,07727.7941,W,13.43,295.23,100925,,,A*4F
$GPGGA,172138.000,4308.5321,N,07727.7949,W,1,04,2.39,163.3,M,-34.4,M,,*59
$GPRMC,172138.250,A,4308.5321,N,07727.7958,W,12.48,295.55,100925,,,A*47
$GPGGA,172138.500,4308.5322,N,07727.7966,W,1,04,2.39,163.2,M,-34.4,M,,*53
$GPRMC,172138.750,A,4308.5323,N,07727.7974,W,12.16,295.88,100925,,,A*45
$GPGGA,172139.000,4308.5325,N,07727.7982,W,1,04,2.39,163.1,M,-34.4,M,,*59
$GPRMC,172139.250,A,4308.5325,N,07727.7989,W,12.20,298.67,100925,,,A*4C
$GPGGA,172139.500,4308.5326,N,07727.7997,W,1,04,2.39,163.0,M,-34.4,M,,*5A
$GPRMC,172139.750,A,4308.5327,N,07727.8004,W,11.82,300.67,100925,,,A*43
$GPGGA,172140.000,4308.5327,N,07727.8009,W,1,04,2.39,163.0,M,-34.4,M,,*51
$GPRMC,172140.250,A,4308.5327,N,07727.8015,W,11.18,304.11,100925,,,A*4E
$GPGGA,172140.500,4308.5328,N,07727.8019,W,1,04,2.39,163.0,M,-34.4,M,,*5A
$GPRMC,172140.750,A,4308.5328,N,07727.8023,W,10.57,309.53,100925,,,A*40
$GPGGA,172141.000,4308.5330,N,07727.8028,W,1,04,2.39,163.1,M,-34.4,M,,*54
$GPRMC,172141.250,A,4308.5331,N,07727.8033,W,9.80,310.91,100925,,,A*79
$GPGGA,172141.500,4308.5332,N,07727.8038,W,1,04,2.39,163.2,M,-34.4,M,,*51
$GPRMC,172141.750,A,4308.5334,N,07727.8042,W,8.76,311.24,100925,,,A*78
$GPGGA,172142.000,4308.5335,N,07727.8046,W,1,04,2.39,163.2,M,-34.4,M,,*59
$GPRMC,172142.250,A,4308.5336,N,07727.8050,W,8.07,310.98,100925,,,A*7F
$GPGGA,172142.500,4308.5337,N,07727.8054,W,1,04,2.39,163.2,M,-34.4,M,,*5D
$GPRMC,172142.750,A,4308.5338,N,07727.8058,W,7.95,310.70,100925,,,A*7E
$GPGGA,172143.000,4308.5339,N,07727.8062,W,1,04,2.39,163.2,M,-34.4,M,,*52
$GPRMC,172143.250,A,4308.5339,N,07727.8066,W,7.70,308.78,100925,,,A*7C
$GPGGA,172143.500,4308.5338,N,07727.8069,W,1,04,2.39,163.3,M,-34.4,M,,*5C
$GPRMC,172143.750,A,4308.5339,N,07727.8073,W,7.58,308.09,100925,,,A*71
$GPGGA,172144.000,4308.5340,N,07727.8077,W,1,04,2.39,163.3,M,-34.4,M,,*5E
$GPRMC,172144.250,A,4308.5342,N,07727.8081,W,7.94,311.03,100925,,,A*70
$GPGGA,172144.500,4308.5343,N,07727.8085,W,1,04,2.49,163.2,M,-34.4,M,,*53
$GPRMC,172144.750,A,4308.5345,N,07727.8090,W,8.28,309.18,100925,,,A*79
$GPGGA,172145.000,4308.5345,N,07727.8095,W,1,04,2.39,163.3,M,-34.4,M,,*56
$GPRMC,172145.250,A,4308.5347,N,07727.8099,W,8.41,310.09,100925,,,A*71
$GPGGA,172145.500,4308.5347,N,07727.8105,W,1,04,2.38,163.5,M,-34.4,M,,*5E
$GPRMC,172145.750,A,4308.5349,N,07727.8110,W,8.59,306.95,100925,,,A*71
$GPGGA,172146.000,4308.5350,N,07727.8117,W,1,04,2.38,163.7,M,-34.4,M,,*5F
$GPRMC,172146.250,A,4308.5352,N,07727.8124,W,9.63,300.47,100925,,,A*7B
$GPGGA,172146.500,4308.5352,N,07727.8132,W,1,04,2.39,163.8,M,-34.4,M,,*51
$GPRMC,172146.750,A,4308.5355,N,07727.8141,W,10.82,297.71,100925,,,A*47
$GPGGA,172147.000,4308.5356,N,07727.8149,W,1,04,2.38,163.9,M,-34.4,M,,*5D
$GPRMC,172147.250,A,4308.5357,N,07727.8159,W,10.96,291.42,100925,,,A*4B
$GPGGA,172147.500,4308.5350,N,07727.8166,W,1,04,2.38,164.1,M,-34.4,M,,*5C
$GPRMC,172147.750,A,4308.5344,N,07727.8173,W,10.73,279.45,100925,,,A*4E
$GPGGA,172148.000,4308.5339,N,07727.8180,W,1,04,2.38,164.4,M,-34.4,M,,*54
$GPRMC,172148.250,A,4308.5323,N,07727.8181,W,9.26,265.31,100925,,,A*7E
$GPGGA,172148.500,4308.5318,N,07727.8188,W,1,04,2.38,164.7,M,-34.4,M,,*59
$GPRMC,172148.750,A,4308.5311,N,07727.8195,W,9.02,248.99,100925,,,A*74
$GPGGA,172149.000,4308.5303,N,07727.8200,W,1,04,2.38,164.8,M,-34.4,M,,*5B
$GPRMC,172149.250,A,4308.5295,N,07727.8204,W,8.74,235.99,100925,,,A*7C
$GPGGA,172149.500,4308.5287,N,07727.8208,W,1,04,2.38,164.9,M,-34.4,M,,*5A
$GPRMC,172149.750,A,4308.5278,N,07727.8212,W,9.06,223.82,100925,,,A*74
$GPGGA,172150.000,4308.5265,N,07727.8214,W,1,04,2.38,165.1,M,-34.4,M,,*5F
$GPRMC,172150.250,A,4308.5257,N,07727.8213,W,16.98,186.75,100925,,,A*48
$GPGGA,172150.500,4308.5241,N,07727.8209,W,1,04,2.38,165.0,M,-34.4,M,,*51
$GPRMC,172150.750,A,4308.5225,N,07727.8205,W,18.16,184.76,100925,,,A*46
$GPGGA,172151.000,4308.5208,N,07727.8202,W,1,04,2.38,164.8,M,-34.4,M,,*5A
$GPRMC,172151.250,A,4308.5192,N,07727.8201,W,19.57,183.97,100925,,,A*45
$GPGGA,172151.500,4308.5173,N,07727.8201,W,1,04,2.38,164.6,M,-34.4,M,,*5D
$GPRMC,172151.750,A,4308.5155,N,07727.8200,W,20.95,183.08,100925,,,A*48
$GPGGA,172152.000,4308.5137,N,07727.8199,W,1,04,2.38,164.4,M,-34.4,M,,*5B
$GPRMC,172152.250,A,4308.5118,N,07727.8197,W,22.19,180.57,100925,,,A*45
$GPGGA,172152.500,4308.5101,N,07727.8197,W,1,04,2.38,164.2,M,-34.4,M,,*53
$GPRMC,172152.750,A,4308.5083,N,07727.8196,W,22.54,180.07,100925,,,A*4E
$GPGGA,172153.000,4308.5065,N,07727.8197,W,1,04,2.38,164.0,M,-34.4,M,,*56
$GPRMC,172153.250,A,4308.5046,N,07727.8198,W,23.50,179.16,100925,,,A*4E
$GPGGA,172153.500,4308.5024,N,07727.8201,W,1,04,2.38,163.6,M,-34.4,M,,*5B
$GPRMC,172153.750,A,4308.5003,N,07727.8205,W,24.65,179.40,100925,,,A*4F
$GPGGA,172154.000,4308.4981,N,07727.8208,W,1,04,2.38,163.2,M,-34.4,M,,*53
$GPRMC,172154.250,A,4308.4960,N,07727.8209,W,25.89,179.11,100925,,,A*4B
$GPGGA,172154.500,4308.4936,N,07727.8212,W,1,04,2.38,162.9,M,-34.4,M,,*5B
$GPRMC,172154.750,A,4308.4914,N,07727.8215,W,27.17,179.68,100925,,,A*4B
$GPGGA,172155.000,4308.4892,N,07727.8217,W,1,04,2.38,162.6,M,-34.4,M,,*5A
$GPRMC,172155.250,A,4308.4870,N,07727.8217,W,28.40,179.33,100925,,,A*4D
$GPGGA,172155.500,4308.4847,N,07727.8218,W,1,04,2.38,162.4,M,-34.4,M,,*5A
$GPRMC,172155.750,A,4308.4825,N,07727.8218,W,29.36,178.71,100925,,,A*40
$GPGGA,172156.000,4308.4802,N,07727.8218,W,1,04,2.38,162.1,M,-34.4,M,,*58
$GPRMC,172156.250,A,4308.4779,N,07727.8217,W,30.35,178.87,100925,,,A*4D
$GPGGA,172156.500,4308.4757,N,07727.8217,W,1,04,2.38,162.0,M,-34.4,M,,*5C
$GPRMC,172156.750,A,4308.4735,N,07727.8216,W,30.52,179.35,100925,,,A*48
$GPGGA,172157.000,4308.4713,N,07727.8216,W,1,04,2.38,161.9,M,-34.4,M,,*53
$GPRMC,172157.250,A,4308.4690,N,07727.8217,W,30.77,179.96,100925,,,A*4D
$GPGGA,172157.500,4308.4666,N,07727.8219,W,1,04,2.38,161.7,M,-34.4,M,,*54
$GPRMC,172157.750,A,4308.4642,N,07727.8221,W,30.85,180.74,100925,,,A*45
$GPGGA,172158.000,4308.4619,N,07727.8222,W,1,04,2.38,161.5,M,-34.4,M,,*5C
$GPRMC,172158.250,A,4308.4596,N,07727.8223,W,31.05,181.12,100925,,,A*4F
$GPGGA,172158.500,4308.4573,N,07727.8223,W,1,04,2.38,161.3,M,-34.4,M,,*51
$GPRMC,172158.750,A,4308.4550,N,07727.8223,W,31.21,180.49,100925,,,A*49
$GPGGA,172159.000,4308.4527,N,07727.8223,W,1,04,2.38,161.3,M,-34.4,M,,*54
$GPRMC,172159.250,A,4308.4503,N,07727.8222,W,32.49,179.78,100925,,,A*43
$GPGGA,172159.500,4308.4479,N,07727.8223,W,1,04,2.38,161.2,M,-34.4,M,,*5A
$GPRMC,172159.750,A,4308.4455,N,07727.8223,W,32.99,179.89,100925,,,A*46
$GPGGA,172200.000,4308.4431,N,07727.8223,W,1,04,2.38,161.1,M,-34.4,M,,*5F
$GPRMC,172200.250,A,4308.4406,N,07727.8224,W,33.49,180.05,100925,,,A*43
$GPGGA,172200.500,4308.4382,N,07727.8224,W,1,04,2.38,161.0,M,-34.4,M,,*53
$GPRMC,172200.750,A,4308.4357,N,07727.8226,W,33.55,180.41,100925,,,A*4A
$GPGGA,172201.000,4308.4332,N,07727.8227,W,1,04,2.38,160.9,M,-34.4,M,,*57
$GPRMC,172201.250,A,4308.4308,N,07727.8228,W,33.85,180.62,100925,,,A*46
$GPGGA,172201.500,4308.4282,N,07727.8230,W,1,04,2.38,160.8,M,-34.4,M,,*5F
$GPRMC,172201.750,A,4308.4257,N,07727.8231,W,33.87,180.75,100925,,,A*44
$GPGGA,172202.000,4308.4231,N,07727.8233,W,1,04,2.38,160.6,M,-34.4,M,,*5C
$GPRMC,172202.250,A,4308.4206,N,07727.8235,W,34.03,181.05,100925,,,A*4F
$GPGGA,172202.500,4308.4181,N,07727.8236,W,1,04,2.38,160.5,M,-34.4,M,,*57
$GPRMC,172202.750,A,4308.4155,N,07727.8237,W,34.13,181.29,100925,,,A*42
$GPGGA,172203.000,4308.4129,N,07727.8240,W,1,04,2.38,160.4,M,-34.4,M,,*51
$GPRMC,172203.250,A,4308.4103,N,07727.8243,W,35.14,181.32,100925,,,A*4A
$GPGGA,172203.500,4308.4076,N,07727.8244,W,1,04,2.38,160.3,M,-34.4,M,,*5C
$GPRMC,172203.750,A,4308.4050,N,07727.8246,W,35.41,181.01,100925,,,A*4D
$GPGGA,172204.000,4308.4024,N,07727.8248,W,1,04,2.38,160.2,M,-34.4,M,,*54
$GPRMC,172204.250,A,4308.3999,N,07727.8249,W,35.51,180.95,100925,,,A*46
$GPGGA,172204.500,4308.3974,N,07727.8249,W,1,04,2.38,160.2,M,-34.4,M,,*5B
$GPRMC,172204.750,A,4308.3949,N,07727.8249,W,35.63,180.85,100925,,,A*4E
$GPGGA,172205.000,4308.3923,N,07727.8250,W,1,04,2.38,160.2,M,-34.4,M,,*55
$GPRMC,172205.250,A,4308.3897,N,07727.8251,W,35.79,181.14,100925,,,A*43
$GPGGA,172205.500,4308.3871,N,07727.8252,W,1,04,2.38,160.1,M,-34.4,M,,*57
$GPRMC,172205.750,A,4308.3844,N,07727.8253,W,36.26,181.04,100925,,,A*42
$GPGGA,172206.000,4308.3818,N,07727.8254,W,1,04,2.38,160.0,M,-34.4,M,,*59
$GPRMC,172206.250,A,4308.3792,N,07727.8255,W,36.28,181.51,100925,,,A*48
$GPGGA,172206.500,4308.3767,N,07727.8256,W,1,04,2.38,160.0,M,-34.4,M,,*59
$GPRMC,172206.750,A,4308.3741,N,07727.8257,W,36.23,181.52,100925,,,A*49
$GPGGA,172207.000,4308.3715,N,07727.8258,W,1,04,2.38,160.0,M,-34.4,M,,*56
$GPRMC,172207.250,A,4308.3688,N,07727.8260,W,36.23,181.21,100925,,,A*49
$GPGGA,172207.500,4308.3661,N,07727.8263,W,1,04,2.38,159.8,M,-34.4,M,,*5B
$GPRMC,172207.750,A,4308.3634,N,07727.8264,W,36.75,181.14,100925,,,A*4A
$GPGGA,172208.000,4308.3608,N,07727.8265,W,1,04,2.38,159.8,M,-34.4,M,,*58
$GPRMC,172208.250,A,4308.3582,N,07727.8266,W,36.69,180.78,100925,,,A*4A
$GPGGA,172208.500,4308.3555,N,07727.8267,W,1,04,2.38,159.8,M,-34.4,M,,*54
$GPRMC,172208.750,A,4308.3529,N,07727.8269,W,36.64,181.17,100925,,,A*44
$GPGGA,172209.000,4308.3503,N,07727.8271,W,1,04,2.37,159.7,M,-34.4,M,,*54
$GPRMC,172209.250,A,4308.3477,N,07727.8272,W,36.64,181.16,100925,,,A*41
$GPGGA,172209.500,4308.3450,N,07727.8273,W,1,04,2.37,159.7,M,-34.4,M,,*54
$GPRMC,172209.750,A,4308.3425,N,07727.8273,W,36.88,181.10,100925,,,A*46
$GPGGA,172210.000,4308.3399,N,07727.8273,W,1,04,2.38,159.7,M,-34.4,M,,*54
$GPRMC,172210.250,A,4308.3373,N,07727.8274,W,37.00,181.23,100925,,,A*49
$GPGGA,172210.500,4308.3347,N,07727.8275,W,1,04,2.37,159.8,M,-34.4,M,,*54
$GPRMC,172210.750,A,4308.3320,N,07727.8277,W,37.25,181.43,100925,,,A*48
$GPGGA,172211.000,4308.3294,N,07727.8278,W,1,04,2.37,159.8,M,-34.4,M,,*52
$GPRMC,172211.250,A,4308.3266,N,07727.8279,W,37.60,180.95,100925,,,A*4A
$GPGGA,172211.500,4308.3240,N,07727.8280,W,1,04,2.37,159.9,M,-34.4,M,,*58
$GPRMC,172211.750,A,4308.3214,N,07727.8280,W,37.66,180.83,100925,,,A*4D
$GPGGA,172212.000,4308.3187,N,07727.8281,W,1,04,2.37,160.1,M,-34.4,M,,*55
$GPRMC,172212.250,A,4308.3161,N,07727.8281,W,37.76,180.94,100925,,,A*4C
$GPGGA,172212.500,4308.3135,N,07727.8283,W,1,04,2.37,160.2,M,-34.4,M,,*58
$GPRMC,172212.750,A,4308.3108,N,07727.8284,W,37.78,181.65,100925,,,A*42
$GPGGA,172213.000,4308.3081,N,07727.8285,W,1,04,2.37,160.4,M,-34.4,M,,*52
$GPRMC,172213.250,A,4308.3055,N,07727.8286,W,37.44,181.96,100925,,,A*4E
$GPGGA,172213.500,4308.3030,N,07727.8287,W,1,04,2.37,160.5,M,-34.4,M,,*5E
$GPRMC,172213.750,A,4308.3004,N,07727.8288,W,37.03,181.60,100925,,,A*4B
$GPGGA,172214.000,4308.2979,N,07727.8289,W,1,04,2.37,160.6,M,-34.4,M,,*54
$GPRMC,172214.250,A,4308.2954,N,07727.8289,W,36.52,181.60,100925,,,A*40
$GPGGA,172214.500,4308.2929,N,07727.8290,W,1,04,2.37,160.7,M,-34.4,M,,*5D
$GPRMC,172214.750,A,4308.2904,N,07727.8291,W,36.23,181.49,100925,,,A*44
$GPGGA,172215.000,4308.2878,N,07727.8292,W,1,04,2.37,160.8,M,-34.4,M,,*51
$GPRMC,172215.250,A,4308.2853,N,07727.8293,W,36.11,181.29,100925,,,A*46
$GPGGA,172215.500,4308.2826,N,07727.8296,W,1,04,2.37,160.7,M,-34.4,M,,*54
$GPRMC,172215.750,A,4308.2801,N,07727.8296,W,36.05,181.35,100925,,,A*49
$GPGGA,172216.000,4308.2776,N,07727.8297,W,1,04,2.37,160.8,M,-34.4,M,,*56
$GPRMC,172216.250,A,4308.2752,N,07727.8298,W,35.57,181.40,100925,,,A*4E
$GPGGA,172216.500,4308.2729,N,07727.8297,W,1,04,2.37,160.9,M,-34.4,M,,*58
$GPRMC,172216.750,A,4308.2705,N,07727.8298,W,35.52,181.08,100925,,,A*40
$GPGGA,172217.000,4308.2681,N,07727.8298,W,1,04,2.37,160.9,M,-34.4,M,,*50
$GPRMC,172217.250,A,4308.2659,N,07727.8297,W,35.28,181.12,100925,,,A*45
$GPGGA,172217.500,4308.2637,N,07727.8297,W,1,04,2.37,160.9,M,-34.4,M,,*57
$GPRMC,172217.750,A,4308.2613,N,07727.8298,W,34.42,181.76,100925,,,A*4E
$GPGGA,172218.000,4308.2588,N,07727.8299,W,1,04,2.37,161.0,M,-34.4,M,,*5C
$GPRMC,172218.250,A,4308.2564,N,07727.8300,W,34.68,181.85,100925,,,A*43
$GPGGA,172218.500,4308.2538,N,07727.8302,W,1,05,1.41,160.9,M,-34.4,M,,*5A
$GPRMC,172218.750,A,4308.2514,N,07727.8304,W,34.51,181.93,100925,,,A*48
$GPGGA,172219.000,4308.2489,N,07727.8305,W,1,05,1.41,160.9,M,-34.4,M,,*52
$GPRMC,172219.250,A,4308.2465,N,07727.8306,W,35.47,181.15,100925,,,A*41
$GPGGA,172219.500,4308.2441,N,07727.8307,W,1,05,1.41,160.8,M,-34.4,M,,*50
$GPRMC,172219.750,A,4308.2416,N,07727.8307,W,35.48,180.45,100925,,,A*4A
$GPGGA,172220.000,4308.2392,N,07727.8307,W,1,05,1.41,160.9,M,-34.4,M,,*57
$GPRMC,172220.250,A,4308.2368,N,07727.8308,W,35.24,180.74,100925,,,A*4C
$GPGGA,172220.500,4308.2344,N,07727.8310,W,1,05,1.78,161.0,M,-34.4,M,,*5D
$GPRMC,172220.750,A,4308.2320,N,07727.8310,W,35.17,181.31,100925,,,A*4C
$GPGGA,172221.000,4308.2296,N,07727.8312,W,1,05,1.41,161.2,M,-34.4,M,,*5D
$GPRMC,172221.250,A,4308.2272,N,07727.8313,W,35.37,181.73,100925,,,A*49
$GPGGA,172221.500,4308.2248,N,07727.8314,W,1,05,1.78,161.3,M,-34.4,M,,*56
$GPRMC,172221.750,A,4308.2224,N,07727.8315,W,35.39,181.89,100925,,,A*42
$GPGGA,172222.000,4308.2200,N,07727.8317,W,1,05,1.41,161.6,M,-34.4,M,,*50
$GPRMC,172222.250,A,4308.2176,N,07727.8318,W,35.28,182.34,100925,,,A*48
$GPGGA,172222.500,4308.2152,N,07727.8320,W,1,05,1.78,161.9,M,-34.4,M,,*50
$GPRMC,172222.750,A,4308.2128,N,07727.8321,W,34.94,182.35,100925,,,A*4B
$GPGGA,172223.000,4308.2105,N,07727.8322,W,1,05,1.41,162.2,M,-34.4,M,,*56
$GPRMC,172223.250,A,4308.2081,N,07727.8323,W,34.70,182.58,100925,,,A*4E
$GPGGA,172223.500,4308.2057,N,07727.8325,W,1,05,1.78,162.6,M,-34.4,M,,*5C
$GPRMC,172223.750,A,4308.2033,N,07727.8326,W,34.44,182.77,100925,,,A*4D
$GPGGA,172224.000,4308.2010,N,07727.8328,W,1,05,1.41,162.9,M,-34.4,M,,*55
$GPRMC,172224.250,A,4308.1986,N,07727.8329,W,34.39,182.76,100925,,,A*4F
$GPGGA,172224.500,4308.1963,N,07727.8329,W,1,05,1.41,163.1,M,-34.4,M,,*56
$GPRMC,172224.750,A,4308.1939,N,07727.8330,W,34.37,181.97,100925,,,A*44
$GPGGA,172225.000,4308.1916,N,07727.8331,W,1,05,1.78,163.4,M,-34.4,M,,*56
$GPRMC,172225.250,A,4308.1892,N,07727.8331,W,34.32,181.73,100925,,,A*4E
$GPGGA,172225.500,4308.1869,N,07727.8332,W,1,05,1.41,163.7,M,-34.4,M,,*50
$GPRMC,172225.750,A,4308.1845,N,07727.8332,W,34.25,181.56,100925,,,A*43
$GPGGA,172226.000,4308.1822,N,07727.8333,W,1,05,1.41,164.0,M,-34.4,M,,*58
$GPRMC,172226.250,A,4308.1799,N,07727.8333,W,34.16,181.53,100925,,,A*4F
$GPGGA,172226.500,4308.1776,N,07727.8334,W,1,05,1.78,164.2,M,-34.4,M,,*5C
$GPRMC,172226.750,A,4308.1752,N,07727.8335,W,33.63,181.79,100925,,,A*46
$GPGGA,172227.000,4308.1729,N,07727.8336,W,1,05,1.41,164.5,M,-34.4,M,,*5D
$GPRMC,172227.250,A,4308.1706,N,07727.8336,W,33.51,181.87,100925,,,A*40
$GPGGA,172227.500,4308.1683,N,07727.8337,W,1,05,1.41,164.7,M,-34.4,M,,*5A
$GPRMC,172227.750,A,4308.1661,N,07727.8338,W,33.25,182.12,100925,,,A*47
$GPGGA,172228.000,4308.1638,N,07727.8338,W,1,05,1.41,164.8,M,-34.4,M,,*50
$GPRMC,172228.250,A,4308.1616,N,07727.8339,W,33.17,182.14,100925,,,A*4B
$GPGGA,172228.500,4308.1594,N,07727.8340,W,1,05,1.78,164.9,M,-34.4,M,,*54
$GPRMC,172228.750,A,4308.1571,N,07727.8341,W,33.04,182.12,100925,,,A*47
$GPGGA,172229.000,4308.1549,N,07727.8342,W,1,05,1.41,165.2,M,-34.4,M,,*52
$GPRMC,172229.250,A,4308.1527,N,07727.8343,W,32.90,182.20,100925,,,A*4F
$GPGGA,172229.500,4308.1505,N,07727.8343,W,1,05,1.41,165.4,M,-34.4,M,,*58
$GPRMC,172229.750,A,4308.1483,N,07727.8344,W,32.69,181.91,100925,,,A*4D
$GPGGA,172230.000,4308.1461,N,07727.8345,W,1,05,1.41,165.6,M,-34.4,M,,*52
$GPRMC,172230.250,A,4308.1440,N,07727.8345,W,32.48,181.53,100925,,,A*43
$GPGGA,172230.500,4308.1418,N,07727.8346,W,1,05,1.41,165.8,M,-34.4,M,,*54
$GPRMC,172230.750,A,4308.1397,N,07727.8347,W,32.25,181.44,100925,,,A*44
$GPGGA,172231.000,4308.1376,N,07727.8347,W,1,05,1.41,166.1,M,-34.4,M,,*54
$GPRMC,172231.250,A,4308.1354,N,07727.8348,W,31.99,181.11,100925,,,A*44
$GPGGA,172231.500,4308.1333,N,07727.8348,W,1,05,1.41,166.3,M,-34.4,M,,*5D
$GPRMC,172231.750,A,4308.1312,N,07727.8348,W,30.42,180.99,100925,,,A*45
$GPGGA,172232.000,4308.1291,N,07727.8348,W,1,05,1.41,166.6,M,-34.4,M,,*57
$GPRMC,172232.250,A,4308.1270,N,07727.8349,W,30.04,181.25,100925,,,A*43
$GPGGA,172232.500,4308.1250,N,07727.8349,W,1,05,1.78,166.9,M,-34.4,M,,*5B
$GPRMC,172232.750,A,4308.1229,N,07727.8350,W,29.82,181.59,100925,,,A*4F
$GPGGA,172233.000,4308.1209,N,07727.8351,W,1,05,1.41,167.1,M,-34.4,M,,*59
$GPRMC,172233.250,A,4308.1188,N,07727.8352,W,29.81,182.21,100925,,,A*4E
$GPGGA,172233.500,4308.1167,N,07727.8353,W,1,05,1.41,167.3,M,-34.4,M,,*57
$GPRMC,172233.750,A,4308.1146,N,07727.8355,W,30.05,182.69,100925,,,A*46
$GPGGA,172234.000,4308.1126,N,07727.8356,W,1,05,1.41,167.6,M,-34.4,M,,*50
$GPRMC,172234.250,A,4308.1105,N,07727.8357,W,30.29,183.46,100925,,,A*43
$GPGGA,172234.500,4308.1084,N,07727.8359,W,1,05,1.41,167.8,M,-34.4,M,,*5D
$GPRMC,172234.750,A,4308.1063,N,07727.8360,W,30.31,183.36,100925,,,A*4D
$GPGGA,172235.000,4308.1042,N,07727.8362,W,1,05,1.41,168.1,M,-34.4,M,,*5D
$GPRMC,172235.250,A,4308.1021,N,07727.8363,W,30.33,183.77,100925,,,A*4B
$GPGGA,172235.500,4308.0999,N,07727.8364,W,1,05,1.41,168.4,M,-34.4,M,,*55
$GPRMC,172235.750,A,4308.0978,N,07727.8364,W,30.38,182.82,100925,,,A*4D
$GPGGA,172236.000,4308.0957,N,07727.8365,W,1,05,1.41,168.6,M,-34.4,M,,*52
$GPRMC,172236.250,A,4308.0935,N,07727.8365,W,30.44,181.96,100925,,,A*4E
$GPGGA,172236.500,4308.0914,N,07727.8365,W,1,05,1.41,168.8,M,-34.4,M,,*5E
$GPRMC,172236.750,A,4308.0892,N,07727.8365,W,31.34,181.44,100925,,,A*4E
$GPGGA,172237.000,4308.0871,N,07727.8366,W,1,05,1.41,168.9,M,-34.4,M,,*5A
$GPRMC,172237.250,A,4308.0849,N,07727.8366,W,31.57,181.32,100925,,,A*4B
$GPGGA,172237.500,4308.0828,N,07727.8367,W,1,05,1.78,169.1,M,-34.4,M,,*51
$GPRMC,172237.750,A,4308.0806,N,07727.8368,W,31.60,181.53,100925,,,A*48
$GPGGA,172238.000,4308.0785,N,07727.8368,W,1,05,1.41,169.2,M,-34.4,M,,*55
$GPRMC,172238.250,A,4308.0763,N,07727.8368,W,31.84,181.26,100925,,,A*46
$GPGGA,172238.500,4308.0741,N,07727.8368,W,1,05,1.41,169.3,M,-34.4,M,,*59
$GPRMC,172238.750,A,4308.0719,N,07727.8368,W,32.20,181.16,100925,,,A*40
$GPGGA,172239.000,4308.0697,N,07727.8369,W,1,05,1.41,169.4,M,-34.4,M,,*51
$GPRMC,172239.250,A,4308.0675,N,07727.8369,W,32.29,181.58,100925,,,A*4D
$GPGGA,172239.500,4308.0652,N,07727.8370,W,1,05,1.41,169.5,M,-34.4,M,,*54
$GPRMC,172239.750,A,4308.0629,N,07727.8371,W,32.49,181.41,100925,,,A*46
$GPGGA,172240.000,4308.0607,N,07727.8371,W,1,05,1.41,169.7,M,-34.4,M,,*5C
$GPRMC,172240.250,A,4308.0584,N,07727.8371,W,32.64,181.17,100925,,,A*45
$GPGGA,172240.500,4308.0561,N,07727.8372,W,1,05,1.41,169.9,M,-34.4,M,,*57
$GPRMC,172240.750,A,4308.0538,N,07727.8372,W,33.09,181.12,100925,,,A*4B
$GPGGA,172241.000,4308.0515,N,07727.8372,W,1,05,1.41,170.2,M,-34.4,M,,*53
$GPRMC,172241.250,A,4308.0493,N,07727.8373,W,32.86,181.32,100925,,,A*4A
$GPGGA,172241.500,4308.0470,N,07727.8373,W,1,05,1.41,170.4,M,-34.4,M,,*53
$GPRMC,172241.750,A,4308.0447,N,07727.8373,W,32.83,181.36,100925,,,A*47
$GPGGA,172242.000,4308.0424,N,07727.8374,W,1,05,1.41,170.7,M,-34.4,M,,*50
$GPRMC,172242.250,A,4308.0402,N,07727.8374,W,33.08,181.61,100925,,,A*47
$GPGGA,172242.500,4308.0379,N,07727.8376,W,1,05,1.41,170.9,M,-34.4,M,,*56
$GPRMC,172242.750,A,4308.0355,N,07727.8377,W,33.48,182.23,100925,,,A*45
$GPGGA,172243.000,4308.0332,N,07727.8378,W,1,05,1.41,171.2,M,-34.4,M,,*59
$GPRMC,172243.250,A,4308.0309,N,07727.8379,W,33.51,182.97,100925,,,A*41
