Vers 72
USE_SERIAL_FEEDBACK=true
DEVELOPMENT_MODE=false
USE_RMC_ONLY=false

$GPRMC,225735.250,A,4305.2349,N,07740.8860,W,0.07,317.26,270825,,,A*7F
$GPGGA,225735.500,4305.2348,N,07740.8860,W,1,06,1.32,158.3,M,-34.4,M,,*55
$GPRMC,225735.750,A,4305.2348,N,07740.8859,W,0.04,122.03,270825,,,A*71
$GPGGA,225736.000,4305.2348,N,07740.8859,W,1,06,1.32,158.5,M,-34.4,M,,*5F
$GPRMC,225739.500,A,4305.2351,N,07740.8861,W,3.11,347.01,270825,,,A*7D
$GPGGA,225739.750,4305.2353,N,07740.8862,W,1,06,1.37,158.8,M,-34.4,M,,*58
$GPRMC,225740.000,A,4305.2355,N,07740.8863,W,3.82,344.83,270825,,,A*73
$GPGGA,225740.250,4305.2357,N,07740.8864,W,1,06,1.32,158.7,M,-34.4,M,,*5B
$GPRMC,225740.500,A,4305.2360,N,07740.8865,W,4.78,344.28,270825,,,A*75
$GPGGA,225740.750,4305.2363,N,07740.8867,W,1,06,1.37,158.6,M,-34.4,M,,*5E
$GPRMC,225741.000,A,4305.2366,N,07740.8868,W,5.30,345.05,270825,,,A*79
$GPGGA,225741.250,4305.2370,N,07740.8870,W,1,06,1.37,158.5,M,-34.4,M,,*5D
$GPRMC,225741.500,A,4305.2373,N,07740.8871,W,5.32,346.66,270825,,,A*74
$GPGGA,225741.750,4305.2376,N,07740.8872,W,1,06,1.37,158.4,M,-34.4,M,,*5D
$GPRMC,225742.000,A,4305.2379,N,07740.8873,W,4.78,351.87,270825,,,A*7C
$GPGGA,225742.250,4305.2382,N,07740.8874,W,1,06,1.37,158.4,M,-34.4,M,,*56
$GPRMC,225742.500,A,4305.2385,N,07740.8875,W,4.25,353.44,270825,,,A*79
$GPGGA,225742.750,4305.2388,N,07740.8875,W,1,06,1.37,158.4,M,-34.4,M,,*58
$GPRMC,225743.000,A,4305.2390,N,07740.8876,W,3.56,350.66,270825,,,A*7A
$GPGGA,225743.250,4305.2392,N,07740.8877,W,1,06,1.37,158.4,M,-34.4,M,,*55
$GPRMC,225743.500,A,4305.2394,N,07740.8877,W,3.22,351.76,270825,,,A*79
$GPGGA,225743.750,4305.2396,N,07740.8878,W,1,06,1.37,158.5,M,-34.4,M,,*5A
$GPRMC,225744.000,A,4305.2397,N,07740.8878,W,2.93,353.44,270825,,,A*7F
$GPGGA,225744.250,4305.2399,N,07740.8879,W,1,06,1.37,158.4,M,-34.4,M,,*57
$GPRMC,225744.500,A,4305.2401,N,07740.8879,W,2.85,357.31,270825,,,A*72
$GPGGA,225744.750,4305.2403,N,07740.8880,W,1,06,1.37,158.5,M,-34.4,M,,*51
$GPRMC,225745.000,A,4305.2405,N,07740.8880,W,3.16,359.20,270825,,,A*71
$GPGGA,225745.250,4305.2407,N,07740.8880,W,1,06,1.37,158.6,M,-34.4,M,,*52
$GPRMC,225745.500,A,4305.2410,N,07740.8880,W,3.78,6.99,270825,,,A*73
$GPGGA,225745.750,4305.2412,N,07740.8880,W,1,06,1.37,158.6,M,-34.4,M,,*53
$GPRMC,225746.000,A,4305.2415,N,07740.8879,W,4.49,14.16,270825,,,A*47
$GPGGA,225746.250,4305.2418,N,07740.8878,W,1,06,1.37,158.7,M,-34.4,M,,*59
$GPRMC,225746.500,A,4305.2421,N,07740.8877,W,5.01,20.32,270825,,,A*47
$GPGGA,225746.750,4305.2425,N,07740.8875,W,1,06,1.37,158.8,M,-34.4,M,,*50
$GPRMC,225747.000,A,4305.2428,N,07740.8873,W,5.61,26.89,270825,,,A*4E
$GPGGA,225747.250,4305.2431,N,07740.8870,W,1,06,1.37,158.8,M,-34.4,M,,*54
$GPRMC,225747.500,A,4305.2435,N,07740.8867,W,6.22,32.48,270825,,,A*4E
$GPGGA,225747.750,4305.2438,N,07740.8864,W,1,06,1.37,158.8,M,-34.4,M,,*5D
$GPRMC,225748.000,A,4305.2441,N,07740.8860,W,6.69,39.23,270825,,,A*49
$GPGGA,225748.250,4305.2445,N,07740.8855,W,1,07,1.25,158.8,M,-34.4,M,,*5D
$GPRMC,225748.500,A,4305.2448,N,07740.8850,W,7.55,50.45,270825,,,A*47
$GPGGA,225748.750,4305.2451,N,07740.8845,W,1,07,1.25,159.0,M,-34.4,M,,*55
$GPRMC,225749.000,A,4305.2454,N,07740.8839,W,8.27,52.73,270825,,,A*4C
$GPGGA,225749.250,4305.2457,N,07740.8833,W,1,07,1.25,159.1,M,-34.4,M,,*57
$GPRMC,225749.500,A,4305.2460,N,07740.8826,W,8.91,58.10,270825,,,A*42
$GPGGA,225749.750,4305.2463,N,07740.8819,W,1,07,1.25,159.4,M,-34.4,M,,*58
$GPRMC,225750.000,A,4305.2466,N,07740.8812,W,9.40,64.18,270825,,,A*44
$GPGGA,225750.250,4305.2468,N,07740.8804,W,1,07,1.25,160.0,M,-34.4,M,,*5C
$GPRMC,225750.500,A,4305.2471,N,07740.8796,W,10.26,68.77,270825,,,A*79
$GPGGA,225750.750,4305.2472,N,07740.8788,W,1,07,1.25,160.2,M,-34.4,M,,*5B
$GPRMC,225751.000,A,4305.2474,N,07740.8780,W,11.10,70.55,270825,,,A*72
$GPGGA,225751.250,4305.2476,N,07740.8770,W,1,07,1.25,160.2,M,-34.4,M,,*5C
$GPRMC,225751.500,A,4305.2478,N,07740.8759,W,11.77,71.74,270825,,,A*7C
$GPGGA,225751.750,4305.2480,N,07740.8748,W,1,07,1.25,160.2,M,-34.4,M,,*5B
$GPRMC,225752.000,A,4305.2482,N,07740.8737,W,12.42,74.30,270825,,,A*77
$GPGGA,225752.250,4305.2484,N,07740.8725,W,1,07,1.25,160.1,M,-34.4,M,,*51
$GPRMC,225752.500,A,4305.2486,N,07740.8714,W,13.08,75.69,270825,,,A*75
$GPGGA,225752.750,4305.2488,N,07740.8702,W,1,07,1.25,160.0,M,-34.4,M,,*5C
$GPRMC,225753.000,A,4305.2490,N,07740.8690,W,13.72,76.43,270825,,,A*7D
$GPGGA,225753.250,4305.2492,N,07740.8677,W,1,07,1.25,159.9,M,-34.4,M,,*53
$GPRMC,225753.500,A,4305.2495,N,07740.8664,W,14.12,75.80,270825,,,A*7B
$GPGGA,225753.750,4305.2497,N,07740.8651,W,1,07,1.25,159.8,M,-34.4,M,,*56
$GPRMC,225754.000,A,4305.2499,N,07740.8638,W,14.40,75.64,270825,,,A*71
$GPGGA,225754.250,4305.2502,N,07740.8625,W,1,07,1.25,159.9,M,-34.4,M,,*5B
$GPRMC,225754.500,A,4305.2505,N,07740.8612,W,14.69,75.93,270825,,,A*7B
$GPGGA,225754.750,4305.2508,N,07740.8599,W,1,07,1.25,159.9,M,-34.4,M,,*50
$GPRMC,225755.000,A,4305.2511,N,07740.8586,W,14.74,75.14,270825,,,A*77
$GPGGA,225755.250,4305.2513,N,07740.8573,W,1,07,1.25,160.0,M,-34.4,M,,*59
$GPRMC,225755.500,A,4305.2516,N,07740.8559,W,14.85,74.84,270825,,,A*71
$GPGGA,225755.750,4305.2519,N,07740.8546,W,1,07,1.25,160.0,M,-34.4,M,,*50
$GPRMC,225756.000,A,4305.2522,N,07740.8532,W,15.17,75.64,270825,,,A*78
$GPGGA,225756.250,4305.2524,N,07740.8518,W,1,07,1.25,160.1,M,-34.4,M,,*52
$GPRMC,225756.500,A,4305.2527,N,07740.8504,W,15.49,77.06,270825,,,A*70
$GPGGA,225756.750,4305.2529,N,07740.8490,W,1,07,1.25,160.2,M,-34.4,M,,*58
$GPRMC,225757.000,A,4305.2531,N,07740.8476,W,15.78,78.22,270825,,,A*7C
$GPGGA,225757.250,4305.2533,N,07740.8461,W,1,07,1.25,160.2,M,-34.4,M,,*59
$GPRMC,225757.500,A,4305.2536,N,07740.8446,W,16.03,78.87,270825,,,A*7D
$GPGGA,225757.750,4305.2538,N,07740.8431,W,1,07,1.25,160.2,M,-34.4,M,,*52
$GPRMC,225758.000,A,4305.2540,N,07740.8416,W,16.53,80.22,270825,,,A*7E
$GPGGA,225758.250,4305.2541,N,07740.8401,W,1,07,1.25,160.1,M,-34.4,M,,*56
$GPRMC,225758.500,A,4305.2543,N,07740.8386,W,16.55,80.54,270825,,,A*71
$GPGGA,225758.750,4305.2545,N,07740.8370,W,1,07,1.25,160.1,M,-34.4,M,,*56
$GPRMC,225759.000,A,4305.2548,N,07740.8354,W,16.97,81.75,270825,,,A*7D
$GPGGA,225759.250,4305.2550,N,07740.8338,W,1,07,1.25,160.1,M,-34.4,M,,*5A
$GPRMC,225759.500,A,4305.2552,N,07740.8321,W,17.21,82.32,270825,,,A*7D
$GPGGA,225759.750,4305.2554,N,07740.8304,W,1,07,1.25,160.1,M,-34.4,M,,*54
$GPRMC,225800.000,A,4305.2556,N,07740.8287,W,17.38,82.65,270825,,,A*78
$GPGGA,225800.250,4305.2559,N,07740.8272,W,1,08,1.04,160.2,M,-34.4,M,,*50
$GPRMC,225800.500,A,4305.2563,N,07740.8256,W,17.59,83.45,270825,,,A*73
$GPGGA,225800.750,4305.2565,N,07740.8239,W,1,08,1.04,160.5,M,-34.4,M,,*52
$GPRMC,225801.000,A,4305.2567,N,07740.8223,W,17.79,84.17,270825,,,A*73
$GPGGA,225801.250,4305.2569,N,07740.8207,W,1,08,1.04,160.6,M,-34.4,M,,*54
$GPRMC,225801.500,A,4305.2571,N,07740.8190,W,18.03,84.63,270825,,,A*7B
$GPGGA,225801.750,4305.2572,N,07740.8174,W,1,08,1.04,160.8,M,-34.4,M,,*52
$GPRMC,225802.000,A,4305.2574,N,07740.8157,W,17.93,86.28,270825,,,A*78
$GPGGA,225802.250,4305.2575,N,07740.8141,W,1,08,1.04,160.9,M,-34.4,M,,*54
$GPRMC,225802.500,A,4305.2576,N,07740.8125,W,17.59,86.62,270825,,,A*72
$GPGGA,225802.750,4305.2577,N,07740.8109,W,1,08,1.04,161.0,M,-34.4,M,,*57
$GPRMC,225803.000,A,4305.2578,N,07740.8093,W,17.35,87.13,270825,,,A*79
$GPGGA,225803.250,4305.2579,N,07740.8078,W,1,08,1.04,161.1,M,-34.4,M,,*5B
$GPRMC,225803.500,A,4305.2580,N,07740.8062,W,17.06,87.95,270825,,,A*7B
$GPGGA,225803.750,4305.2581,N,07740.8047,W,1,08,1.04,161.3,M,-34.4,M,,*57
$GPRMC,225804.000,A,4305.2581,N,07740.8032,W,16.43,87.56,270825,,,A*72
$GPGGA,225804.250,4305.2581,N,07740.8016,W,1,08,1.04,161.3,M,-34.4,M,,*51
$GPRMC,225804.500,A,4305.2581,N,07740.8000,W,16.45,88.49,270825,,,A*71
$GPGGA,225804.750,4305.2581,N,07740.7985,W,1,08,1.04,161.4,M,-34.4,M,,*5F
$GPRMC,225805.000,A,4305.2581,N,07740.7969,W,16.20,88.89,270825,,,A*73
$GPGGA,225805.250,4305.2581,N,07740.7954,W,1,08,1.04,161.4,M,-34.4,M,,*57
$GPRMC,225805.500,A,4305.2581,N,07740.7939,W,16.24,88.61,270825,,,A*71
$GPGGA,225805.750,4305.2582,N,07740.7924,W,1,08,1.04,161.4,M,-34.4,M,,*56
$GPRMC,225806.000,A,4305.2582,N,07740.7909,W,16.27,89.33,270825,,,A*72
$GPGGA,225806.250,4305.2582,N,07740.7895,W,1,08,1.04,161.5,M,-34.4,M,,*5A
$GPRMC,225806.500,A,4305.2582,N,07740.7882,W,16.21,89.13,270825,,,A*71
$GPGGA,225806.750,4305.2583,N,07740.7867,W,1,08,1.04,161.6,M,-34.4,M,,*50
$GPRMC,225807.000,A,4305.2583,N,07740.7854,W,15.73,89.28,270825,,,A*73
$GPGGA,225807.250,4305.2584,N,07740.7839,W,1,08,1.04,161.6,M,-34.4,M,,*58
$GPRMC,225807.500,A,4305.2584,N,07740.7825,W,15.52,89.20,270825,,,A*7C
$GPGGA,225807.750,4305.2584,N,07740.7811,W,1,08,1.04,161.7,M,-34.4,M,,*56
$GPRMC,225808.000,A,4305.2584,N,07740.7797,W,15.27,89.32,270825,,,A*71
$GPGGA,225808.250,4305.2583,N,07740.7783,W,1,08,1.04,161.7,M,-34.4,M,,*5F
$GPRMC,225808.500,A,4305.2583,N,07740.7769,W,14.94,89.05,270825,,,A*7F
$GPGGA,225808.750,4305.2584,N,07740.7755,W,1,08,1.04,161.8,M,-34.4,M,,*59
$GPRMC,225809.000,A,4305.2584,N,07740.7741,W,14.74,89.65,270825,,,A*7E
$GPGGA,225809.250,4305.2584,N,07740.7728,W,1,08,1.04,161.8,M,-34.4,M,,*57
$GPRMC,225809.500,A,4305.2584,N,07740.7714,W,13.54,89.49,270825,,,A*70
$GPGGA,225809.750,4305.2584,N,07740.7702,W,1,08,1.04,161.8,M,-34.4,M,,*5A
$GPRMC,225810.000,A,4305.2584,N,07740.7690,W,11.79,90.05,270825,,,A*7D
$GPGGA,225810.250,4305.2585,N,07740.7680,W,1,08,1.04,161.8,M,-34.4,M,,*5D
$GPRMC,225810.500,A,4305.2585,N,07740.7670,W,10.15,89.50,270825,,,A*74
$GPGGA,225810.750,4305.2585,N,07740.7660,W,1,08,1.04,161.8,M,-34.4,M,,*56
$GPRMC,225811.000,A,4305.2585,N,07740.7652,W,8.35,89.55,270825,,,A*4E
$GPGGA,225811.250,4305.2585,N,07740.7644,W,1,08,1.04,161.8,M,-34.4,M,,*54
$GPRMC,225811.500,A,4305.2585,N,07740.7637,W,6.54,88.72,270825,,,A*45
$GPGGA,225811.750,4305.2585,N,07740.7631,W,1,08,1.04,161.8,M,-34.4,M,,*53
$GPRMC,225812.000,A,4305.2585,N,07740.7626,W,5.00,89.47,270825,,,A*46
$GPGGA,225812.250,4305.2585,N,07740.7621,W,1,08,1.04,161.8,M,-34.4,M,,*54
$GPRMC,225812.500,A,4305.2585,N,07740.7616,W,4.93,89.62,270825,,,A*4C
$GPGGA,225812.750,4305.2585,N,07740.7611,W,1,08,1.04,161.8,M,-34.4,M,,*52
$GPRMC,225813.000,A,4305.2585,N,07740.7606,W,5.20,89.17,270825,,,A*42
$GPGGA,225813.250,4305.2585,N,07740.7601,W,1,08,1.04,161.9,M,-34.4,M,,*56
$GPRMC,225813.500,A,4305.2585,N,07740.7595,W,6.11,90.21,270825,,,A*42
$GPGGA,225813.750,4305.2585,N,07740.7589,W,1,08,1.04,161.9,M,-34.4,M,,*50
$GPRMC,225814.000,A,4305.2585,N,07740.7583,W,7.05,89.63,270825,,,A*4D
$GPGGA,225814.250,4305.2585,N,07740.7576,W,1,08,1.04,161.9,M,-34.4,M,,*52
$GPRMC,225814.500,A,4305.2585,N,07740.7569,W,7.75,89.11,270825,,,A*4E
$GPGGA,225814.750,4305.2585,N,07740.7561,W,1,08,1.04,161.9,M,-34.4,M,,*51
$GPRMC,225815.000,A,4305.2585,N,07740.7553,W,8.60,89.19,270825,,,A*40
$GPGGA,225815.250,4305.2585,N,07740.7545,W,1,08,1.04,162.0,M,-34.4,M,,*59
$GPRMC,225815.500,A,4305.2585,N,07740.7536,W,9.29,88.30,270825,,,A*40
$GPGGA,225815.750,4305.2585,N,07740.7527,W,1,08,1.04,162.1,M,-34.4,M,,*59
$GPRMC,225816.000,A,4305.2585,N,07740.7518,W,9.99,88.62,270825,,,A*46
$GPGGA,225816.250,4305.2585,N,07740.7509,W,1,08,1.04,162.1,M,-34.4,M,,*53
$GPRMC,225816.500,A,4305.2585,N,07740.7499,W,10.82,88.88,270825,,,A*7D
$GPGGA,225816.750,4305.2585,N,07740.7488,W,1,08,1.04,162.2,M,-34.4,M,,*5D
$GPRMC,225817.000,A,4305.2585,N,07740.7477,W,11.43,88.07,270825,,,A*72
$GPGGA,225817.250,4305.2585,N,07740.7466,W,1,08,1.04,162.3,M,-34.4,M,,*58
$GPRMC,225817.500,A,4305.2586,N,07740.7455,W,12.04,88.57,270825,,,A*71
$GPGGA,225817.750,4305.2586,N,07740.7443,W,1,08,1.04,162.3,M,-34.4,M,,*59
$GPRMC,225818.000,A,4305.2586,N,07740.7431,W,12.76,88.56,270825,,,A*7D
$GPGGA,225818.250,4305.2586,N,07740.7419,W,1,08,1.04,162.3,M,-34.4,M,,*5C
$GPRMC,225818.500,A,4305.2587,N,07740.7406,W,13.35,88.30,270825,,,A*7B
$GPGGA,225818.750,4305.2587,N,07740.7393,W,1,08,1.04,162.3,M,-34.4,M,,*5D
$GPRMC,225819.000,A,4305.2588,N,07740.7380,W,13.95,88.44,270825,,,A*70
$GPGGA,225819.250,4305.2588,N,07740.7367,W,1,08,1.04,162.4,M,-34.4,M,,*5A
$GPRMC,225819.500,A,4305.2589,N,07740.7353,W,14.61,88.60,270825,,,A*70
$GPGGA,225819.750,4305.2589,N,07740.7339,W,1,08,1.04,162.4,M,-34.4,M,,*55
$GPRMC,225820.000,A,4305.2589,N,07740.7324,W,15.17,88.79,270825,,,A*77
$GPGGA,225820.250,4305.2590,N,07740.7310,W,1,08,1.04,162.5,M,-34.4,M,,*58
$GPRMC,225820.500,A,4305.2590,N,07740.7295,W,15.72,88.76,270825,,,A*7D
$GPGGA,225820.750,4305.2590,N,07740.7280,W,1,08,1.04,162.5,M,-34.4,M,,*55
$GPRMC,225821.000,A,4305.2591,N,07740.7264,W,16.12,88.93,270825,,,A*78
$GPGGA,225821.250,4305.2591,N,07740.7249,W,1,08,1.04,162.5,M,-34.4,M,,*55
$GPRMC,225821.500,A,4305.2591,N,07740.7233,W,16.77,88.75,270825,,,A*74
$GPGGA,225821.750,4305.2591,N,07740.7217,W,1,08,1.04,162.5,M,-34.4,M,,*5B
$GPRMC,225822.000,A,4305.2592,N,07740.7201,W,17.18,89.31,270825,,,A*79
$GPGGA,225822.250,4305.2593,N,07740.7185,W,1,08,1.04,162.6,M,-34.4,M,,*54
$GPRMC,225822.500,A,4305.2593,N,07740.7168,W,17.62,89.10,270825,,,A*7F
$GPGGA,225822.750,4305.2594,N,07740.7152,W,1,08,1.04,162.6,M,-34.4,M,,*5C
$GPRMC,225823.000,A,4305.2594,N,07740.7134,W,18.09,88.85,270825,,,A*7A
$GPGGA,225823.250,4305.2594,N,07740.7117,W,1,08,1.04,162.6,M,-34.4,M,,*59
$GPRMC,225823.500,A,4305.2595,N,07740.7099,W,18.58,89.05,270825,,,A*75
$GPGGA,225823.750,4305.2595,N,07740.7081,W,1,08,1.04,162.7,M,-34.4,M,,*52
$GPRMC,225824.000,A,4305.2596,N,07740.7063,W,18.54,89.11,270825,,,A*78
$GPGGA,225824.250,4305.2596,N,07740.7046,W,1,08,1.04,162.8,M,-34.4,M,,*57
$GPRMC,225824.500,A,4305.2596,N,07740.7029,W,18.12,89.15,270825,,,A*75
$GPGGA,225824.750,4305.2597,N,07740.7012,W,1,08,1.04,162.8,M,-34.4,M,,*52
$GPRMC,225825.000,A,4305.2597,N,07740.6994,W,17.93,89.40,270825,,,A*78
$GPGGA,225825.250,4305.2596,N,07740.6977,W,1,08,1.04,162.9,M,-34.4,M,,*5D
$GPRMC,225825.500,A,4305.2596,N,07740.6961,W,17.50,89.12,270825,,,A*7E
$GPGGA,225825.750,4305.2596,N,07740.6945,W,1,08,1.04,163.0,M,-34.4,M,,*51
$GPRMC,225826.000,A,4305.2596,N,07740.6930,W,17.12,89.25,270825,,,A*7E
$GPGGA,225826.250,4305.2597,N,07740.6914,W,1,08,1.04,163.0,M,-34.4,M,,*52
$GPRMC,225826.500,A,4305.2597,N,07740.6899,W,16.45,88.79,270825,,,A*73
$GPGGA,225826.750,4305.2597,N,07740.6884,W,1,08,1.04,163.1,M,-34.4,M,,*5E
$GPRMC,225827.000,A,4305.2597,N,07740.6868,W,16.78,88.66,270825,,,A*79
$GPGGA,225827.250,4305.2598,N,07740.6853,W,1,08,1.04,163.2,M,-34.4,M,,*5C
$GPRMC,225827.500,A,4305.2598,N,07740.6836,W,16.88,88.86,270825,,,A*79
$GPGGA,225827.750,4305.2599,N,07740.6820,W,1,08,1.04,163.2,M,-34.4,M,,*5C
$GPRMC,225828.000,A,4305.2599,N,07740.6804,W,16.92,88.69,270825,,,A*79
$GPGGA,225828.250,4305.2599,N,07740.6787,W,1,08,1.04,163.3,M,-34.4,M,,*55
$GPRMC,225828.500,A,4305.2599,N,07740.6771,W,17.35,88.07,270825,,,A*75
$GPGGA,225828.750,4305.2599,N,07740.6755,W,1,08,1.04,163.4,M,-34.4,M,,*58
$GPRMC,225829.000,A,4305.2600,N,07740.6738,W,17.58,88.57,270825,,,A*71
$GPGGA,225829.250,4305.2600,N,07740.6721,W,1,08,1.04,163.4,M,-34.4,M,,*5C
$GPRMC,225829.500,A,4305.2600,N,07740.6704,W,17.87,88.56,270825,,,A*78
$GPGGA,225829.750,4305.2600,N,07740.6688,W,1,08,1.04,163.4,M,-34.4,M,,*5B
$GPRMC,225830.000,A,4305.2600,N,07740.6671,W,17.93,88.47,270825,,,A*73
$GPGGA,225830.250,4305.2600,N,07740.6654,W,1,08,1.04,163.4,M,-34.4,M,,*57
$GPRMC,225830.500,A,4305.2600,N,07740.6637,W,18.02,88.58,270825,,,A*7D
$GPGGA,225830.750,4305.2600,N,07740.6619,W,1,08,1.04,163.5,M,-34.4,M,,*5A
$GPRMC,225831.000,A,4305.2600,N,07740.6602,W,18.10,88.85,270825,,,A*7C
$GPGGA,225831.250,4305.2600,N,07740.6585,W,1,08,1.04,163.5,M,-34.4,M,,*58
$GPRMC,225831.500,A,4305.2600,N,07740.6567,W,18.28,89.45,270825,,,A*7F
$GPGGA,225831.750,4305.2600,N,07740.6550,W,1,08,1.04,163.6,M,-34.4,M,,*56
$GPRMC,225832.000,A,4305.2601,N,07740.6532,W,18.35,89.11,270825,,,A*75
$GPGGA,225832.250,4305.2601,N,07740.6515,W,1,08,1.04,163.6,M,-34.4,M,,*50
$GPRMC,225832.500,A,4305.2601,N,07740.6498,W,18.18,88.55,270825,,,A*7F
$GPGGA,225832.750,4305.2601,N,07740.6480,W,1,08,1.04,163.6,M,-34.4,M,,*58
$GPRMC,225833.000,A,4305.2601,N,07740.6463,W,18.42,89.12,270825,,,A*72
$GPGGA,225833.250,4305.2602,N,07740.6445,W,1,08,1.04,163.5,M,-34.4,M,,*55
$GPRMC,225833.500,A,4305.2602,N,07740.6428,W,18.50,88.94,270825,,,A*77
$GPGGA,225833.750,4305.2602,N,07740.6410,W,1,08,1.04,163.6,M,-34.4,M,,*53
$GPRMC,225834.000,A,4305.2602,N,07740.6392,W,18.18,88.52,270825,,,A*75
$GPGGA,225834.250,4305.2602,N,07740.6375,W,1,08,1.04,163.6,M,-34.4,M,,*55
$GPRMC,225834.500,A,4305.2603,N,07740.6358,W,17.91,88.80,270825,,,A*76
$GPGGA,225834.750,4305.2603,N,07740.6341,W,1,08,1.04,163.7,M,-34.4,M,,*57
$GPRMC,225835.000,A,4305.2603,N,07740.6325,W,16.89,88.49,270825,,,A*75
$GPGGA,225835.250,4305.2603,N,07740.6308,W,1,08,1.04,163.7,M,-34.4,M,,*5E
$GPRMC,225835.500,A,4305.2603,N,07740.6293,W,15.74,88.59,270825,,,A*7C
$GPGGA,225835.750,4305.2604,N,07740.6277,W,1,08,1.04,163.8,M,-34.4,M,,*5A
$GPRMC,225836.000,A,4305.2604,N,07740.6263,W,14.60,88.63,270825,,,A*7F
$GPGGA,225836.250,4305.2604,N,07740.6250,W,1,08,1.04,163.7,M,-34.4,M,,*56
$GPRMC,225836.500,A,4305.2604,N,07740.6236,W,13.28,88.75,270825,,,A*76
$GPGGA,225836.750,4305.2604,N,07740.6224,W,1,08,1.04,163.8,M,-34.4,M,,*5F
$GPRMC,225837.000,A,4305.2604,N,07740.6212,W,12.10,88.77,270825,,,A*7C
$GPGGA,225837.250,4305.2604,N,07740.6201,W,1,08,1.04,163.9,M,-34.4,M,,*5D
$GPRMC,225837.500,A,4305.2604,N,07740.6191,W,10.45,88.52,270825,,,A*74
$GPGGA,225837.750,4305.2604,N,07740.6182,W,1,08,1.05,163.9,M,-34.4,M,,*51
$GPRMC,225838.000,A,4305.2604,N,07740.6173,W,8.49,87.87,270825,,,A*40
$GPGGA,225838.250,4305.2604,N,07740.6165,W,1,08,1.04,163.9,M,-34.4,M,,*53
$GPRMC,225838.500,A,4305.2604,N,07740.6159,W,6.67,88.09,270825,,,A*46
$GPGGA,225838.750,4305.2604,N,07740.6153,W,1,08,1.04,163.9,M,-34.4,M,,*53
$GPRMC,225839.000,A,4305.2604,N,07740.6148,W,5.03,88.66,270825,,,A*4A
$GPGGA,225839.250,4305.2604,N,07740.6144,W,1,08,1.04,163.9,M,-34.4,M,,*51
$GPRMC,225839.500,A,4305.2604,N,07740.6140,W,4.58,87.74,270825,,,A*44
$GPGGA,225839.750,4305.2604,N,07740.6136,W,1,08,1.04,163.9,M,-34.4,M,,*51
$GPRMC,225840.000,A,4305.2604,N,07740.6131,W,4.58,90.14,270825,,,A*49
$GPGGA,225840.250,4305.2604,N,07740.6127,W,1,08,1.05,163.9,M,-34.4,M,,*5B
$GPRMC,225840.500,A,4305.2604,N,07740.6122,W,5.18,87.59,270825,,,A*44
$GPGGA,225840.750,4305.2604,N,07740.6117,W,1,08,1.05,163.9,M,-34.4,M,,*5D
$GPRMC,225841.000,A,4305.2604,N,07740.6112,W,6.18,88.78,270825,,,A*4C
$GPGGA,225841.250,4305.2604,N,07740.6106,W,1,08,1.05,163.9,M,-34.4,M,,*59
$GPRMC,225841.500,A,4305.2604,N,07740.6099,W,7.04,87.41,270825,,,A*42
$GPGGA,225841.750,4305.2604,N,07740.6092,W,1,08,1.05,163.9,M,-34.4,M,,*50
$GPRMC,225842.000,A,4305.2604,N,07740.6085,W,7.98,88.18,270825,,,A*4F
$GPGGA,225842.250,4305.2605,N,07740.6077,W,1,08,1.04,163.9,M,-34.4,M,,*5D
$GPRMC,225842.500,A,4305.2605,N,07740.6068,W,8.78,87.66,270825,,,A*4F
$GPGGA,225842.750,4305.2605,N,07740.6059,W,1,08,1.05,164.0,M,-34.4,M,,*5B
$GPRMC,225843.000,A,4305.2605,N,07740.6050,W,9.60,87.66,270825,,,A*48
$GPGGA,225843.250,4305.2605,N,07740.6040,W,1,08,1.05,164.0,M,-34.4,M,,*57
$GPRMC,225843.500,A,4305.2605,N,07740.6030,W,10.36,87.87,270825,,,A*7F
$GPGGA,225843.750,4305.2605,N,07740.6020,W,1,08,1.05,164.0,M,-34.4,M,,*54
$GPRMC,225844.000,A,4305.2605,N,07740.6009,W,10.98,87.40,270825,,,A*78
$GPGGA,225844.250,4305.2606,N,07740.5999,W,1,08,1.05,164.0,M,-34.4,M,,*5D
$GPRMC,225844.500,A,4305.2606,N,07740.5988,W,11.68,87.94,270825,,,A*7A
$GPGGA,225844.750,4305.2607,N,07740.5977,W,1,08,1.05,164.1,M,-34.4,M,,*58
$GPRMC,225845.000,A,4305.2608,N,07740.5966,W,12.35,87.69,270825,,,A*79
$GPGGA,225845.250,4305.2608,N,07740.5953,W,1,08,1.04,164.1,M,-34.4,M,,*54
$GPRMC,225845.500,A,4305.2609,N,07740.5941,W,12.98,87.56,270825,,,A*73
$GPGGA,225845.750,4305.2609,N,07740.5929,W,1,08,1.05,164.1,M,-34.4,M,,*5C
$GPRMC,225846.000,A,4305.2610,N,07740.5916,W,13.58,87.94,270825,,,A*7C
$GPGGA,225846.250,4305.2610,N,07740.5903,W,1,08,1.05,164.2,M,-34.4,M,,*59
$GPRMC,225846.500,A,4305.2610,N,07740.5890,W,14.26,88.54,270825,,,A*7B
$GPGGA,225846.750,4305.2611,N,07740.5876,W,1,08,1.05,164.2,M,-34.4,M,,*5E
$GPRMC,225847.000,A,4305.2611,N,07740.5862,W,14.77,88.54,270825,,,A*77
$GPGGA,225847.250,4305.2612,N,07740.5848,W,1,08,1.05,164.2,M,-34.4,M,,*54
$GPRMC,225847.500,A,4305.2612,N,07740.5833,W,15.30,88.36,270825,,,A*73
$GPGGA,225847.750,4305.2612,N,07740.5819,W,1,08,1.05,164.3,M,-34.4,M,,*54
$GPRMC,225848.000,A,4305.2613,N,07740.5804,W,15.84,88.69,270825,,,A*79
$GPGGA,225848.250,4305.2613,N,07740.5789,W,1,08,1.05,164.3,M,-34.4,M,,*59
$GPRMC,225848.500,A,4305.2613,N,07740.5774,W,16.35,88.98,270825,,,A*73
$GPGGA,225848.750,4305.2614,N,07740.5758,W,1,08,1.05,164.3,M,-34.4,M,,*57
$GPRMC,225849.000,A,4305.2614,N,07740.5743,W,16.76,88.85,270825,,,A*7F
$GPGGA,225849.250,4305.2614,N,07740.5727,W,1,08,1.05,164.4,M,-34.4,M,,*5C
$GPRMC,225849.500,A,4305.2615,N,07740.5710,W,17.14,89.13,270825,,,A*76
$GPGGA,225849.750,4305.2615,N,07740.5694,W,1,08,1.05,164.4,M,-34.4,M,,*51
$GPRMC,225850.000,A,4305.2615,N,07740.5678,W,17.01,88.98,270825,,,A*72
$GPGGA,225850.250,4305.2615,N,07740.5662,W,1,08,1.05,164.4,M,-34.4,M,,*55
$GPRMC,225850.500,A,4305.2616,N,07740.5646,W,16.94,89.73,270825,,,A*70
$GPGGA,225850.750,4305.2616,N,07740.5631,W,1,08,1.05,164.4,M,-34.4,M,,*55
$GPRMC,225851.000,A,4305.2617,N,07740.5617,W,16.50,89.89,270825,,,A*7C
$GPGGA,225851.250,4305.2617,N,07740.5602,W,1,08,1.05,164.4,M,-34.4,M,,*50
$GPRMC,225851.500,A,4305.2617,N,07740.5585,W,16.17,89.46,270825,,,A*71
$GPGGA,225851.750,4305.2617,N,07740.5570,W,1,08,1.05,164.5,M,-34.4,M,,*52
$GPRMC,225852.000,A,4305.2618,N,07740.5554,W,15.89,89.26,270825,,,A*76
$GPGGA,225852.250,4305.2618,N,07740.5540,W,1,08,1.05,164.5,M,-34.4,M,,*58
$GPRMC,225852.500,A,4305.2618,N,07740.5525,W,15.66,89.28,270825,,,A*7A
$GPGGA,225852.750,4305.2618,N,07740.5510,W,1,08,1.05,164.6,M,-34.4,M,,*5B
$GPRMC,225853.000,A,4305.2618,N,07740.5496,W,15.23,89.50,270825,,,A*79
$GPGGA,225853.250,4305.2618,N,07740.5482,W,1,08,1.05,164.6,M,-34.4,M,,*55
$GPRMC,225853.500,A,4305.2618,N,07740.5467,W,14.99,89.57,270825,,,A*75
$GPGGA,225853.750,4305.2618,N,07740.5453,W,1,08,1.05,164.6,M,-34.4,M,,*5C
$GPRMC,225854.000,A,4305.2619,N,07740.5439,W,14.81,90.05,270825,,,A*7B
$GPGGA,225854.250,4305.2619,N,07740.5426,W,1,08,1.05,164.7,M,-34.4,M,,*5C
$GPRMC,225854.500,A,4305.2619,N,07740.5412,W,14.23,89.24,270825,,,A*74
$GPGGA,225854.750,4305.2619,N,07740.5399,W,1,08,1.05,164.7,M,-34.4,M,,*5A
$GPRMC,225855.000,A,4305.2619,N,07740.5385,W,14.16,89.45,270825,,,A*78
$GPGGA,225855.250,4305.2619,N,07740.5372,W,1,08,1.05,164.6,M,-34.4,M,,*5A
$GPRMC,225855.500,A,4305.2619,N,07740.5360,W,13.57,88.63,270825,,,A*71
$GPGGA,225855.750,4305.2619,N,07740.5347,W,1,08,1.05,164.7,M,-34.4,M,,*58
$GPRMC,225856.000,A,4305.2619,N,07740.5334,W,13.49,91.18,270825,,,A*7D
$GPGGA,225856.250,4305.2619,N,07740.5322,W,1,08,1.05,164.9,M,-34.4,M,,*53
$GPRMC,225856.500,A,4305.2619,N,07740.5310,W,12.50,87.70,270825,,,A*7E
$GPGGA,225856.750,4305.2619,N,07740.5298,W,1,08,1.05,164.8,M,-34.4,M,,*57
$GPRMC,225857.000,A,4305.2619,N,07740.5286,W,12.08,87.86,270825,,,A*70
$GPGGA,225857.250,4305.2619,N,07740.5275,W,1,08,1.05,164.7,M,-34.4,M,,*5F
$GPRMC,225857.500,A,4305.2619,N,07740.5263,W,12.18,88.33,270825,,,A*7E
$GPGGA,225857.750,4305.2620,N,07740.5252,W,1,08,1.05,164.7,M,-34.4,M,,*55
$GPRMC,225858.000,A,4305.2619,N,07740.5240,W,12.44,89.33,270825,,,A*7D
$GPGGA,225858.250,4305.2619,N,07740.5229,W,1,08,1.05,164.7,M,-34.4,M,,*59
$GPRMC,225858.500,A,4305.2619,N,07740.5217,W,12.34,88.29,270825,,,A*77
$GPGGA,225858.750,4305.2619,N,07740.5205,W,1,08,1.05,164.7,M,-34.4,M,,*52
$GPRMC,225859.000,A,4305.2619,N,07740.5193,W,12.05,88.12,270825,,,A*76
$GPGGA,225859.250,4305.2619,N,07740.5182,W,1,08,1.05,164.8,M,-34.4,M,,*55
$GPRMC,225859.500,A,4305.2619,N,07740.5170,W,12.13,87.42,270825,,,A*73
$GPGGA,225859.750,4305.2619,N,07740.5158,W,1,08,1.05,164.7,M,-34.4,M,,*58
$GPRMC,225900.000,A,4305.2619,N,07740.5146,W,12.71,87.90,270825,,,A*75
$GPGGA,225900.250,4305.2620,N,07740.5135,W,1,08,1.05,164.7,M,-34.4,M,,*51
$GPRMC,225900.500,A,4305.2620,N,07740.5123,W,12.78,88.43,270825,,,A*71
$GPGGA,225900.750,4305.2620,N,07740.5111,W,1,08,1.05,164.7,M,-34.4,M,,*52
$GPRMC,225901.000,A,4305.2620,N,07740.5099,W,12.81,87.84,270825,,,A*77
$GPGGA,225901.250,4305.2621,N,07740.5086,W,1,08,1.05,164.8,M,-34.4,M,,*57
$GPRMC,225901.500,A,4305.2621,N,07740.5074,W,13.16,88.45,270825,,,A*7D
$GPGGA,225901.750,4305.2621,N,07740.5062,W,1,08,1.05,164.7,M,-34.4,M,,*57
$GPRMC,225902.000,A,4305.2621,N,07740.5049,W,13.65,89.83,270825,,,A*7A
$GPGGA,225902.250,4305.2622,N,07740.5036,W,1,08,1.05,164.8,M,-34.4,M,,*5C
$GPRMC,225902.500,A,4305.2622,N,07740.5023,W,13.77,90.78,270825,,,A*7F
$GPGGA,225902.750,4305.2622,N,07740.5010,W,1,08,1.05,164.8,M,-34.4,M,,*5D
$GPRMC,225903.000,A,4305.2622,N,07740.4997,W,13.82,91.85,270825,,,A*75
$GPGGA,225903.250,4305.2622,N,07740.4985,W,1,08,1.05,164.9,M,-34.4,M,,*5C
$GPRMC,225903.500,A,4305.2622,N,07740.4972,W,13.90,93.01,270825,,,A*76
$GPGGA,225903.750,4305.2621,N,07740.4959,W,1,08,1.05,164.9,M,-34.4,M,,*5B
$GPRMC,225904.000,A,4305.2621,N,07740.4946,W,14.01,94.27,270825,,,A*7C
$GPGGA,225904.250,4305.2620,N,07740.4933,W,1,08,1.05,164.9,M,-34.4,M,,*54
$GPRMC,225904.500,A,4305.2619,N,07740.4921,W,14.27,97.63,270825,,,A*74
$GPGGA,225904.750,4305.2618,N,07740.4908,W,1,08,1.05,165.0,M,-34.4,M,,*5A
$GPRMC,225905.000,A,4305.2616,N,07740.4895,W,14.51,101.49,270825,,,A*46
$GPGGA,225905.250,4305.2614,N,07740.4882,W,1,08,1.05,165.0,M,-34.4,M,,*51
$GPRMC,225905.500,A,4305.2612,N,07740.4868,W,14.52,106.82,270825,,,A*46
$GPGGA,225905.750,4305.2607,N,07740.4855,W,1,08,1.05,165.1,M,-34.4,M,,*5D
$GPRMC,225906.000,A,4305.2602,N,07740.4843,W,14.80,114.64,270825,,,A*4C
$GPGGA,225906.250,4305.2597,N,07740.4830,W,1,08,1.05,165.2,M,-34.4,M,,*51
$GPRMC,225906.500,A,4305.2592,N,07740.4818,W,14.61,121.82,270825,,,A*4C
$GPGGA,225906.750,4305.2586,N,07740.4806,W,1,08,1.05,165.3,M,-34.4,M,,*50
$GPRMC,225907.000,A,4305.2580,N,07740.4795,W,14.61,122.25,270825,,,A*4F
$GPGGA,225907.250,4305.2575,N,07740.4783,W,1,08,1.05,165.3,M,-34.4,M,,*5A
$GPRMC,225907.500,A,4305.2571,N,07740.4770,W,14.61,114.19,270825,,,A*45
$GPGGA,225907.750,4305.2567,N,07740.4756,W,1,08,1.05,165.2,M,-34.4,M,,*55
$GPRMC,225908.000,A,4305.2564,N,07740.4742,W,15.33,107.25,270825,,,A*41
$GPGGA,225908.250,4305.2562,N,07740.4728,W,1,08,1.05,165.1,M,-34.4,M,,*50
$GPRMC,225908.500,A,4305.2561,N,07740.4713,W,15.67,97.18,270825,,,A*72
$GPGGA,225908.750,4305.2562,N,07740.4699,W,1,08,1.05,164.8,M,-34.4,M,,*56
$GPRMC,225909.000,A,4305.2564,N,07740.4685,W,15.68,82.63,270825,,,A*7A
$GPGGA,225909.250,4305.2566,N,07740.4669,W,1,08,1.05,164.8,M,-34.4,M,,*59
$GPRMC,225909.500,A,4305.2568,N,07740.4654,W,15.84,72.57,270825,,,A*75
$GPGGA,225909.750,4305.2572,N,07740.4639,W,1,08,1.05,164.8,M,-34.4,M,,*5C
$GPRMC,225910.000,A,4305.2577,N,07740.4625,W,16.11,63.59,270825,,,A*71
$GPGGA,225910.250,4305.2582,N,07740.4611,W,1,08,1.05,164.7,M,-34.4,M,,*5B
$GPRMC,225910.500,A,4305.2587,N,07740.4598,W,16.15,55.89,270825,,,A*72
$GPGGA,225910.750,4305.2593,N,07740.4585,W,1,08,1.05,164.6,M,-34.4,M,,*51
$GPRMC,225911.000,A,4305.2599,N,07740.4571,W,16.41,55.52,270825,,,A*79
$GPGGA,225911.250,4305.2605,N,07740.4557,W,1,08,1.05,164.6,M,-34.4,M,,*56
$GPRMC,225911.500,A,4305.2610,N,07740.4542,W,16.64,60.08,270825,,,A*70
$GPGGA,225911.750,4305.2615,N,07740.4528,W,1,08,1.05,164.7,M,-34.4,M,,*5B
$GPRMC,225912.000,A,4305.2620,N,07740.4513,W,16.66,65.05,270825,,,A*7B
$GPGGA,225912.250,4305.2624,N,07740.4498,W,1,08,1.05,164.7,M,-34.4,M,,*55
$GPRMC,225912.500,A,4305.2629,N,07740.4484,W,16.61,70.62,270825,,,A*7A
$GPGGA,225912.750,4305.2632,N,07740.4469,W,1,08,1.05,164.6,M,-34.4,M,,*58
$GPRMC,225913.000,A,4305.2636,N,07740.4454,W,16.58,76.86,270825,,,A*7B
$GPGGA,225913.250,4305.2640,N,07740.4438,W,1,08,1.05,164.7,M,-34.4,M,,*5C
$GPRMC,225913.500,A,4305.2642,N,07740.4422,W,16.78,83.01,270825,,,A*7B
$GPGGA,225913.750,4305.2642,N,07740.4405,W,1,08,1.05,164.8,M,-34.4,M,,*5A
$GPRMC,225914.000,A,4305.2643,N,07740.4389,W,17.05,87.49,270825,,,A*7D
$GPGGA,225914.250,4305.2643,N,07740.4372,W,1,08,1.05,164.8,M,-34.4,M,,*5E
$GPRMC,225914.500,A,4305.2643,N,07740.4356,W,17.29,89.47,270825,,,A*74
$GPGGA,225914.750,4305.2643,N,07740.4340,W,1,08,1.05,164.8,M,-34.4,M,,*5A
$GPRMC,225915.000,A,4305.2643,N,07740.4324,W,17.27,90.33,270825,,,A*70
$GPGGA,225915.250,4305.2643,N,07740.4308,W,1,08,1.05,164.8,M,-34.4,M,,*52
$GPRMC,225915.500,A,4305.2643,N,07740.4292,W,17.42,90.15,270825,,,A*7E
$GPGGA,225915.750,4305.2643,N,07740.4275,W,1,08,1.05,164.8,M,-34.4,M,,*5C
$GPRMC,225916.000,A,4305.2643,N,07740.4259,W,17.76,89.39,270825,,,A*7E
$GPGGA,225916.250,4305.2643,N,07740.4242,W,1,08,1.05,164.9,M,-34.4,M,,*5F
$GPRMC,225916.500,A,4305.2643,N,07740.4225,W,17.79,88.82,270825,,,A*7E
$GPGGA,225916.750,4305.2642,N,07740.4208,W,1,08,1.05,165.0,M,-34.4,M,,*5D
$GPRMC,225917.000,A,4305.2643,N,07740.4191,W,17.91,88.69,270825,,,A*75
$GPGGA,225917.250,4305.2643,N,07740.4174,W,1,08,1.05,164.9,M,-34.4,M,,*58
$GPRMC,225917.500,A,4305.2643,N,07740.4157,W,18.12,88.39,270825,,,A*7B
$GPGGA,225917.750,4305.2643,N,07740.4139,W,1,08,1.05,165.0,M,-34.4,M,,*5C
$GPRMC,225918.000,A,4305.2643,N,07740.4122,W,18.26,88.17,270825,,,A*78
$GPGGA,225918.250,4305.2644,N,07740.4104,W,1,08,1.05,165.0,M,-34.4,M,,*5F
$GPRMC,225918.500,A,4305.2644,N,07740.4087,W,18.47,88.81,270825,,,A*7C
$GPGGA,225918.750,4305.2644,N,07740.4069,W,1,08,1.05,165.0,M,-34.4,M,,*50
$GPRMC,225919.000,A,4305.2644,N,07740.4051,W,18.85,89.80,270825,,,A*7D
$GPGGA,225919.250,4305.2644,N,07740.4034,W,1,08,1.05,164.9,M,-34.4,M,,*54
$GPRMC,225919.500,A,4305.2644,N,07740.4016,W,19.24,90.05,270825,,,A*74
$GPGGA,225919.750,4305.2644,N,07740.3998,W,1,08,1.05,165.0,M,-34.4,M,,*51
$GPRMC,225920.000,A,4305.2644,N,07740.3980,W,20.23,90.86,270825,,,A*7C
$GPGGA,225920.250,4305.2644,N,07740.3961,W,1,08,1.05,164.9,M,-34.4,M,,*50
$GPRMC,225920.500,A,4305.2644,N,07740.3942,W,20.57,91.04,270825,,,A*7F
$GPGGA,225920.750,4305.2644,N,07740.3923,W,1,08,1.05,164.9,M,-34.4,M,,*53
$GPRMC,225921.000,A,4305.2644,N,07740.3904,W,20.90,90.68,270825,,,A*79
$GPGGA,225921.250,4305.2644,N,07740.3885,W,1,08,1.05,164.9,M,-34.4,M,,*5A
$GPRMC,225921.500,A,4305.2644,N,07740.3866,W,20.92,90.34,270825,,,A*72
$GPGGA,225921.750,4305.2645,N,07740.3847,W,1,08,1.05,164.8,M,-34.4,M,,*51
$GPRMC,225922.000,A,4305.2645,N,07740.3828,W,20.98,89.52,270825,,,A*7D
$GPGGA,225922.250,4305.2645,N,07740.3809,W,1,07,1.14,164.8,M,-34.4,M,,*52
$GPRMC,225922.500,A,4305.2645,N,07740.3789,W,21.06,88.90,270825,,,A*75
$GPGGA,225922.750,4305.2646,N,07740.3769,W,1,07,1.15,164.7,M,-34.4,M,,*53
$GPRMC,225923.000,A,4305.2646,N,07740.3750,W,21.13,87.52,270825,,,A*73
$GPGGA,225923.250,4305.2647,N,07740.3730,W,1,07,1.15,164.7,M,-34.4,M,,*5A
$GPRMC,225923.500,A,4305.2648,N,07740.3710,W,21.24,86.51,270825,,,A*7A
$GPGGA,225923.750,4305.2649,N,07740.3690,W,1,07,1.15,164.7,M,-34.4,M,,*5A
$GPRMC,225924.000,A,4305.2650,N,07740.3670,W,21.34,85.64,270825,,,A*72
$GPGGA,225924.250,4305.2651,N,07740.3649,W,1,07,1.15,164.7,M,-34.4,M,,*55
$GPRMC,225924.500,A,4305.2652,N,07740.3629,W,21.58,84.55,270825,,,A*70
$GPGGA,225924.750,4305.2654,N,07740.3609,W,1,07,1.15,164.6,M,-34.4,M,,*50
$GPRMC,225925.000,A,4305.2655,N,07740.3588,W,21.87,84.24,270825,,,A*7F
$GPGGA,225925.250,4305.2657,N,07740.3567,W,1,08,1.05,164.6,M,-34.4,M,,*52
$GPRMC,225925.500,A,4305.2659,N,07740.3547,W,22.09,84.18,270825,,,A*7F
$GPGGA,225925.750,4305.2660,N,07740.3526,W,1,08,1.05,164.6,M,-34.4,M,,*56
$GPRMC,225926.000,A,4305.2662,N,07740.3505,W,22.45,83.50,270825,,,A*74
$GPGGA,225926.250,4305.2664,N,07740.3484,W,1,08,1.05,164.6,M,-34.4,M,,*5D
$GPRMC,225926.500,A,4305.2666,N,07740.3463,W,22.51,83.46,270825,,,A*76
$GPGGA,225926.750,4305.2668,N,07740.3442,W,1,08,1.05,164.5,M,-34.4,M,,*5D
$GPRMC,225927.000,A,4305.2670,N,07740.3420,W,22.82,83.13,270825,,,A*7C
$GPGGA,225927.250,4305.2672,N,07740.3399,W,1,08,1.05,164.4,M,-34.4,M,,*52
$GPRMC,225927.500,A,4305.2674,N,07740.3378,W,22.92,82.44,270825,,,A*75
$GPGGA,225927.750,4305.2676,N,07740.3356,W,1,08,1.05,164.4,M,-34.4,M,,*50
$GPRMC,225928.000,A,4305.2678,N,07740.3334,W,23.22,81.91,270825,,,A*7A
$GPGGA,225928.250,4305.2681,N,07740.3312,W,1,08,1.05,164.3,M,-34.4,M,,*55
$GPRMC,225928.500,A,4305.2683,N,07740.3290,W,23.34,81.29,270825,,,A*70
$GPGGA,225928.750,4305.2686,N,07740.3268,W,1,08,1.05,164.3,M,-34.4,M,,*5B
$GPRMC,225929.000,A,4305.2689,N,07740.3246,W,23.62,79.96,270825,,,A*75
$GPGGA,225929.250,4305.2692,N,07740.3224,W,1,08,1.05,164.3,M,-34.4,M,,*52
$GPRMC,225929.500,A,4305.2695,N,07740.3202,W,23.85,78.56,270825,,,A*79
$GPGGA,225929.750,4305.2698,N,07740.3179,W,1,08,1.05,164.2,M,-34.4,M,,*57
$GPRMC,225930.000,A,4305.2702,N,07740.3157,W,23.93,77.36,270825,,,A*76
$GPGGA,225930.250,4305.2706,N,07740.3135,W,1,08,1.05,164.2,M,-34.4,M,,*54
$GPRMC,225930.500,A,4305.2710,N,07740.3113,W,23.98,75.89,270825,,,A*7D
$GPGGA,225930.750,4305.2714,N,07740.3091,W,1,08,1.05,164.1,M,-34.4,M,,*5E
$GPRMC,225931.000,A,4305.2718,N,07740.3069,W,23.99,75.03,270825,,,A*7E
$GPGGA,225931.250,4305.2723,N,07740.3047,W,1,08,1.05,164.1,M,-34.4,M,,*55
$GPRMC,225931.500,A,4305.2727,N,07740.3025,W,24.07,73.86,270825,,,A*74
$GPGGA,225931.750,4305.2732,N,07740.3003,W,1,07,1.15,164.0,M,-34.4,M,,*5F
$GPRMC,225932.000,A,4305.2737,N,07740.2981,W,24.13,73.38,270825,,,A*75
$GPGGA,225932.250,4305.2742,N,07740.2959,W,1,07,1.15,164.0,M,-34.4,M,,*59
$GPRMC,225932.500,A,4305.2747,N,07740.2937,W,24.19,72.68,270825,,,A*74
$GPGGA,225932.750,4305.2753,N,07740.2915,W,1,07,1.15,164.0,M,-34.4,M,,*54
$GPRMC,225933.000,A,4305.2758,N,07740.2893,W,24.21,72.13,270825,,,A*76
$GPGGA,225933.250,4305.2764,N,07740.2871,W,1,07,1.15,164.0,M,-34.4,M,,*57
$GPRMC,225933.500,A,4305.2769,N,07740.2849,W,24.22,71.16,270825,,,A*73
$GPGGA,225933.750,4305.2775,N,07740.2828,W,1,07,1.15,163.9,M,-34.4,M,,*50
$GPRMC,225934.000,A,4305.2780,N,07740.2806,W,24.36,70.48,270825,,,A*72
$GPGGA,225934.250,4305.2786,N,07740.2784,W,1,07,1.15,163.9,M,-34.4,M,,*57
$GPRMC,225934.500,A,4305.2792,N,07740.2762,W,24.35,69.45,270825,,,A*7F
$GPGGA,225934.750,4305.2798,N,07740.2741,W,1,07,1.15,163.9,M,-34.4,M,,*54
$GPRMC,225935.000,A,4305.2804,N,07740.2719,W,24.37,68.74,270825,,,A*76
$GPGGA,225935.250,4305.2811,N,07740.2698,W,1,07,1.15,163.8,M,-34.4,M,,*5A
$GPRMC,225935.500,A,4305.2817,N,07740.2676,W,24.34,67.65,270825,,,A*75
$GPGGA,225935.750,4305.2824,N,07740.2655,W,1,07,1.15,163.8,M,-34.4,M,,*58
$GPRMC,225936.000,A,4305.2831,N,07740.2633,W,24.54,66.17,270825,,,A*74
$GPGGA,225936.250,4305.2838,N,07740.2612,W,1,07,1.15,163.8,M,-34.4,M,,*50
$GPRMC,225936.500,A,4305.2845,N,07740.2591,W,24.76,64.87,270825,,,A*72
$GPGGA,225936.750,4305.2853,N,07740.2570,W,1,07,1.15,163.8,M,-34.4,M,,*5F
$GPRMC,225937.000,A,4305.2860,N,07740.2548,W,24.99,63.68,270825,,,A*72
$GPGGA,225937.250,4305.2868,N,07740.2528,W,1,07,1.15,163.8,M,-34.4,M,,*5E
$GPRMC,225937.500,A,4305.2876,N,07740.2507,W,25.03,62.58,270825,,,A*7B
$GPGGA,225937.750,4305.2884,N,07740.2486,W,1,07,1.15,163.8,M,-34.4,M,,*5C
$GPRMC,225938.000,A,4305.2893,N,07740.2465,W,25.09,61.77,270825,,,A*7B
$GPGGA,225938.250,4305.2901,N,07740.2444,W,1,07,1.15,163.8,M,-34.4,M,,*54
$GPRMC,225938.500,A,4305.2909,N,07740.2424,W,25.23,61.03,270825,,,A*72
$GPGGA,225938.750,4305.2918,N,07740.2403,W,1,07,1.15,163.8,M,-34.4,M,,*5A
$GPRMC,225939.000,A,4305.2926,N,07740.2382,W,25.25,60.19,270825,,,A*7C
$GPGGA,225939.250,4305.2935,N,07740.2361,W,1,08,1.05,163.8,M,-34.4,M,,*5C
$GPRMC,225939.500,A,4305.2943,N,07740.2340,W,25.30,60.24,270825,,,A*7E
$GPGGA,225939.750,4305.2952,N,07740.2319,W,1,07,1.15,163.8,M,-34.4,M,,*59
$GPRMC,225940.000,A,4305.2961,N,07740.2299,W,25.31,59.82,270825,,,A*77
$GPGGA,225940.250,4305.2970,N,07740.2278,W,1,07,1.15,163.8,M,-34.4,M,,*54
$GPRMC,225940.500,A,4305.2979,N,07740.2257,W,25.30,59.89,270825,,,A*73
$GPGGA,225940.750,4305.2988,N,07740.2236,W,1,07,1.15,163.8,M,-34.4,M,,*5C
$GPRMC,225941.000,A,4305.2996,N,07740.2216,W,25.34,59.90,270825,,,A*7F
$GPGGA,225941.250,4305.3005,N,07740.2195,W,1,07,1.15,163.8,M,-34.4,M,,*5F
$GPRMC,225941.500,A,4305.3014,N,07740.2174,W,25.55,60.54,270825,,,A*7A
$GPGGA,225941.750,4305.3023,N,07740.2153,W,1,08,1.05,163.8,M,-34.4,M,,*5A
$GPRMC,225942.000,A,4305.3032,N,07740.2132,W,25.55,60.20,270825,,,A*79
$GPGGA,225942.250,4305.3040,N,07740.2111,W,1,08,1.05,163.9,M,-34.4,M,,*5E
$GPRMC,225942.500,A,4305.3049,N,07740.2089,W,25.62,59.91,270825,,,A*75
$GPGGA,225942.750,4305.3058,N,07740.2068,W,1,08,1.05,163.9,M,-34.4,M,,*5D
$GPRMC,225943.000,A,4305.3067,N,07740.2047,W,25.79,60.03,270825,,,A*74
$GPGGA,225943.250,4305.3076,N,07740.2026,W,1,08,1.05,163.9,M,-34.4,M,,*5F
$GPRMC,225943.500,A,4305.3085,N,07740.2004,W,25.84,59.79,270825,,,A*7F
$GPGGA,225943.750,4305.3094,N,07740.1983,W,1,08,1.05,163.9,M,-34.4,M,,*53
$GPRMC,225944.000,A,4305.3103,N,07740.1962,W,26.05,60.32,270825,,,A*77
$GPGGA,225944.250,4305.3112,N,07740.1940,W,1,07,1.15,164.0,M,-34.4,M,,*51
$GPRMC,225944.500,A,4305.3121,N,07740.1919,W,26.08,60.56,270825,,,A*71
$GPGGA,225944.750,4305.3130,N,07740.1898,W,1,07,1.15,163.9,M,-34.4,M,,*5E
$GPRMC,225945.000,A,4305.3139,N,07740.1877,W,25.88,60.45,270825,,,A*7C
$GPGGA,225945.250,4305.3148,N,07740.1855,W,1,07,1.15,164.0,M,-34.4,M,,*5A
$GPRMC,225945.500,A,4305.3157,N,07740.1834,W,25.59,60.58,270825,,,A*76
$GPGGA,225945.750,4305.3165,N,07740.1813,W,1,07,1.15,164.0,M,-34.4,M,,*52
$GPRMC,225946.000,A,4305.3174,N,07740.1793,W,25.34,60.91,270825,,,A*7D
$GPGGA,225946.250,4305.3183,N,07740.1772,W,1,08,1.05,163.9,M,-34.4,M,,*54
$GPRMC,225946.500,A,4305.3192,N,07740.1751,W,25.23,60.76,270825,,,A*71
$GPGGA,225946.750,4305.3200,N,07740.1730,W,1,07,1.15,164.0,M,-34.4,M,,*5F
$GPRMC,225947.000,A,4305.3209,N,07740.1710,W,25.13,60.16,270825,,,A*74
$GPGGA,225947.250,4305.3218,N,07740.1689,W,1,07,1.15,164.1,M,-34.4,M,,*50
$GPRMC,225947.500,A,4305.3227,N,07740.1668,W,25.06,59.90,270825,,,A*73
$GPGGA,225947.750,4305.3235,N,07740.1647,W,1,07,1.15,164.1,M,-34.4,M,,*58
$GPRMC,225948.000,A,4305.3244,N,07740.1627,W,25.00,60.01,270825,,,A*73
$GPGGA,225948.250,4305.3253,N,07740.1606,W,1,07,1.15,164.0,M,-34.4,M,,*56
$GPRMC,225948.500,A,4305.3261,N,07740.1586,W,24.93,60.66,270825,,,A*73
$GPGGA,225948.750,4305.3270,N,07740.1565,W,1,07,1.15,164.1,M,-34.4,M,,*55
$GPRMC,225949.000,A,4305.3278,N,07740.1545,W,24.86,61.23,270825,,,A*74
$GPGGA,225949.250,4305.3287,N,07740.1524,W,1,07,1.15,164.1,M,-34.4,M,,*5C
$GPRMC,225949.500,A,4305.3295,N,07740.1504,W,24.55,61.86,270825,,,A*76
$GPGGA,225949.750,4305.3303,N,07740.1484,W,1,07,1.15,164.2,M,-34.4,M,,*5C
$GPRMC,225950.000,A,4305.3311,N,07740.1464,W,24.12,62.23,270825,,,A*7E
$GPGGA,225950.250,4305.3319,N,07740.1443,W,1,07,1.15,164.2,M,-34.4,M,,*51
$GPRMC,225950.500,A,4305.3327,N,07740.1423,W,23.87,62.04,270825,,,A*73
$GPGGA,225950.750,4305.3335,N,07740.1404,W,1,07,1.15,164.3,M,-34.4,M,,*58
$GPRMC,225951.000,A,4305.3343,N,07740.1384,W,23.52,62.59,270825,,,A*7F
$GPGGA,225951.250,4305.3350,N,07740.1364,W,1,07,1.15,164.4,M,-34.4,M,,*59
$GPRMC,225951.500,A,4305.3357,N,07740.1344,W,23.21,64.33,270825,,,A*7D
$GPGGA,225951.750,4305.3364,N,07740.1325,W,1,07,1.15,164.4,M,-34.4,M,,*5E
$GPRMC,225952.000,A,4305.3371,N,07740.1305,W,23.21,65.12,270825,,,A*78
$GPGGA,225952.250,4305.3378,N,07740.1285,W,1,07,1.15,164.4,M,-34.4,M,,*5E
$GPRMC,225952.500,A,4305.3384,N,07740.1265,W,23.27,67.36,270825,,,A*72
$GPGGA,225952.750,4305.3390,N,07740.1245,W,1,07,1.15,164.4,M,-34.4,M,,*51
$GPRMC,225953.000,A,4305.3396,N,07740.1224,W,23.09,68.71,270825,,,A*70
$GPGGA,225953.250,4305.3402,N,07740.1204,W,1,07,1.15,164.4,M,-34.4,M,,*5C
$GPRMC,225953.500,A,4305.3407,N,07740.1184,W,22.81,71.22,270825,,,A*7C
$GPGGA,225953.750,4305.3412,N,07740.1163,W,1,07,1.15,164.4,M,-34.4,M,,*5A
$GPRMC,225954.000,A,4305.3416,N,07740.1143,W,22.43,74.25,270825,,,A*79
$GPGGA,225954.250,4305.3420,N,07740.1123,W,1,07,1.15,164.4,M,-34.4,M,,*5D
$GPRMC,225954.500,A,4305.3424,N,07740.1102,W,21.99,76.95,270825,,,A*75
$GPGGA,225954.750,4305.3427,N,07740.1082,W,1,08,1.05,164.5,M,-34.4,M,,*5A
$GPRMC,225955.000,A,4305.3429,N,07740.1061,W,21.82,81.29,270825,,,A*7D
$GPGGA,225955.250,4305.3431,N,07740.1041,W,1,08,1.05,164.5,M,-34.4,M,,*56
$GPRMC,225955.500,A,4305.3433,N,07740.1020,W,21.45,84.38,270825,,,A*78
$GPGGA,225955.750,4305.3434,N,07740.1000,W,1,08,1.05,164.5,M,-34.4,M,,*53
$GPRMC,225956.000,A,4305.3435,N,07740.0980,W,20.53,85.91,270825,,,A*7E
$GPGGA,225956.250,4305.3436,N,07740.0961,W,1,08,1.05,164.5,M,-34.4,M,,*58
$GPRMC,225956.500,A,4305.3437,N,07740.0943,W,19.04,88.21,270825,,,A*78
$GPGGA,225956.750,4305.3437,N,07740.0925,W,1,07,1.15,164.5,M,-34.4,M,,*52
$GPRMC,225957.000,A,4305.3437,N,07740.0908,W,17.32,89.70,270825,,,A*7D
$GPGGA,225957.250,4305.3437,N,07740.0892,W,1,08,1.05,164.7,M,-34.4,M,,*57
$GPRMC,225957.500,A,4305.3437,N,07740.0877,W,15.64,89.92,270825,,,A*7C
$GPGGA,225957.750,4305.3437,N,07740.0863,W,1,08,1.05,164.6,M,-34.4,M,,*5D
$GPRMC,225958.000,A,4305.3438,N,07740.0849,W,14.48,89.64,270825,,,A*72
$GPGGA,225958.250,4305.3438,N,07740.0836,W,1,07,1.15,164.7,M,-34.4,M,,*57
$GPRMC,225958.500,A,4305.3437,N,07740.0824,W,13.56,87.79,270825,,,A*79
$GPGGA,225958.750,4305.3438,N,07740.0811,W,1,07,1.15,164.6,M,-34.4,M,,*56
$GPRMC,225959.000,A,4305.3439,N,07740.0798,W,13.29,82.06,270825,,,A*7E
$GPGGA,225959.250,4305.3440,N,07740.0786,W,1,08,1.05,164.7,M,-34.4,M,,*53
$GPRMC,225959.500,A,4305.3442,N,07740.0774,W,12.88,75.28,270825,,,A*7B
$GPGGA,225959.750,4305.3445,N,07740.0763,W,1,08,1.05,164.7,M,-34.4,M,,*58
$GPRMC,230000.000,A,4305.3447,N,07740.0752,W,12.59,70.89,270825,,,A*7C
$GPGGA,230000.250,4305.3451,N,07740.0741,W,1,08,1.05,164.7,M,-34.4,M,,*59
$GPRMC,230000.500,A,4305.3454,N,07740.0730,W,12.55,65.67,270825,,,A*77
$GPGGA,230000.750,4305.3458,N,07740.0719,W,1,08,1.05,164.8,M,-34.4,M,,*57
$GPRMC,230001.000,A,4305.3463,N,07740.0709,W,12.58,60.07,270825,,,A*73
$GPGGA,230001.250,4305.3467,N,07740.0698,W,1,08,1.05,164.9,M,-34.4,M,,*56
$GPRMC,230001.500,A,4305.3472,N,07740.0688,W,12.65,54.51,270825,,,A*74
$GPGGA,230001.750,4305.3478,N,07740.0679,W,1,08,1.05,165.0,M,-34.4,M,,*5A
$GPRMC,230002.000,A,4305.3484,N,07740.0669,W,13.01,47.07,270825,,,A*76
$GPGGA,230002.250,4305.3490,N,07740.0661,W,1,08,1.05,165.0,M,-34.4,M,,*53
$GPRMC,230002.500,A,4305.3497,N,07740.0652,W,13.13,39.82,270825,,,A*7E
$GPGGA,230002.750,4305.3505,N,07740.0644,W,1,08,1.05,165.1,M,-34.4,M,,*5D
$GPRMC,230003.000,A,4305.3513,N,07740.0637,W,13.62,34.87,270825,,,A*7A
$GPGGA,230003.250,4305.3521,N,07740.0630,W,1,08,1.05,165.1,M,-34.4,M,,*5C
$GPRMC,230003.500,A,4305.3530,N,07740.0623,W,14.15,29.24,270825,,,A*79
$GPGGA,230003.750,4305.3539,N,07740.0617,W,1,08,1.05,165.0,M,-34.4,M,,*54
$GPRMC,230004.000,A,4305.3549,N,07740.0612,W,14.65,21.90,270825,,,A*77
$GPGGA,230004.250,4305.3559,N,07740.0607,W,1,08,1.05,164.9,M,-34.4,M,,*59
$GPRMC,230004.500,A,4305.3569,N,07740.0602,W,14.95,19.05,270825,,,A*79
$GPGGA,230004.750,4305.3579,N,07740.0597,W,1,08,1.05,165.0,M,-34.4,M,,*5C
$GPRMC,230005.000,A,4305.3589,N,07740.0592,W,15.23,18.24,270825,,,A*77
$GPGGA,230005.250,4305.3600,N,07740.0587,W,1,08,1.05,165.1,M,-34.4,M,,*55
$GPRMC,230005.500,A,4305.3610,N,07740.0581,W,15.53,19.53,270825,,,A*75
$GPGGA,230005.750,4305.3621,N,07740.0576,W,1,08,1.05,165.2,M,-34.4,M,,*5E
$GPRMC,230006.000,A,4305.3631,N,07740.0571,W,15.89,19.64,270825,,,A*7C
$GPGGA,230006.250,4305.3641,N,07740.0566,W,1,08,1.05,165.3,M,-34.4,M,,*5E
$GPRMC,230006.500,A,4305.3652,N,07740.0560,W,16.29,19.98,270825,,,A*76
$GPGGA,230006.750,4305.3663,N,07740.0555,W,1,08,1.05,165.3,M,-34.4,M,,*5B
$GPRMC,230007.000,A,4305.3674,N,07740.0549,W,16.68,19.98,270825,,,A*78
$GPGGA,230007.250,4305.3685,N,07740.0543,W,1,08,1.05,165.4,M,-34.4,M,,*57
$GPRMC,230007.500,A,4305.3696,N,07740.0538,W,16.99,20.04,270825,,,A*76
$GPGGA,230007.750,4305.3707,N,07740.0532,W,1,08,1.05,165.5,M,-34.4,M,,*5E
$GPRMC,230008.000,A,4305.3718,N,07740.0525,W,17.30,19.96,270825,,,A*74
$GPGGA,230008.250,4305.3729,N,07740.0519,W,1,08,1.05,165.6,M,-34.4,M,,*52
$GPRMC,230008.500,A,4305.3740,N,07740.0513,W,17.58,21.20,270825,,,A*71
$GPGGA,230008.750,4305.3751,N,07740.0507,W,1,08,1.05,165.6,M,-34.4,M,,*57
$GPRMC,230009.000,A,4305.3763,N,07740.0501,W,17.89,22.21,270825,,,A*79
$GPGGA,230009.250,4305.3774,N,07740.0494,W,1,08,1.05,165.7,M,-34.4,M,,*5E
$GPRMC,230009.500,A,4305.3786,N,07740.0488,W,18.39,22.67,270825,,,A*71
$GPGGA,230009.750,4305.3798,N,07740.0481,W,1,08,1.05,165.7,M,-34.4,M,,*5D
$GPRMC,230010.000,A,4305.3810,N,07740.0475,W,18.68,22.63,270825,,,A*7E
$GPGGA,230010.250,4305.3823,N,07740.0468,W,1,08,1.05,165.8,M,-34.4,M,,*57
$GPRMC,230010.500,A,4305.3835,N,07740.0462,W,19.11,21.91,270825,,,A*7B
$GPGGA,230010.750,4305.3848,N,07740.0455,W,1,08,1.05,165.8,M,-34.4,M,,*51
$GPRMC,230011.000,A,4305.3860,N,07740.0448,W,19.39,21.78,270825,,,A*7A
$GPGGA,230011.250,4305.3873,N,07740.0441,W,1,08,1.05,165.8,M,-34.4,M,,*58
$GPRMC,230011.500,A,4305.3885,N,07740.0435,W,19.64,21.50,270825,,,A*7C
$GPGGA,230011.750,4305.3898,N,07740.0428,W,1,08,1.05,165.9,M,-34.4,M,,*56
$GPRMC,230012.000,A,4305.3911,N,07740.0421,W,19.97,21.34,270825,,,A*7D
$GPGGA,230012.250,4305.3924,N,07740.0414,W,1,08,1.05,166.0,M,-34.4,M,,*53
$GPRMC,230012.500,A,4305.3937,N,07740.0407,W,20.15,21.06,270825,,,A*79
$GPGGA,230012.750,4305.3951,N,07740.0400,W,1,08,1.05,166.0,M,-34.4,M,,*51
$GPRMC,230013.000,A,4305.3964,N,07740.0393,W,20.45,20.94,270825,,,A*7E
$GPGGA,230013.250,4305.3978,N,07740.0386,W,1,08,1.05,166.1,M,-34.4,M,,*56
$GPRMC,230013.500,A,4305.3991,N,07740.0379,W,20.71,20.54,270825,,,A*7E
$GPGGA,230013.750,4305.4005,N,07740.0372,W,1,08,1.05,166.2,M,-34.4,M,,*5F
$GPRMC,230014.000,A,4305.4019,N,07740.0364,W,21.11,20.85,270825,,,A*75
$GPGGA,230014.250,4305.4033,N,07740.0357,W,1,08,1.05,166.3,M,-34.4,M,,*5E
$GPRMC,230014.500,A,4305.4046,N,07740.0349,W,21.31,21.95,270825,,,A*77
$GPGGA,230014.750,4305.4060,N,07740.0342,W,1,08,1.05,166.4,M,-34.4,M,,*5E
$GPRMC,230015.000,A,4305.4074,N,07740.0334,W,21.58,22.23,270825,,,A*79
$GPGGA,230015.250,4305.4088,N,07740.0326,W,1,08,1.05,166.4,M,-34.4,M,,*5E
$GPRMC,230015.500,A,4305.4102,N,07740.0318,W,21.94,22.44,270825,,,A*73
$GPGGA,230015.750,4305.4116,N,07740.0310,W,1,08,1.05,166.5,M,-34.4,M,,*59
$GPRMC,230016.000,A,4305.4131,N,07740.0302,W,22.22,22.41,270825,,,A*75
$GPGGA,230016.250,4305.4145,N,07740.0294,W,1,08,1.05,166.6,M,-34.4,M,,*57
$GPRMC,230016.500,A,4305.4159,N,07740.0286,W,22.51,22.00,270825,,,A*72
$GPGGA,230016.750,4305.4174,N,07740.0278,W,1,08,1.05,166.6,M,-34.4,M,,*52
$GPRMC,230017.000,A,4305.4188,N,07740.0270,W,22.46,21.81,270825,,,A*7F
$GPGGA,230017.250,4305.4203,N,07740.0262,W,1,08,1.05,166.7,M,-34.4,M,,*5F
$GPRMC,230017.500,A,4305.4217,N,07740.0254,W,22.05,22.21,270825,,,A*77
$GPGGA,230017.750,4305.4231,N,07740.0246,W,1,08,1.05,166.8,M,-34.4,M,,*52
$GPRMC,230018.000,A,4305.4246,N,07740.0238,W,22.29,22.03,270825,,,A*7D
$GPGGA,230018.250,4305.4260,N,07740.0230,W,1,08,1.05,166.8,M,-34.4,M,,*5D
$GPRMC,230018.500,A,4305.4275,N,07740.0222,W,22.59,21.71,270825,,,A*72
$GPGGA,230018.750,4305.4289,N,07740.0214,W,1,08,1.05,166.9,M,-34.4,M,,*58
$GPRMC,230019.000,A,4305.4304,N,07740.0206,W,22.81,21.90,270825,,,A*7D
$GPGGA,230019.250,4305.4319,N,07740.0198,W,1,08,1.05,166.9,M,-34.4,M,,*53
$GPRMC,230019.500,A,4305.4334,N,07740.0190,W,22.89,21.98,270825,,,A*77
$GPGGA,230019.750,4305.4348,N,07740.0182,W,1,08,1.05,166.9,M,-34.4,M,,*59
$GPRMC,230020.000,A,4305.4363,N,07740.0173,W,22.86,22.01,270825,,,A*7B
$GPGGA,230020.250,4305.4378,N,07740.0165,W,1,08,1.05,167.0,M,-34.4,M,,*54
$GPRMC,230020.500,A,4305.4393,N,07740.0158,W,22.47,21.62,270825,,,A*73
$GPGGA,230020.750,4305.4408,N,07740.0150,W,1,08,1.05,167.0,M,-34.4,M,,*57
$GPRMC,230021.000,A,4305.4422,N,07740.0142,W,22.44,21.79,270825,,,A*78
$GPGGA,230021.250,4305.4437,N,07740.0134,W,1,08,1.05,167.1,M,-34.4,M,,*5C
$GPRMC,230021.500,A,4305.4451,N,07740.0126,W,22.06,21.74,270825,,,A*70
$GPGGA,230021.750,4305.4465,N,07740.0119,W,1,08,1.05,167.1,M,-34.4,M,,*51
$GPRMC,230022.000,A,4305.4479,N,07740.0111,W,21.57,21.94,270825,,,A*71
$GPGGA,230022.250,4305.4492,N,07740.0104,W,1,08,1.05,167.2,M,-34.4,M,,*50
$GPRMC,230022.500,A,4305.4506,N,07740.0096,W,21.30,21.72,270825,,,A*7A
$GPGGA,230022.750,4305.4519,N,07740.0089,W,1,08,1.05,167.2,M,-34.4,M,,*53
$GPRMC,230023.000,A,4305.4533,N,07740.0082,W,21.05,21.66,270825,,,A*7E
$GPGGA,230023.250,4305.4546,N,07740.0074,W,1,08,1.05,167.2,M,-34.4,M,,*5F
$GPRMC,230023.500,A,4305.4559,N,07740.0067,W,20.59,21.39,270825,,,A*7E
$GPGGA,230023.750,4305.4573,N,07740.0060,W,1,08,1.05,167.3,M,-34.4,M,,*58
$GPRMC,230024.000,A,4305.4586,N,07740.0053,W,20.37,21.68,270825,,,A*75
$GPGGA,230024.250,4305.4599,N,07740.0046,W,1,08,1.05,167.4,M,-34.4,M,,*5D
$GPRMC,230024.500,A,4305.4612,N,07740.0039,W,19.95,21.77,270825,,,A*7E
$GPGGA,230024.750,4305.4625,N,07740.0032,W,1,08,1.05,167.4,M,-34.4,M,,*5F
$GPRMC,230025.000,A,4305.4637,N,07740.0025,W,19.86,21.34,270825,,,A*75
$GPGGA,230025.250,4305.4650,N,07740.0018,W,1,08,1.05,167.5,M,-34.4,M,,*50
$GPRMC,230025.500,A,4305.4662,N,07740.0011,W,19.65,21.57,270825,,,A*7F
$GPGGA,230025.750,4305.4675,N,07740.0004,W,1,08,1.05,167.5,M,-34.4,M,,*5F
$GPRMC,230026.000,A,4305.4687,N,07739.9998,W,19.54,21.80,270825,,,A*75
$GPGGA,230026.250,4305.4700,N,07739.9991,W,1,08,1.05,167.5,M,-34.4,M,,*58
$GPRMC,230026.500,A,4305.4713,N,07739.9984,W,19.36,21.96,270825,,,A*72
$GPGGA,230026.750,4305.4725,N,07739.9977,W,1,08,1.05,167.5,M,-34.4,M,,*52
$GPRMC,230027.000,A,4305.4738,N,07739.9970,W,19.47,22.12,270825,,,A*7D
$GPGGA,230027.250,4305.4750,N,07739.9963,W,1,08,1.05,167.5,M,-34.4,M,,*51
$GPRMC,230027.500,A,4305.4763,N,07739.9956,W,19.40,22.40,270825,,,A*72
$GPGGA,230027.750,4305.4775,N,07739.9949,W,1,08,1.05,167.5,M,-34.4,M,,*5B
$GPRMC,230028.000,A,4305.4787,N,07739.9942,W,19.39,23.15,270825,,,A*78
$GPGGA,230028.250,4305.4799,N,07739.9935,W,1,08,1.05,167.5,M,-34.4,M,,*58
$GPRMC,230028.500,A,4305.4812,N,07739.9928,W,19.64,22.68,270825,,,A*71
$GPGGA,230028.750,4305.4825,N,07739.9920,W,1,08,1.05,167.6,M,-34.4,M,,*52
$GPRMC,230029.000,A,4305.4838,N,07739.9913,W,20.17,22.59,270825,,,A*79
$GPGGA,230029.250,4305.4851,N,07739.9906,W,1,08,1.05,167.6,M,-34.4,M,,*51
$GPRMC,230029.500,A,4305.4864,N,07739.9898,W,21.12,22.44,270825,,,A*7F
$GPGGA,230029.750,4305.4878,N,07739.9890,W,1,08,1.05,167.6,M,-34.4,M,,*51
$GPRMC,230030.000,A,4305.4892,N,07739.9883,W,21.76,22.57,270825,,,A*71
$GPGGA,230030.250,4305.4905,N,07739.9875,W,1,08,1.05,167.6,M,-34.4,M,,*5C
$GPRMC,230030.500,A,4305.4920,N,07739.9867,W,22.14,22.85,270825,,,A*7E
$GPGGA,230030.750,4305.4934,N,07739.9858,W,1,08,1.05,167.6,M,-34.4,M,,*54
$GPRMC,230031.000,A,4305.4949,N,07739.9850,W,23.22,23.38,270825,,,A*72
$GPGGA,230031.250,4305.4964,N,07739.9841,W,1,08,1.05,167.6,M,-34.4,M,,*5D
$GPRMC,230031.500,A,4305.4980,N,07739.9832,W,25.22,23.37,270825,,,A*7F
$GPGGA,230031.750,4305.4996,N,07739.9822,W,1,08,1.05,167.6,M,-34.4,M,,*50
$GPRMC,230032.000,A,4305.5013,N,07739.9812,W,27.14,23.20,270825,,,A*78
$GPGGA,230032.250,4305.5030,N,07739.9802,W,1,08,1.05,167.6,M,-34.4,M,,*50
$GPRMC,230032.500,A,4305.5048,N,07739.9792,W,27.73,22.95,270825,,,A*7A
$GPGGA,230032.750,4305.5066,N,07739.9782,W,1,08,1.05,167.6,M,-34.4,M,,*51
$GPRMC,230033.000,A,4305.5084,N,07739.9772,W,27.77,21.62,270825,,,A*7F
$GPGGA,230033.250,4305.5102,N,07739.9762,W,1,08,1.05,167.7,M,-34.4,M,,*59
$GPRMC,230033.500,A,4305.5120,N,07739.9753,W,27.67,20.53,270825,,,A*74
$GPGGA,230033.750,4305.5138,N,07739.9744,W,1,08,1.05,167.8,M,-34.4,M,,*5E
$GPRMC,230034.000,A,4305.5155,N,07739.9735,W,27.06,20.12,270825,,,A*76
$GPGGA,230034.250,4305.5173,N,07739.9727,W,1,08,1.05,167.9,M,-34.4,M,,*57
$GPRMC,230034.500,A,4305.5190,N,07739.9718,W,26.93,19.86,270825,,,A*7F
$GPGGA,230034.750,4305.5208,N,07739.9709,W,1,08,1.05,167.9,M,-34.4,M,,*51
$GPRMC,230035.000,A,4305.5225,N,07739.9701,W,26.50,19.89,270825,,,A*7E
$GPGGA,230035.250,4305.5242,N,07739.9692,W,1,08,1.05,168.0,M,-34.4,M,,*5E
$GPRMC,230035.500,A,4305.5259,N,07739.9683,W,26.24,20.27,270825,,,A*76
$GPGGA,230035.750,4305.5276,N,07739.9675,W,1,08,1.05,168.0,M,-34.4,M,,*55
$GPRMC,230036.000,A,4305.5293,N,07739.9666,W,25.77,20.90,270825,,,A*74
$GPGGA,230036.250,4305.5310,N,07739.9657,W,1,08,1.05,168.0,M,-34.4,M,,*52
$GPRMC,230036.500,A,4305.5326,N,07739.9649,W,24.52,21.56,270825,,,A*7E
$GPGGA,230036.750,4305.5341,N,07739.9640,W,1,08,1.05,168.0,M,-34.4,M,,*55
$GPRMC,230037.000,A,4305.5355,N,07739.9632,W,22.43,22.43,270825,,,A*73
$GPGGA,230037.250,4305.5370,N,07739.9624,W,1,08,1.05,168.1,M,-34.4,M,,*50
$GPRMC,230037.500,A,4305.5383,N,07739.9616,W,20.94,23.12,270825,,,A*76
$GPGGA,230037.750,4305.5396,N,07739.9608,W,1,08,1.05,168.1,M,-34.4,M,,*53
$GPRMC,230038.000,A,4305.5409,N,07739.9600,W,19.40,24.31,270825,,,A*7B
$GPGGA,230038.250,4305.5420,N,07739.9593,W,1,08,1.05,168.2,M,-34.4,M,,*51
$GPRMC,230038.500,A,4305.5431,N,07739.9585,W,17.30,25.94,270825,,,A*7C
$GPGGA,230038.750,4305.5442,N,07739.9578,W,1,08,1.05,168.1,M,-34.4,M,,*56
$GPRMC,230039.000,A,4305.5451,N,07739.9571,W,14.64,28.78,270825,,,A*78
$GPGGA,230039.250,4305.5459,N,07739.9564,W,1,08,1.05,168.1,M,-34.4,M,,*55
$GPRMC,230039.500,A,4305.5466,N,07739.9559,W,11.68,31.48,270825,,,A*71
$GPGGA,230039.750,4305.5473,N,07739.9553,W,1,08,1.05,168.1,M,-34.4,M,,*5C
$GPRMC,230040.000,A,4305.5478,N,07739.9548,W,9.12,32.63,270825,,,A*4B
$GPGGA,230040.250,4305.5483,N,07739.9544,W,1,08,1.05,168.1,M,-34.4,M,,*5E
$GPRMC,230040.500,A,4305.5487,N,07739.9540,W,6.26,33.98,270825,,,A*4B
$GPGGA,230040.750,4305.5490,N,07739.9537,W,1,08,1.05,168.1,M,-34.4,M,,*5D
$GPRMC,230041.000,A,4305.5493,N,07739.9535,W,3.92,34.95,270825,,,A*48
$GPGGA,230041.250,4305.5494,N,07739.9533,W,1,08,1.05,168.1,M,-34.4,M,,*59
$GPRMC,230041.500,A,4305.5495,N,07739.9532,W,1.74,34.95,270825,,,A*46
$GPGGA,230041.750,4305.5496,N,07739.9532,W,1,08,1.02,168.1,M,-34.4,M,,*58
$GPRMC,230102.750,A,4305.5502,N,07739.9529,W,3.23,39.43,270825,,,A*44
$GPGGA,230103.000,4305.5504,N,07739.9526,W,1,08,1.02,168.3,M,-34.4,M,,*50
$GPRMC,230103.250,A,4305.5507,N,07739.9523,W,5.78,38.41,270825,,,A*44
$GPGGA,230103.500,4305.5510,N,07739.9519,W,1,08,1.05,168.4,M,-34.4,M,,*5C
$GPRMC,230103.750,A,4305.5513,N,07739.9514,W,7.99,43.13,270825,,,A*46
$GPGGA,230104.000,4305.5517,N,07739.9508,W,1,08,1.05,168.4,M,-34.4,M,,*59
$GPRMC,230104.250,A,4305.5522,N,07739.9500,W,9.77,51.44,270825,,,A*4C
$GPGGA,230104.500,4305.5526,N,07739.9492,W,1,07,1.15,168.4,M,-34.4,M,,*52
$GPRMC,230104.750,A,4305.5530,N,07739.9483,W,11.44,60.04,270825,,,A*7F
$GPGGA,230105.000,4305.5535,N,07739.9472,W,1,08,1.05,168.5,M,-34.4,M,,*55
$GPRMC,230105.250,A,4305.5538,N,07739.9461,W,12.59,69.11,270825,,,A*7D
$GPGGA,230105.500,4305.5541,N,07739.9450,W,1,08,1.05,168.5,M,-34.4,M,,*53
$GPRMC,230105.750,A,4305.5543,N,07739.9438,W,13.72,76.52,270825,,,A*79
$GPGGA,230106.000,4305.5545,N,07739.9425,W,1,08,1.05,168.5,M,-34.4,M,,*53
$GPRMC,230106.250,A,4305.5546,N,07739.9411,W,15.03,84.18,270825,,,A*72
$GPGGA,230106.500,4305.5547,N,07739.9396,W,1,08,1.05,168.6,M,-34.4,M,,*58
$GPRMC,230106.750,A,4305.5547,N,07739.9381,W,16.13,87.29,270825,,,A*7B
$GPGGA,230107.000,4305.5547,N,07739.9366,W,1,08,1.05,168.6,M,-34.4,M,,*53
$GPRMC,230107.250,A,4305.5547,N,07739.9350,W,17.05,88.35,270825,,,A*77
$GPGGA,230107.500,4305.5547,N,07739.9333,W,1,08,1.05,168.6,M,-34.4,M,,*56
$GPRMC,230107.750,A,4305.5547,N,07739.9316,W,18.18,88.46,270825,,,A*77
$GPGGA,230108.000,4305.5547,N,07739.9299,W,1,08,1.05,168.6,M,-34.4,M,,*5D
$GPRMC,230108.250,A,4305.5547,N,07739.9281,W,19.24,88.20,270825,,,A*7C
$GPGGA,230108.500,4305.5548,N,07739.9262,W,1,08,1.05,168.6,M,-34.4,M,,*53
$GPRMC,230108.750,A,4305.5548,N,07739.9243,W,20.35,87.71,270825,,,A*79
$GPGGA,230109.000,4305.5548,N,07739.9223,W,1,08,1.05,168.6,M,-34.4,M,,*52
$GPRMC,230109.250,A,4305.5548,N,07739.9204,W,21.29,86.85,270825,,,A*78
$GPGGA,230109.500,4305.5549,N,07739.9183,W,1,08,1.05,168.5,M,-34.4,M,,*5C
$GPRMC,230109.750,A,4305.5549,N,07739.9162,W,22.38,86.94,270825,,,A*7C
$GPGGA,230110.000,4305.5550,N,07739.9141,W,1,08,1.05,168.4,M,-34.4,M,,*56
$GPRMC,230110.250,A,4305.5550,N,07739.9119,W,23.15,86.46,270825,,,A*74
$GPGGA,230110.500,4305.5551,N,07739.9097,W,1,08,1.05,168.4,M,-34.4,M,,*58
$GPRMC,230110.750,A,4305.5552,N,07739.9075,W,23.92,86.49,270825,,,A*78
$GPGGA,230111.000,4305.5553,N,07739.9052,W,1,08,1.05,168.3,M,-34.4,M,,*50
$GPRMC,230111.250,A,4305.5554,N,07739.9029,W,24.41,86.31,270825,,,A*75
$GPGGA,230111.500,4305.5554,N,07739.9006,W,1,08,1.05,168.2,M,-34.4,M,,*52
$GPRMC,230111.750,A,4305.5555,N,07739.8982,W,25.07,86.59,270825,,,A*75
$GPGGA,230112.000,4305.5556,N,07739.8958,W,1,08,1.05,168.2,M,-34.4,M,,*55
$GPRMC,230112.250,A,4305.5557,N,07739.8934,W,25.94,86.65,270825,,,A*79
$GPGGA,230112.500,4305.5558,N,07739.8909,W,1,08,1.05,168.1,M,-34.4,M,,*59
$GPRMC,230112.750,A,4305.5559,N,07739.8885,W,26.16,86.55,270825,,,A*73
$GPGGA,230113.000,4305.5560,N,07739.8860,W,1,08,1.05,168.0,M,-34.4,M,,*59
$GPRMC,230113.250,A,4305.5561,N,07739.8835,W,26.69,86.81,270825,,,A*76
$GPGGA,230113.500,4305.5562,N,07739.8809,W,1,08,1.05,167.9,M,-34.4,M,,*57
$GPRMC,230113.750,A,4305.5563,N,07739.8783,W,27.34,86.82,270825,,,A*79
$GPGGA,230114.000,4305.5564,N,07739.8757,W,1,08,1.05,167.8,M,-34.4,M,,*56
$GPRMC,230114.250,A,4305.5564,N,07739.8731,W,27.64,87.54,270825,,,A*7A
$GPGGA,230114.500,4305.5565,N,07739.8704,W,1,08,1.05,167.8,M,-34.4,M,,*54
$GPRMC,230114.750,A,4305.5566,N,07739.8677,W,28.58,87.15,270825,,,A*7B
$GPGGA,230115.000,4305.5567,N,07739.8650,W,1,08,1.05,167.8,M,-34.4,M,,*52
$GPRMC,230115.250,A,4305.5568,N,07739.8622,W,29.04,87.41,270825,,,A*78
$GPGGA,230115.500,4305.5569,N,07739.8594,W,1,08,1.05,167.7,M,-34.4,M,,*5D
$GPRMC,230115.750,A,4305.5570,N,07739.8566,W,29.35,87.20,270825,,,A*72
$GPGGA,230116.000,4305.5571,N,07739.8537,W,1,08,1.05,167.6,M,-34.4,M,,*5A
$GPRMC,230116.250,A,4305.5572,N,07739.8509,W,29.58,86.35,270825,,,A*71
$GPGGA,230116.500,4305.5573,N,07739.8480,W,1,08,1.05,167.5,M,-34.4,M,,*53
$GPRMC,230116.750,A,4305.5575,N,07739.8451,W,30.75,86.72,270825,,,A*7B
$GPGGA,230117.000,4305.5576,N,07739.8422,W,1,08,1.05,167.5,M,-34.4,M,,*5A
$GPRMC,230117.250,A,4305.5577,N,07739.8392,W,31.16,86.91,270825,,,A*7C
$GPGGA,230117.500,4305.5578,N,07739.8363,W,1,08,1.05,167.4,M,-34.4,M,,*52
$GPRMC,230117.750,A,4305.5580,N,07739.8333,W,31.66,86.46,270825,,,A*77
$GPGGA,230118.000,4305.5581,N,07739.8302,W,1,08,1.05,167.4,M,-34.4,M,,*59
$GPRMC,230118.250,A,4305.5582,N,07739.8272,W,32.07,86.27,270825,,,A*78
$GPGGA,230118.500,4305.5584,N,07739.8242,W,1,08,1.05,167.4,M,-34.4,M,,*5C
$GPRMC,230118.750,A,4305.5586,N,07739.8211,W,32.24,86.13,270825,,,A*7A
$GPGGA,230119.000,4305.5587,N,07739.8180,W,1,08,1.05,167.4,M,-34.4,M,,*56
$GPRMC,230119.250,A,4305.5589,N,07739.8149,W,32.64,85.51,270825,,,A*7E
$GPGGA,230119.500,4305.5591,N,07739.8118,W,1,08,1.05,167.3,M,-34.4,M,,*52
$GPRMC,230119.750,A,4305.5592,N,07739.8086,W,33.13,85.57,270825,,,A*74
$GPGGA,230120.000,4305.5594,N,07739.8054,W,1,08,1.05,167.4,M,-34.4,M,,*56
$GPRMC,230120.250,A,4305.5595,N,07739.8023,W,33.45,86.05,270825,,,A*74
$GPGGA,230120.500,4305.5597,N,07739.7991,W,1,08,1.05,167.3,M,-34.4,M,,*58
$GPRMC,230120.750,A,4305.5599,N,07739.7959,W,33.87,86.23,270825,,,A*7C
$GPGGA,230121.000,4305.5600,N,07739.7926,W,1,08,1.05,167.3,M,-34.4,M,,*5D
$GPRMC,230121.250,A,4305.5602,N,07739.7894,W,34.01,87.00,270825,,,A*70
$GPGGA,230121.500,4305.5603,N,07739.7861,W,1,08,1.05,167.2,M,-34.4,M,,*58
$GPRMC,230121.750,A,4305.5604,N,07739.7828,W,34.20,87.27,270825,,,A*72
$GPGGA,230122.000,4305.5605,N,07739.7795,W,1,08,1.05,167.2,M,-34.4,M,,*5C
$GPRMC,230122.250,A,4305.5606,N,07739.7762,W,34.34,87.44,270825,,,A*77
$GPGGA,230122.500,4305.5607,N,07739.7729,W,1,08,1.05,167.2,M,-34.4,M,,*5C
$GPRMC,230122.750,A,4305.5608,N,07739.7696,W,34.49,87.16,270825,,,A*7B
$GPGGA,230123.000,4305.5610,N,07739.7662,W,1,08,1.05,167.2,M,-34.4,M,,*50
$GPRMC,230123.250,A,4305.5611,N,07739.7629,W,35.38,87.08,270825,,,A*7B
$GPGGA,230123.500,4305.5612,N,07739.7595,W,1,08,1.05,167.1,M,-34.4,M,,*5F
$GPRMC,230123.750,A,4305.5614,N,07739.7561,W,35.65,86.86,270825,,,A*7B
$GPGGA,230124.000,4305.5615,N,07739.7527,W,1,08,1.05,167.1,M,-34.4,M,,*53
$GPRMC,230124.250,A,4305.5617,N,07739.7493,W,35.87,86.62,270825,,,A*70
$GPGGA,230124.500,4305.5618,N,07739.7459,W,1,08,1.05,167.1,M,-34.4,M,,*53
$GPRMC,230124.750,A,4305.5620,N,07739.7425,W,36.15,86.53,270825,,,A*76
$GPGGA,230125.000,4305.5621,N,07739.7390,W,1,08,1.05,167.2,M,-34.4,M,,*5C
$GPRMC,230125.250,A,4305.5623,N,07739.7356,W,36.42,86.36,270825,,,A*73
$GPGGA,230125.500,4305.5624,N,07739.7321,W,1,08,1.05,167.2,M,-34.4,M,,*56
$GPRMC,230125.750,A,4305.5626,N,07739.7287,W,36.48,86.48,270825,,,A*7D
