Vers 72
USE_SERIAL_FEEDBACK=true
DEVELOPMENT_MODE=false
USE_RMC_ONLY=false

$GPRMC,195534.750,A,4308.5480,N,07728.5267,W,0.26,21.46,070925,,,A*47
$GPGGA,195535.000,4308.5480,N,07728.5267,W,1,06,1.50,168.3,M,-34.4,M,,*5A
$GPRMC,195535.250,A,4308.5480,N,07728.5267,W,0.32,33.21,070925,,,A*44
$GPGGA,195535.500,4308.5479,N,07728.5268,W,1,06,1.50,168.6,M,-34.4,M,,*53
$GPRMC,195553.750,A,4308.5469,N,07728.5277,W,3.47,255.79,070925,,,A*79
$GPGGA,195554.000,4308.5470,N,07728.5282,W,1,07,1.26,168.3,M,-34.4,M,,*59
$GPRMC,195554.250,A,4308.5470,N,07728.5292,W,6.46,262.16,070925,,,A*71
$GPGGA,195554.500,4308.5471,N,07728.5302,W,1,07,1.34,168.1,M,-34.4,M,,*55
$GPRMC,195554.750,A,4308.5471,N,07728.5312,W,8.53,266.05,070925,,,A*70
$GPGGA,195555.000,4308.5472,N,07728.5322,W,1,07,1.34,167.9,M,-34.4,M,,*57
$GPRMC,195555.250,A,4308.5472,N,07728.5335,W,10.67,268.13,070925,,,A*45
$GPGGA,195555.500,4308.5473,N,07728.5348,W,1,07,1.34,167.6,M,-34.4,M,,*50
$GPRMC,195555.750,A,4308.5474,N,07728.5361,W,12.41,269.39,070925,,,A*48
$GPGGA,195556.000,4308.5475,N,07728.5375,W,1,07,1.34,167.2,M,-34.4,M,,*5A
$GPRMC,195556.250,A,4308.5476,N,07728.5389,W,13.49,270.66,070925,,,A*41
$GPGGA,195556.500,4308.5477,N,07728.5403,W,1,07,1.34,166.8,M,-34.4,M,,*50
$GPRMC,195556.750,A,4308.5477,N,07728.5418,W,14.21,270.11,070925,,,A*43
$GPGGA,195557.000,4308.5478,N,07728.5432,W,1,07,1.26,166.5,M,-34.4,M,,*57
$GPRMC,195557.250,A,4308.5477,N,07728.5447,W,14.62,269.39,070925,,,A*48
$GPGGA,195557.500,4308.5477,N,07728.5463,W,1,07,1.34,166.3,M,-34.4,M,,*5C
$GPRMC,195557.750,A,4308.5477,N,07728.5479,W,15.52,268.18,070925,,,A*40
$GPGGA,195558.000,4308.5476,N,07728.5495,W,1,07,1.34,166.0,M,-34.4,M,,*5D
$GPRMC,195558.250,A,4308.5476,N,07728.5512,W,16.22,267.26,070925,,,A*41
$GPGGA,195558.500,4308.5475,N,07728.5529,W,1,07,1.34,165.8,M,-34.4,M,,*56
$GPRMC,195558.750,A,4308.5474,N,07728.5547,W,17.31,266.28,070925,,,A*4A
$GPGGA,195559.000,4308.5473,N,07728.5565,W,1,07,1.34,165.5,M,-34.4,M,,*51
$GPRMC,195559.250,A,4308.5473,N,07728.5584,W,17.92,266.34,070925,,,A*42
$GPGGA,195559.500,4308.5473,N,07728.5603,W,1,07,1.34,165.1,M,-34.4,M,,*53
$GPRMC,195559.750,A,4308.5473,N,07728.5623,W,18.94,267.02,070925,,,A*44
$GPGGA,195600.000,4308.5474,N,07728.5643,W,1,07,1.26,164.7,M,-34.4,M,,*5E
$GPRMC,195600.250,A,4308.5475,N,07728.5664,W,19.66,268.28,070925,,,A*40
$GPGGA,195600.500,4308.5476,N,07728.5684,W,1,07,1.34,164.4,M,-34.4,M,,*52
$GPRMC,195600.750,A,4308.5475,N,07728.5705,W,20.32,268.31,070925,,,A*40
$GPGGA,195601.000,4308.5474,N,07728.5725,W,1,07,1.26,164.1,M,-34.4,M,,*58
$GPRMC,195601.250,A,4308.5473,N,07728.5747,W,21.15,267.60,070925,,,A*4B
$GPGGA,195601.500,4308.5473,N,07728.5769,W,1,07,1.34,163.7,M,-34.4,M,,*50
$GPRMC,195601.750,A,4308.5472,N,07728.5791,W,22.06,267.51,070925,,,A*47
$GPGGA,195602.000,4308.5472,N,07728.5813,W,1,07,1.34,163.4,M,-34.4,M,,*56
$GPRMC,195602.250,A,4308.5471,N,07728.5836,W,22.78,267.21,070925,,,A*4E
$GPGGA,195602.500,4308.5471,N,07728.5860,W,1,07,1.34,163.1,M,-34.4,M,,*51
$GPRMC,195602.750,A,4308.5471,N,07728.5885,W,23.64,267.40,070925,,,A*48
$GPGGA,195603.000,4308.5472,N,07728.5909,W,1,07,1.34,162.9,M,-34.4,M,,*51
$GPRMC,195603.250,A,4308.5474,N,07728.5935,W,24.50,268.49,070925,,,A*45
$GPGGA,195603.500,4308.5475,N,07728.5961,W,1,07,1.34,162.8,M,-34.4,M,,*5C
$GPRMC,195603.750,A,4308.5475,N,07728.5987,W,25.42,268.60,070925,,,A*41
$GPGGA,195604.000,4308.5476,N,07728.6014,W,1,07,1.34,162.6,M,-34.4,M,,*5B
$GPRMC,195604.250,A,4308.5476,N,07728.6040,W,26.23,269.26,070925,,,A*46
$GPGGA,195604.500,4308.5476,N,07728.6066,W,1,07,1.34,162.3,M,-34.4,M,,*5E
$GPRMC,195604.750,A,4308.5476,N,07728.6093,W,26.56,269.00,070925,,,A*4B
$GPGGA,195605.000,4308.5475,N,07728.6120,W,1,07,1.34,162.0,M,-34.4,M,,*59
$GPRMC,195605.250,A,4308.5476,N,07728.6147,W,27.03,269.42,070925,,,A*40
$GPGGA,195605.500,4308.5476,N,07728.6175,W,1,07,1.34,161.8,M,-34.4,M,,*54
$GPRMC,195605.750,A,4308.5476,N,07728.6203,W,28.27,269.67,070925,,,A*48
$GPGGA,195606.000,4308.5477,N,07728.6232,W,1,07,1.34,161.5,M,-34.4,M,,*5E
$GPRMC,195606.250,A,4308.5479,N,07728.6261,W,29.11,270.61,070925,,,A*4F
$GPGGA,195606.500,4308.5479,N,07728.6291,W,1,07,1.34,161.1,M,-34.4,M,,*58
$GPRMC,195606.750,A,4308.5479,N,07728.6322,W,29.62,271.07,070925,,,A*49
$GPGGA,195607.000,4308.5479,N,07728.6353,W,1,07,1.34,160.5,M,-34.4,M,,*56
$GPRMC,195607.250,A,4308.5478,N,07728.6384,W,29.84,270.39,070925,,,A*44
$GPGGA,195607.500,4308.5479,N,07728.6415,W,1,07,1.34,159.9,M,-34.4,M,,*50
$GPRMC,195607.750,A,4308.5480,N,07728.6446,W,30.35,270.67,070925,,,A*46
$GPGGA,195608.000,4308.5480,N,07728.6478,W,1,07,1.34,159.3,M,-34.4,M,,*5D
$GPRMC,195608.250,A,4308.5481,N,07728.6509,W,30.97,270.83,070925,,,A*45
$GPGGA,195608.500,4308.5482,N,07728.6540,W,1,07,1.34,158.5,M,-34.4,M,,*57
$GPRMC,195608.750,A,4308.5481,N,07728.6572,W,31.61,269.67,070925,,,A*46
$GPGGA,195609.000,4308.5480,N,07728.6603,W,1,07,1.26,158.1,M,-34.4,M,,*52
$GPRMC,195609.250,A,4308.5479,N,07728.6635,W,31.99,269.65,070925,,,A*40
$GPGGA,195609.500,4308.5480,N,07728.6667,W,1,07,1.34,157.6,M,-34.4,M,,*5E
$GPRMC,195609.750,A,4308.5479,N,07728.6699,W,32.35,269.86,070925,,,A*4B
$GPGGA,195610.000,4308.5479,N,07728.6731,W,1,07,1.34,157.2,M,-34.4,M,,*53
$GPRMC,195610.250,A,4308.5479,N,07728.6763,W,32.91,269.87,070925,,,A*4D
$GPGGA,195610.500,4308.5479,N,07728.6796,W,1,07,1.34,156.8,M,-34.4,M,,*50
$GPRMC,195610.750,A,4308.5479,N,07728.6829,W,33.87,270.56,070925,,,A*4B
$GPGGA,195611.000,4308.5479,N,07728.6861,W,1,07,1.34,156.3,M,-34.4,M,,*58
$GPRMC,195611.250,A,4308.5479,N,07728.6894,W,34.28,270.52,070925,,,A*4F
$GPGGA,195611.500,4308.5481,N,07728.6929,W,1,07,1.34,155.7,M,-34.4,M,,*50
$GPRMC,195611.750,A,4308.5482,N,07728.6963,W,34.64,270.63,070925,,,A*4D
$GPGGA,195612.000,4308.5483,N,07728.6997,W,1,07,1.26,154.9,M,-34.4,M,,*5D
$GPRMC,195612.250,A,4308.5483,N,07728.7031,W,34.63,270.13,070925,,,A*45
$GPGGA,195612.500,4308.5484,N,07728.7065,W,1,07,1.34,154.2,M,-34.4,M,,*52
$GPRMC,195612.750,A,4308.5486,N,07728.7099,W,34.31,269.52,070925,,,A*4D
$GPGGA,195613.000,4308.5487,N,07728.7132,W,1,07,1.34,153.4,M,-34.4,M,,*57
$GPRMC,195613.250,A,4308.5489,N,07728.7166,W,34.09,269.79,070925,,,A*45
$GPGGA,195613.500,4308.5489,N,07728.7200,W,1,07,1.34,152.7,M,-34.4,M,,*5C
$GPRMC,195613.750,A,4308.5488,N,07728.7234,W,33.99,269.60,070925,,,A*43
$GPGGA,195614.000,4308.5489,N,07728.7267,W,1,07,1.34,151.8,M,-34.4,M,,*53
$GPRMC,195614.250,A,4308.5490,N,07728.7302,W,34.19,270.22,070925,,,A*4D
$GPGGA,195614.500,4308.5490,N,07728.7336,W,1,07,1.34,150.7,M,-34.4,M,,*55
$GPRMC,195614.750,A,4308.5491,N,07728.7369,W,34.39,270.29,070925,,,A*4D
$GPGGA,195615.000,4308.5491,N,07728.7403,W,1,07,1.34,149.8,M,-34.4,M,,*56
$GPRMC,195615.250,A,4308.5491,N,07728.7436,W,34.57,270.49,070925,,,A*4A
$GPGGA,195615.500,4308.5492,N,07728.7470,W,1,07,1.34,148.7,M,-34.4,M,,*5A
$GPRMC,195615.750,A,4308.5492,N,07728.7505,W,34.58,271.09,070925,,,A*47
$GPGGA,195616.000,4308.5492,N,07728.7539,W,1,07,1.26,147.8,M,-34.4,M,,*53
$GPRMC,195616.250,A,4308.5491,N,07728.7573,W,34.64,270.68,070925,,,A*4A
$GPGGA,195616.500,4308.5491,N,07728.7607,W,1,07,1.34,146.9,M,-34.4,M,,*58
$GPRMC,195616.750,A,4308.5490,N,07728.7641,W,34.66,269.98,070925,,,A*49
$GPGGA,195617.000,4308.5489,N,07728.7675,W,1,07,1.34,146.0,M,-34.4,M,,*59
$GPRMC,195617.250,A,4308.5488,N,07728.7708,W,34.63,269.39,070925,,,A*46
$GPGGA,195617.500,4308.5488,N,07728.7742,W,1,07,1.34,145.1,M,-34.4,M,,*5A
$GPRMC,195617.750,A,4308.5488,N,07728.7776,W,34.57,269.62,070925,,,A*43
$GPGGA,195618.000,4308.5488,N,07728.7810,W,1,07,1.26,144.2,M,-34.4,M,,*59
$GPRMC,195618.250,A,4308.5487,N,07728.7844,W,34.53,269.79,070925,,,A*46
$GPGGA,195618.500,4308.5487,N,07728.7877,W,1,07,1.34,143.3,M,-34.4,M,,*57
$GPRMC,195618.750,A,4308.5487,N,07728.7911,W,34.19,270.01,070925,,,A*4B
$GPGGA,195619.000,4308.5487,N,07728.7944,W,1,07,1.34,142.5,M,-34.4,M,,*55
$GPRMC,195619.250,A,4308.5486,N,07728.7976,W,34.10,269.43,070925,,,A*48
$GPGGA,195619.500,4308.5484,N,07728.8008,W,1,07,1.34,141.7,M,-34.4,M,,*5C
$GPRMC,195619.750,A,4308.5484,N,07728.8040,W,33.14,268.86,070925,,,A*47
$GPGGA,195620.000,4308.5484,N,07728.8072,W,1,07,1.26,140.9,M,-34.4,M,,*52
$GPRMC,195620.250,A,4308.5483,N,07728.8103,W,32.89,268.87,070925,,,A*4D
$GPGGA,195620.500,4308.5482,N,07728.8135,W,1,07,1.34,140.2,M,-34.4,M,,*5B
$GPRMC,195620.750,A,4308.5480,N,07728.8166,W,32.65,267.68,070925,,,A*44
$GPGGA,195621.000,4308.5480,N,07728.8197,W,1,07,1.34,139.4,M,-34.4,M,,*5D
$GPRMC,195621.250,A,4308.5479,N,07728.8228,W,32.61,267.77,070925,,,A*45
$GPGGA,195621.500,4308.5478,N,07728.8259,W,1,07,1.34,138.7,M,-34.4,M,,*5C
$GPRMC,195621.750,A,4308.5477,N,07728.8291,W,32.66,267.69,070925,,,A*44
$GPGGA,195622.000,4308.5477,N,07728.8322,W,1,07,1.26,138.1,M,-34.4,M,,*5D
$GPRMC,195622.250,A,4308.5477,N,07728.8353,W,32.73,268.34,070925,,,A*4E
$GPGGA,195622.500,4308.5477,N,07728.8385,W,1,07,1.34,137.4,M,-34.4,M,,*5C
$GPRMC,195622.750,A,4308.5478,N,07728.8417,W,33.04,269.02,070925,,,A*46
$GPGGA,195623.000,4308.5478,N,07728.8448,W,1,07,1.34,136.7,M,-34.4,M,,*53
$GPRMC,195623.250,A,4308.5478,N,07728.8480,W,32.86,269.56,070925,,,A*46
$GPGGA,195623.500,4308.5478,N,07728.8511,W,1,07,1.34,136.1,M,-34.4,M,,*5D
$GPRMC,195623.750,A,4308.5478,N,07728.8543,W,32.86,270.09,070925,,,A*4F
$GPGGA,195624.000,4308.5478,N,07728.8574,W,1,07,1.34,135.7,M,-34.4,M,,*59
$GPRMC,195624.250,A,4308.5478,N,07728.8606,W,32.71,270.64,070925,,,A*4C
$GPGGA,195624.500,4308.5479,N,07728.8637,W,1,07,1.34,135.1,M,-34.4,M,,*5F
$GPRMC,195624.750,A,4308.5482,N,07728.8669,W,32.25,272.29,070925,,,A*4F
$GPGGA,195625.000,4308.5483,N,07728.8703,W,1,07,1.26,134.8,M,-34.4,M,,*53
$GPRMC,195625.250,A,4308.5486,N,07728.8737,W,32.86,274.03,070925,,,A*42
$GPGGA,195625.500,4308.5490,N,07728.8773,W,1,07,1.34,134.6,M,-34.4,M,,*5E
$GPRMC,195625.750,A,4308.5495,N,07728.8810,W,33.34,278.43,070925,,,A*4F
$GPGGA,195626.000,4308.5500,N,07728.8844,W,1,07,1.34,134.3,M,-34.4,M,,*5E
$GPRMC,195626.250,A,4308.5506,N,07728.8877,W,33.75,281.09,070925,,,A*4E
$GPGGA,195626.500,4308.5512,N,07728.8911,W,1,07,1.34,133.9,M,-34.4,M,,*54
$GPRMC,195626.750,A,4308.5519,N,07728.8944,W,34.04,283.36,070925,,,A*4B
$GPGGA,195627.000,4308.5525,N,07728.8976,W,1,07,1.26,133.5,M,-34.4,M,,*5A
$GPRMC,195627.250,A,4308.5533,N,07728.9007,W,34.05,285.03,070925,,,A*49
$GPGGA,195627.500,4308.5542,N,07728.9039,W,1,07,1.33,132.9,M,-34.4,M,,*54
$GPRMC,195627.750,A,4308.5552,N,07728.9070,W,34.06,288.17,070925,,,A*40
$GPGGA,195628.000,4308.5561,N,07728.9102,W,1,07,1.34,132.4,M,-34.4,M,,*5C
$GPRMC,195628.250,A,4308.5572,N,07728.9132,W,34.08,290.02,070925,,,A*4C
$GPGGA,195628.500,4308.5581,N,07728.9165,W,1,07,1.26,131.6,M,-34.4,M,,*54
$GPRMC,195628.750,A,4308.5591,N,07728.9197,W,35.14,292.32,070925,,,A*46
$GPGGA,195629.000,4308.5601,N,07728.9229,W,1,07,1.26,131.4,M,-34.4,M,,*52
$GPRMC,195629.250,A,4308.5613,N,07728.9258,W,34.85,295.50,070925,,,A*41
$GPGGA,195629.500,4308.5624,N,07728.9289,W,1,07,1.34,131.1,M,-34.4,M,,*5C
$GPRMC,195629.750,A,4308.5637,N,07728.9321,W,34.52,298.32,070925,,,A*4E
$GPGGA,195630.000,4308.5651,N,07728.9350,W,1,07,1.34,130.6,M,-34.4,M,,*50
$GPRMC,195630.250,A,4308.5666,N,07728.9378,W,34.17,301.76,070925,,,A*4B
$GPGGA,195630.500,4308.5679,N,07728.9406,W,1,07,1.34,130.4,M,-34.4,M,,*59
$GPRMC,195630.750,A,4308.5693,N,07728.9432,W,33.93,303.62,070925,,,A*41
$GPGGA,195631.000,4308.5707,N,07728.9459,W,1,07,1.26,130.2,M,-34.4,M,,*5A
$GPRMC,195631.250,A,4308.5722,N,07728.9486,W,33.80,305.27,070925,,,A*44
$GPGGA,195631.500,4308.5738,N,07728.9511,W,1,07,1.26,130.0,M,-34.4,M,,*5C
$GPRMC,195631.750,A,4308.5758,N,07728.9535,W,33.81,310.25,070925,,,A*42
$GPGGA,195632.000,4308.5776,N,07728.9558,W,1,07,1.34,130.0,M,-34.4,M,,*5E
$GPRMC,195632.250,A,4308.5794,N,07728.9582,W,33.80,313.52,070925,,,A*4A
$GPGGA,195632.500,4308.5812,N,07728.9605,W,1,07,1.34,130.0,M,-34.4,M,,*5D
$GPRMC,195632.750,A,4308.5830,N,07728.9628,W,33.93,315.66,070925,,,A*4E
$GPGGA,195633.000,4308.5849,N,07728.9651,W,1,07,1.34,130.0,M,-34.4,M,,*56
$GPRMC,195633.250,A,4308.5868,N,07728.9673,W,34.11,317.19,070925,,,A*4E
$GPGGA,195633.500,4308.5887,N,07728.9696,W,1,07,1.34,130.1,M,-34.4,M,,*5B
$GPRMC,195633.750,A,4308.5906,N,07728.9719,W,34.36,318.41,070925,,,A*48
$GPGGA,195634.000,4308.5926,N,07728.9741,W,1,07,1.26,130.1,M,-34.4,M,,*5B
$GPRMC,195634.250,A,4308.5946,N,07728.9762,W,36.19,319.89,070925,,,A*48
$GPGGA,195634.500,4308.5966,N,07728.9784,W,1,07,1.34,130.2,M,-34.4,M,,*53
$GPRMC,195634.750,A,4308.5987,N,07728.9806,W,36.69,320.43,070925,,,A*46
$GPGGA,195635.000,4308.6008,N,07728.9828,W,1,07,1.34,130.2,M,-34.4,M,,*5C
$GPRMC,195635.250,A,4308.6028,N,07728.9849,W,36.62,321.39,070925,,,A*41
$GPGGA,195635.500,4308.6049,N,07728.9870,W,1,07,1.33,130.4,M,-34.4,M,,*50
$GPRMC,195635.750,A,4308.6069,N,07728.9892,W,36.46,321.22,070925,,,A*4B
$GPGGA,195636.000,4308.6089,N,07728.9914,W,1,07,1.26,130.5,M,-34.4,M,,*5C
$GPRMC,195636.250,A,4308.6110,N,07728.9935,W,36.42,321.40,070925,,,A*4E
$GPGGA,195636.500,4308.6130,N,07728.9956,W,1,07,1.34,130.5,M,-34.4,M,,*5F
$GPRMC,195636.750,A,4308.6150,N,07728.9977,W,35.85,321.24,070925,,,A*43
$GPGGA,195637.000,4308.6170,N,07728.9999,W,1,07,1.33,130.5,M,-34.4,M,,*5B
$GPRMC,195637.250,A,4308.6191,N,07729.0020,W,35.81,321.08,070925,,,A*43
$GPGGA,195637.500,4308.6211,N,07729.0041,W,1,07,1.34,130.6,M,-34.4,M,,*5A
$GPRMC,195637.750,A,4308.6230,N,07729.0062,W,35.00,320.79,070925,,,A*46
$GPGGA,195638.000,4308.6249,N,07729.0083,W,1,07,1.26,130.6,M,-34.4,M,,*50
$GPRMC,195638.250,A,4308.6268,N,07729.0103,W,34.56,321.13,070925,,,A*48
$GPGGA,195638.500,4308.6288,N,07729.0123,W,1,07,1.34,130.7,M,-34.4,M,,*51
$GPRMC,195638.750,A,4308.6307,N,07729.0144,W,34.15,321.15,070925,,,A*47
$GPGGA,195639.000,4308.6325,N,07729.0165,W,1,07,1.34,130.8,M,-34.4,M,,*5E
$GPRMC,195639.250,A,4308.6344,N,07729.0185,W,33.76,320.77,070925,,,A*4E
$GPGGA,195639.500,4308.6362,N,07729.0205,W,1,07,1.34,130.8,M,-34.4,M,,*5D
$GPRMC,195639.750,A,4308.6381,N,07729.0225,W,33.48,320.52,070925,,,A*41
$GPGGA,195640.000,4308.6400,N,07729.0245,W,1,07,1.26,130.7,M,-34.4,M,,*5D
$GPRMC,195640.250,A,4308.6419,N,07729.0265,W,33.47,321.13,070925,,,A*43
$GPGGA,195640.500,4308.6439,N,07729.0284,W,1,07,1.34,130.6,M,-34.4,M,,*5D
$GPRMC,195640.750,A,4308.6457,N,07729.0304,W,32.99,321.04,070925,,,A*4E
$GPGGA,195641.000,4308.6475,N,07729.0324,W,1,07,1.26,130.5,M,-34.4,M,,*5A
$GPRMC,195641.250,A,4308.6494,N,07729.0343,W,32.96,321.60,070925,,,A*4B
$GPGGA,195641.500,4308.6513,N,07729.0362,W,1,07,1.33,130.3,M,-34.4,M,,*5E
$GPRMC,195641.750,A,4308.6531,N,07729.0382,W,32.79,321.81,070925,,,A*43
$GPGGA,195642.000,4308.6548,N,07729.0401,W,1,07,1.34,130.2,M,-34.4,M,,*52
$GPRMC,195642.250,A,4308.6565,N,07729.0421,W,32.51,321.27,070925,,,A*4C
$GPGGA,195642.500,4308.6583,N,07729.0441,W,1,07,1.33,130.1,M,-34.4,M,,*50
$GPRMC,195642.750,A,4308.6600,N,07729.0461,W,32.48,320.67,070925,,,A*40
$GPGGA,195643.000,4308.6618,N,07729.0481,W,1,07,1.26,129.9,M,-34.4,M,,*5D
$GPRMC,195643.250,A,4308.6636,N,07729.0500,W,32.76,320.95,070925,,,A*47
$GPGGA,195643.500,4308.6655,N,07729.0520,W,1,07,1.34,129.6,M,-34.4,M,,*57
$GPRMC,195643.750,A,4308.6673,N,07729.0539,W,33.07,321.46,070925,,,A*41
$GPGGA,195644.000,4308.6691,N,07729.0559,W,1,07,1.26,129.3,M,-34.4,M,,*55
$GPRMC,195644.250,A,4308.6709,N,07729.0578,W,33.17,322.12,070925,,,A*49
$GPGGA,195644.500,4308.6726,N,07729.0597,W,1,07,1.33,129.0,M,-34.4,M,,*58
$GPRMC,195644.750,A,4308.6744,N,07729.0616,W,32.52,321.98,070925,,,A*4F
$GPGGA,195645.000,4308.6761,N,07729.0634,W,1,07,1.26,128.8,M,-34.4,M,,*58
$GPRMC,195645.250,A,4308.6778,N,07729.0653,W,31.89,321.63,070925,,,A*44
$GPGGA,195645.500,4308.6794,N,07729.0671,W,1,07,1.34,128.6,M,-34.4,M,,*5B
$GPRMC,195645.750,A,4308.6811,N,07729.0688,W,30.94,321.86,070925,,,A*41
$GPGGA,195646.000,4308.6828,N,07729.0706,W,1,07,1.34,128.4,M,-34.4,M,,*56
$GPRMC,195646.250,A,4308.6844,N,07729.0723,W,30.56,321.92,070925,,,A*4C
$GPGGA,195646.500,4308.6861,N,07729.0741,W,1,07,1.33,128.3,M,-34.4,M,,*5D
$GPRMC,195646.750,A,4308.6877,N,07729.0759,W,30.38,321.33,070925,,,A*47
$GPGGA,195647.000,4308.6894,N,07729.0777,W,1,07,1.33,128.4,M,-34.4,M,,*51
$GPRMC,195647.250,A,4308.6911,N,07729.0794,W,30.33,321.37,070925,,,A*4C
$GPGGA,195647.500,4308.6929,N,07729.0812,W,1,07,1.33,128.6,M,-34.4,M,,*5D
$GPRMC,195647.750,A,4308.6947,N,07729.0828,W,29.65,322.27,070925,,,A*4B
$GPGGA,195648.000,4308.6964,N,07729.0845,W,1,07,1.26,128.8,M,-34.4,M,,*56
$GPRMC,195648.250,A,4308.6980,N,07729.0861,W,29.13,322.74,070925,,,A*40
$GPGGA,195648.500,4308.6997,N,07729.0877,W,1,07,1.34,129.0,M,-34.4,M,,*54
$GPRMC,195648.750,A,4308.7015,N,07729.0892,W,28.01,323.91,070925,,,A*45
$GPGGA,195649.000,4308.7032,N,07729.0907,W,1,07,1.33,129.3,M,-34.4,M,,*55
$GPRMC,195649.250,A,4308.7050,N,07729.0920,W,26.64,326.42,070925,,,A*4E
$GPGGA,195649.500,4308.7067,N,07729.0932,W,1,07,1.33,129.6,M,-34.4,M,,*53
$GPRMC,195649.750,A,4308.7085,N,07729.0945,W,24.76,328.75,070925,,,A*4B
$GPGGA,195650.000,4308.7100,N,07729.0956,W,1,07,1.33,129.9,M,-34.4,M,,*53
$GPRMC,195650.250,A,4308.7114,N,07729.0967,W,23.54,329.49,070925,,,A*46
$GPGGA,195650.500,4308.7127,N,07729.0977,W,1,07,1.33,129.8,M,-34.4,M,,*51
$GPRMC,195650.750,A,4308.7142,N,07729.0986,W,22.34,330.69,070925,,,A*42
$GPGGA,195651.000,4308.7156,N,07729.0996,W,1,07,1.26,129.9,M,-34.4,M,,*59
$GPRMC,195651.250,A,4308.7169,N,07729.1005,W,21.47,330.99,070925,,,A*44
$GPGGA,195651.500,4308.7180,N,07729.1015,W,1,07,1.33,129.9,M,-34.4,M,,*50
$GPRMC,195651.750,A,4308.7191,N,07729.1024,W,20.44,329.89,070925,,,A*4E
$GPGGA,195652.000,4308.7200,N,07729.1034,W,1,07,1.33,129.9,M,-34.4,M,,*5E
$GPRMC,195652.250,A,4308.7209,N,07729.1044,W,19.32,327.12,070925,,,A*4B
$GPGGA,195652.500,4308.7215,N,07729.1053,W,1,07,1.33,130.1,M,-34.4,M,,*5E
$GPRMC,195652.750,A,4308.7221,N,07729.1062,W,16.77,323.10,070925,,,A*48
$GPGGA,195653.000,4308.7226,N,07729.1071,W,1,07,1.33,130.3,M,-34.4,M,,*58
$GPRMC,195653.250,A,4308.7232,N,07729.1080,W,15.12,316.77,070925,,,A*45
$GPGGA,195653.500,4308.7233,N,07729.1091,W,1,07,1.34,130.7,M,-34.4,M,,*54
$GPRMC,195653.750,A,4308.7240,N,07729.1102,W,13.83,304.15,070925,,,A*47
$GPGGA,195654.000,4308.7243,N,07729.1110,W,1,07,1.33,131.0,M,-34.4,M,,*58
$GPRMC,195654.250,A,4308.7243,N,07729.1118,W,12.25,294.84,070925,,,A*40
$GPGGA,195654.500,4308.7243,N,07729.1127,W,1,07,1.33,131.0,M,-34.4,M,,*59
$GPRMC,195654.750,A,4308.7243,N,07729.1136,W,11.75,286.30,070925,,,A*43
$GPGGA,195655.000,4308.7243,N,07729.1148,W,1,07,1.33,131.2,M,-34.4,M,,*56
$GPRMC,195655.250,A,4308.7243,N,07729.1161,W,12.29,278.97,070925,,,A*43
$GPGGA,195655.500,4308.7242,N,07729.1174,W,1,07,1.33,131.2,M,-34.4,M,,*5D
$GPRMC,195655.750,A,4308.7242,N,07729.1187,W,12.81,275.86,070925,,,A*40
$GPGGA,195656.000,4308.7240,N,07729.1200,W,1,07,1.33,131.3,M,-34.4,M,,*58
$GPRMC,195656.250,A,4308.7239,N,07729.1213,W,13.91,272.58,070925,,,A*40
$GPGGA,195656.500,4308.7238,N,07729.1227,W,1,07,1.33,131.3,M,-34.4,M,,*57
$GPRMC,195656.750,A,4308.7237,N,07729.1241,W,14.83,273.11,070925,,,A*44
$GPGGA,195657.000,4308.7237,N,07729.1256,W,1,07,1.33,131.3,M,-34.4,M,,*5A
$GPRMC,195657.250,A,4308.7238,N,07729.1270,W,15.74,274.08,070925,,,A*4B
$GPGGA,195657.500,4308.7239,N,07729.1286,W,1,07,1.33,131.3,M,-34.4,M,,*5C
$GPRMC,195657.750,A,4308.7239,N,07729.1302,W,16.79,273.94,070925,,,A*47
$GPGGA,195658.000,4308.7239,N,07729.1319,W,1,07,1.33,131.3,M,-34.4,M,,*51
$GPRMC,195658.250,A,4308.7239,N,07729.1337,W,17.82,273.71,070925,,,A*45
$GPGGA,195658.500,4308.7239,N,07729.1355,W,1,07,1.33,131.3,M,-34.4,M,,*5C
$GPRMC,195658.750,A,4308.7238,N,07729.1374,W,18.96,273.05,070925,,,A*4F
$GPGGA,195659.000,4308.7238,N,07729.1394,W,1,07,1.33,131.3,M,-34.4,M,,*54
$GPRMC,195659.250,A,4308.7238,N,07729.1414,W,19.83,273.33,070925,,,A*4A
$GPGGA,195659.500,4308.7237,N,07729.1434,W,1,07,1.33,131.3,M,-34.4,M,,*53
$GPRMC,195659.750,A,4308.7237,N,07729.1455,W,20.64,273.27,070925,,,A*43
$GPGGA,195700.000,4308.7238,N,07729.1475,W,1,07,1.33,131.3,M,-34.4,M,,*51
$GPRMC,195700.250,A,4308.7238,N,07729.1495,W,21.09,273.23,070925,,,A*46
$GPGGA,195700.500,4308.7239,N,07729.1516,W,1,07,1.33,131.4,M,-34.4,M,,*56
$GPRMC,195700.750,A,4308.7239,N,07729.1536,W,21.43,272.44,070925,,,A*44
$GPGGA,195701.000,4308.7239,N,07729.1557,W,1,07,1.33,131.5,M,-34.4,M,,*56
$GPRMC,195701.250,A,4308.7239,N,07729.1578,W,21.77,272.09,070925,,,A*44
$GPGGA,195701.500,4308.7240,N,07729.1599,W,1,07,1.33,131.7,M,-34.4,M,,*5D
$GPRMC,195701.750,A,4308.7240,N,07729.1621,W,21.89,271.90,070925,,,A*42
$GPGGA,195702.000,4308.7241,N,07729.1643,W,1,07,1.33,131.8,M,-34.4,M,,*51
$GPRMC,195702.250,A,4308.7241,N,07729.1664,W,22.30,271.85,070925,,,A*41
$GPGGA,195702.500,4308.7241,N,07729.1686,W,1,07,1.33,131.9,M,-34.4,M,,*5C
$GPRMC,195702.750,A,4308.7241,N,07729.1708,W,22.73,271.50,070925,,,A*40
$GPGGA,195703.000,4308.7241,N,07729.1730,W,1,07,1.33,131.9,M,-34.4,M,,*54
$GPRMC,195703.250,A,4308.7241,N,07729.1753,W,22.92,271.59,070925,,,A*4C
$GPGGA,195703.500,4308.7242,N,07729.1776,W,1,07,1.33,131.8,M,-34.4,M,,*51
$GPRMC,195703.750,A,4308.7243,N,07729.1799,W,23.16,272.70,070925,,,A*48
$GPGGA,195704.000,4308.7243,N,07729.1822,W,1,07,1.33,131.9,M,-34.4,M,,*5D
$GPRMC,195704.250,A,4308.7244,N,07729.1845,W,23.25,273.68,070925,,,A*4B
$GPGGA,195704.500,4308.7246,N,07729.1868,W,1,07,1.33,131.8,M,-34.4,M,,*52
$GPRMC,195704.750,A,4308.7247,N,07729.1891,W,23.29,274.34,070925,,,A*46
$GPGGA,195705.000,4308.7248,N,07729.1913,W,1,07,1.33,131.7,M,-34.4,M,,*5A
$GPRMC,195705.250,A,4308.7249,N,07729.1936,W,23.51,274.96,070925,,,A*47
$GPGGA,195705.500,4308.7250,N,07729.1959,W,1,07,1.33,131.5,M,-34.4,M,,*5A
$GPRMC,195705.750,A,4308.7250,N,07729.1983,W,23.73,275.61,070925,,,A*4D
$GPGGA,195706.000,4308.7251,N,07729.2006,W,1,07,1.33,131.0,M,-34.4,M,,*58
$GPRMC,195706.250,A,4308.7251,N,07729.2030,W,23.95,276.21,070925,,,A*47
$GPGGA,195706.500,4308.7252,N,07729.2055,W,1,07,1.33,130.4,M,-34.4,M,,*5D
$GPRMC,195706.750,A,4308.7253,N,07729.2079,W,24.37,276.26,070925,,,A*45
$GPGGA,195707.000,4308.7254,N,07729.2103,W,1,07,1.33,130.0,M,-34.4,M,,*59
$GPRMC,195707.250,A,4308.7255,N,07729.2128,W,24.77,276.82,070925,,,A*48
$GPGGA,195707.500,4308.7256,N,07729.2153,W,1,07,1.33,129.0,M,-34.4,M,,*53
$GPRMC,195707.750,A,4308.7256,N,07729.2180,W,25.72,276.56,070925,,,A*41
$GPGGA,195708.000,4308.7258,N,07729.2206,W,1,07,1.26,128.6,M,-34.4,M,,*57
$GPRMC,195708.250,A,4308.7259,N,07729.2231,W,25.99,276.99,070925,,,A*4B
$GPGGA,195708.500,4308.7260,N,07729.2257,W,1,07,1.33,128.2,M,-34.4,M,,*5D
$GPRMC,195708.750,A,4308.7260,N,07729.2284,W,26.23,275.76,070925,,,A*4A
$GPGGA,195709.000,4308.7261,N,07729.2310,W,1,07,1.33,127.8,M,-34.4,M,,*5F
$GPRMC,195709.250,A,4308.7262,N,07729.2336,W,26.88,274.88,070925,,,A*45
$GPGGA,195709.500,4308.7261,N,07729.2363,W,1,07,1.33,127.2,M,-34.4,M,,*54
$GPRMC,195709.750,A,4308.7261,N,07729.2390,W,27.00,273.11,070925,,,A*49
$GPGGA,195710.000,4308.7262,N,07729.2416,W,1,07,1.33,126.7,M,-34.4,M,,*5B
$GPRMC,195710.250,A,4308.7263,N,07729.2442,W,27.85,273.75,070925,,,A*41
$GPGGA,195710.500,4308.7264,N,07729.2469,W,1,07,1.33,126.2,M,-34.4,M,,*55
$GPRMC,195710.750,A,4308.7265,N,07729.2495,W,28.09,274.23,070925,,,A*47
$GPGGA,195711.000,4308.7266,N,07729.2522,W,1,07,1.33,125.7,M,-34.4,M,,*5B
$GPRMC,195711.250,A,4308.7267,N,07729.2550,W,28.75,274.09,070925,,,A*4A
$GPGGA,195711.500,4308.7268,N,07729.2578,W,1,07,1.33,125.2,M,-34.4,M,,*5A
$GPRMC,195711.750,A,4308.7269,N,07729.2605,W,28.87,273.73,070925,,,A*45
$GPGGA,195712.000,4308.7269,N,07729.2634,W,1,07,1.33,125.0,M,-34.4,M,,*54
$GPRMC,195712.250,A,4308.7270,N,07729.2662,W,29.21,273.54,070925,,,A*42
$GPGGA,195712.500,4308.7270,N,07729.2690,W,1,07,1.33,124.7,M,-34.4,M,,*51
$GPRMC,195712.750,A,4308.7271,N,07729.2717,W,28.86,273.55,070925,,,A*48
$GPGGA,195713.000,4308.7272,N,07729.2745,W,1,07,1.33,124.3,M,-34.4,M,,*5A
$GPRMC,195713.250,A,4308.7274,N,07729.2772,W,28.63,273.84,070925,,,A*4D
$GPGGA,195713.500,4308.7275,N,07729.2799,W,1,07,1.33,123.9,M,-34.4,M,,*54
$GPRMC,195713.750,A,4308.7276,N,07729.2827,W,28.63,273.88,070925,,,A*49
$GPGGA,195714.000,4308.7277,N,07729.2855,W,1,07,1.33,123.4,M,-34.4,M,,*56
$GPRMC,195714.250,A,4308.7277,N,07729.2883,W,29.11,272.88,070925,,,A*41
$GPGGA,195714.500,4308.7278,N,07729.2911,W,1,07,1.33,123.2,M,-34.4,M,,*5B
$GPRMC,195714.750,A,4308.7278,N,07729.2939,W,29.14,271.72,070925,,,A*48
$GPGGA,195715.000,4308.7278,N,07729.2967,W,1,07,1.33,122.9,M,-34.4,M,,*54
$GPRMC,195715.250,A,4308.7279,N,07729.2995,W,29.39,271.72,070925,,,A*44
$GPGGA,195715.500,4308.7280,N,07729.3024,W,1,07,1.33,122.8,M,-34.4,M,,*58
$GPRMC,195715.750,A,4308.7281,N,07729.3053,W,29.35,272.37,070925,,,A*4A
$GPGGA,195716.000,4308.7282,N,07729.3080,W,1,07,1.33,122.6,M,-34.4,M,,*5C
$GPRMC,195716.250,A,4308.7283,N,07729.3108,W,29.10,272.94,070925,,,A*4F
$GPGGA,195716.500,4308.7284,N,07729.3136,W,1,07,1.33,122.5,M,-34.4,M,,*50
$GPRMC,195716.750,A,4308.7286,N,07729.3164,W,28.98,273.47,070925,,,A*4B
$GPGGA,195717.000,4308.7287,N,07729.3192,W,1,07,1.33,122.4,M,-34.4,M,,*58
$GPRMC,195717.250,A,4308.7289,N,07729.3219,W,28.92,274.09,070925,,,A*4E
$GPGGA,195717.500,4308.7290,N,07729.3247,W,1,07,1.33,122.1,M,-34.4,M,,*55
$GPRMC,195717.750,A,4308.7292,N,07729.3274,W,29.11,273.80,070925,,,A*46
$GPGGA,195718.000,4308.7293,N,07729.3302,W,1,07,1.33,121.8,M,-34.4,M,,*56
$GPRMC,195718.250,A,4308.7295,N,07729.3330,W,29.48,274.44,070925,,,A*49
$GPGGA,195718.500,4308.7297,N,07729.3358,W,1,07,1.33,121.6,M,-34.4,M,,*56
$GPRMC,195718.750,A,4308.7299,N,07729.3385,W,29.57,274.63,070925,,,A*45
$GPGGA,195719.000,4308.7301,N,07729.3413,W,1,07,1.33,121.4,M,-34.4,M,,*56
$GPRMC,195719.250,A,4308.7303,N,07729.3441,W,29.39,274.32,070925,,,A*40
$GPGGA,195719.500,4308.7304,N,07729.3469,W,1,07,1.33,121.4,M,-34.4,M,,*5B
$GPRMC,195719.750,A,4308.7306,N,07729.3497,W,29.24,274.50,070925,,,A*43
$GPGGA,195720.000,4308.7307,N,07729.3524,W,1,07,1.26,121.2,M,-34.4,M,,*5D
$GPRMC,195720.250,A,4308.7308,N,07729.3552,W,29.00,274.24,070925,,,A*4F
$GPGGA,195720.500,4308.7309,N,07729.3579,W,1,07,1.33,120.9,M,-34.4,M,,*50
$GPRMC,195720.750,A,4308.7310,N,07729.3606,W,28.51,274.28,070925,,,A*48
$GPGGA,195721.000,4308.7312,N,07729.3632,W,1,07,1.33,120.8,M,-34.4,M,,*53
$GPRMC,195721.250,A,4308.7312,N,07729.3659,W,28.46,273.83,070925,,,A*44
$GPGGA,195721.500,4308.7314,N,07729.3686,W,1,07,1.33,120.6,M,-34.4,M,,*51
$GPRMC,195721.750,A,4308.7315,N,07729.3714,W,28.50,274.66,070925,,,A*45
$GPGGA,195722.000,4308.7316,N,07729.3740,W,1,07,1.33,120.4,M,-34.4,M,,*5C
$GPRMC,195722.250,A,4308.7317,N,07729.3767,W,27.90,274.04,070925,,,A*42
$GPGGA,195722.500,4308.7317,N,07729.3793,W,1,07,1.33,120.3,M,-34.4,M,,*51
$GPRMC,195722.750,A,4308.7318,N,07729.3820,W,27.83,273.53,070925,,,A*43
$GPGGA,195723.000,4308.7319,N,07729.3846,W,1,07,1.33,120.3,M,-34.4,M,,*5C
$GPRMC,195723.250,A,4308.7319,N,07729.3872,W,27.79,273.87,070925,,,A*4D
$GPGGA,195723.500,4308.7320,N,07729.3898,W,1,07,1.33,120.2,M,-34.4,M,,*51
$GPRMC,195723.750,A,4308.7321,N,07729.3923,W,27.52,274.02,070925,,,A*45
$GPGGA,195724.000,4308.7322,N,07729.3949,W,1,07,1.33,120.2,M,-34.4,M,,*5C
$GPRMC,195724.250,A,4308.7324,N,07729.3975,W,27.28,274.54,070925,,,A*4F
$GPGGA,195724.500,4308.7325,N,07729.4001,W,1,07,1.33,120.1,M,-34.4,M,,*5F
$GPRMC,195724.750,A,4308.7327,N,07729.4027,W,26.88,275.19,070925,,,A*43
$GPGGA,195725.000,4308.7328,N,07729.4052,W,1,07,1.33,119.9,M,-34.4,M,,*52
$GPRMC,195725.250,A,4308.7330,N,07729.4077,W,26.37,275.85,070925,,,A*45
$GPGGA,195725.500,4308.7332,N,07729.4102,W,1,07,1.33,119.8,M,-34.4,M,,*59
$GPRMC,195725.750,A,4308.7334,N,07729.4127,W,26.09,276.61,070925,,,A*44
$GPGGA,195726.000,4308.7336,N,07729.4152,W,1,07,1.33,119.5,M,-34.4,M,,*53
$GPRMC,195726.250,A,4308.7338,N,07729.4178,W,25.64,278.15,070925,,,A*41
$GPGGA,195726.500,4308.7341,N,07729.4204,W,1,07,1.33,119.5,M,-34.4,M,,*56
$GPRMC,195726.750,A,4308.7344,N,07729.4229,W,25.21,280.47,070925,,,A*49
$GPGGA,195727.000,4308.7348,N,07729.4252,W,1,07,1.33,119.4,M,-34.4,M,,*59
$GPRMC,195727.250,A,4308.7353,N,07729.4275,W,24.67,282.74,070925,,,A*43
$GPGGA,195727.500,4308.7357,N,07729.4298,W,1,07,1.33,119.0,M,-34.4,M,,*50
$GPRMC,195727.750,A,4308.7361,N,07729.4321,W,24.21,284.35,070925,,,A*46
$GPGGA,195728.000,4308.7365,N,07729.4343,W,1,07,1.33,118.8,M,-34.4,M,,*55
$GPRMC,195728.250,A,4308.7369,N,07729.4365,W,23.73,284.91,070925,,,A*4A
$GPGGA,195728.500,4308.7374,N,07729.4386,W,1,07,1.33,118.8,M,-34.4,M,,*59
$GPRMC,195728.750,A,4308.7379,N,07729.4407,W,23.18,287.05,070925,,,A*4E
$GPGGA,195729.000,4308.7384,N,07729.4429,W,1,07,1.33,118.6,M,-34.4,M,,*5E
$GPRMC,195729.250,A,4308.7389,N,07729.4450,W,23.14,287.84,070925,,,A*42
$GPGGA,195729.500,4308.7395,N,07729.4470,W,1,07,1.33,118.5,M,-34.4,M,,*54
$GPRMC,195729.750,A,4308.7401,N,07729.4490,W,22.81,289.59,070925,,,A*4F
$GPGGA,195730.000,4308.7407,N,07729.4511,W,1,07,1.33,118.3,M,-34.4,M,,*55
$GPRMC,195730.250,A,4308.7412,N,07729.4531,W,22.52,290.38,070925,,,A*4B
$GPGGA,195730.500,4308.7418,N,07729.4550,W,1,07,1.33,118.0,M,-34.4,M,,*58
$GPRMC,195730.750,A,4308.7423,N,07729.4568,W,21.71,291.40,070925,,,A*4C
$GPGGA,195731.000,4308.7429,N,07729.4587,W,1,07,1.26,117.8,M,-34.4,M,,*57
$GPRMC,195731.250,A,4308.7435,N,07729.4604,W,21.03,292.26,070925,,,A*40
$GPGGA,195731.500,4308.7440,N,07729.4621,W,1,07,1.33,117.7,M,-34.4,M,,*59
$GPRMC,195731.750,A,4308.7446,N,07729.4637,W,19.88,293.58,070925,,,A*41
$GPGGA,195732.000,4308.7451,N,07729.4652,W,1,07,1.26,117.5,M,-34.4,M,,*5D
$GPRMC,195732.250,A,4308.7457,N,07729.4665,W,18.41,295.68,070925,,,A*41
$GPGGA,195732.500,4308.7462,N,07729.4676,W,1,07,1.33,117.4,M,-34.4,M,,*5B
$GPRMC,195732.750,A,4308.7469,N,07729.4685,W,16.05,299.67,070925,,,A*4A
$GPGGA,195733.000,4308.7475,N,07729.4697,W,1,07,1.26,117.3,M,-34.4,M,,*55
$GPRMC,195733.250,A,4308.7482,N,07729.4705,W,15.15,300.80,070925,,,A*48
$GPGGA,195733.500,4308.7491,N,07729.4711,W,1,07,1.33,117.1,M,-34.4,M,,*53
$GPRMC,195733.750,A,4308.7496,N,07729.4718,W,13.96,300.21,070925,,,A*42
$GPGGA,195734.000,4308.7502,N,07729.4725,W,1,07,1.33,116.9,M,-34.4,M,,*54
$GPRMC,195734.250,A,4308.7506,N,07729.4732,W,12.78,297.70,070925,,,A*4A
$GPGGA,195734.500,4308.7505,N,07729.4737,W,1,07,1.33,116.9,M,-34.4,M,,*55
$GPRMC,195734.750,A,4308.7505,N,07729.4742,W,10.33,288.04,070925,,,A*4B
$GPGGA,195735.000,4308.7507,N,07729.4751,W,1,07,1.26,116.7,M,-34.4,M,,*59
$GPRMC,195735.250,A,4308.7509,N,07729.4758,W,10.33,282.08,070925,,,A*4E
$GPGGA,195735.500,4308.7510,N,07729.4766,W,1,07,1.33,116.5,M,-34.4,M,,*58
$GPRMC,195735.750,A,4308.7509,N,07729.4773,W,9.22,278.73,070925,,,A*73
$GPGGA,195736.000,4308.7509,N,07729.4781,W,1,07,1.33,116.4,M,-34.4,M,,*5E
$GPRMC,195736.250,A,4308.7508,N,07729.4787,W,8.99,273.72,070925,,,A*74
$GPGGA,195736.500,4308.7507,N,07729.4794,W,1,07,1.33,116.3,M,-34.4,M,,*56
$GPRMC,195736.750,A,4308.7506,N,07729.4802,W,8.90,267.56,070925,,,A*77
$GPGGA,195737.000,4308.7504,N,07729.4810,W,1,07,1.26,116.2,M,-34.4,M,,*57
$GPRMC,195737.250,A,4308.7500,N,07729.4817,W,9.42,256.70,070925,,,A*79
$GPGGA,195737.500,4308.7496,N,07729.4823,W,1,07,1.33,116.2,M,-34.4,M,,*5C
$GPRMC,195737.750,A,4308.7490,N,07729.4829,W,9.46,246.52,070925,,,A*7C
$GPGGA,195738.000,4308.7486,N,07729.4837,W,1,07,1.26,116.3,M,-34.4,M,,*57
$GPRMC,195738.250,A,4308.7480,N,07729.4844,W,9.85,240.64,070925,,,A*70
$GPGGA,195738.500,4308.7474,N,07729.4851,W,1,06,1.26,116.2,M,-34.4,M,,*5F
$GPRMC,195738.750,A,4308.7465,N,07729.4856,W,10.28,229.63,070925,,,A*4A
$GPGGA,195739.000,4308.7456,N,07729.4862,W,1,07,1.26,116.3,M,-34.4,M,,*5B
$GPRMC,195739.250,A,4308.7443,N,07729.4863,W,11.44,216.18,070925,,,A*47
$GPGGA,195739.500,4308.7431,N,07729.4868,W,1,07,1.33,116.3,M,-34.4,M,,*51
$GPRMC,195739.750,A,4308.7421,N,07729.4874,W,12.58,208.49,070925,,,A*45
$GPGGA,195740.000,4308.7411,N,07729.4881,W,1,07,1.33,116.4,M,-34.4,M,,*58
$GPRMC,195740.250,A,4308.7400,N,07729.4889,W,13.12,207.91,070925,,,A*4A
$GPGGA,195740.500,4308.7390,N,07729.4896,W,1,07,1.33,116.4,M,-34.4,M,,*55
$GPRMC,195740.750,A,4308.7377,N,07729.4902,W,13.56,207.01,070925,,,A*43
$GPGGA,195741.000,4308.7367,N,07729.4908,W,1,07,1.26,116.3,M,-34.4,M,,*5C
$GPRMC,195741.250,A,4308.7357,N,07729.4914,W,13.79,207.70,070925,,,A*49
$GPGGA,195741.500,4308.7345,N,07729.4922,W,1,07,1.33,116.2,M,-34.4,M,,*54
$GPRMC,195741.750,A,4308.7333,N,07729.4929,W,14.38,208.33,070925,,,A*4A
$GPGGA,195742.000,4308.7322,N,07729.4937,W,1,07,1.26,116.1,M,-34.4,M,,*50
$GPRMC,195742.250,A,4308.7311,N,07729.4945,W,15.14,209.37,070925,,,A*4C
$GPGGA,195742.500,4308.7300,N,07729.4955,W,1,07,1.33,116.0,M,-34.4,M,,*54
$GPRMC,195742.750,A,4308.7289,N,07729.4965,W,15.46,210.33,070925,,,A*40
$GPGGA,195743.000,4308.7278,N,07729.4973,W,1,07,1.26,115.9,M,-34.4,M,,*54
$GPRMC,195743.250,A,4308.7268,N,07729.4981,W,15.71,212.28,070925,,,A*4D
$GPGGA,195743.500,4308.7259,N,07729.4990,W,1,07,1.33,116.1,M,-34.4,M,,*50
$GPRMC,195743.750,A,4308.7249,N,07729.5002,W,16.03,216.94,070925,,,A*4D
$GPGGA,195744.000,4308.7237,N,07729.5013,W,1,07,1.26,115.9,M,-34.4,M,,*56
$GPRMC,195744.250,A,4308.7227,N,07729.5025,W,16.60,217.66,070925,,,A*4B
$GPGGA,195744.500,4308.7216,N,07729.5036,W,1,07,1.33,115.7,M,-34.4,M,,*5D
$GPRMC,195744.750,A,4308.7206,N,07729.5047,W,17.06,218.59,070925,,,A*4B
$GPGGA,195745.000,4308.7196,N,07729.5059,W,1,07,1.26,115.6,M,-34.4,M,,*5E
$GPRMC,195745.250,A,4308.7186,N,07729.5071,W,17.32,219.48,070925,,,A*47
$GPGGA,195745.500,4308.7177,N,07729.5084,W,1,07,1.26,115.4,M,-34.4,M,,*56
$GPRMC,195745.750,A,4308.7168,N,07729.5098,W,18.08,222.39,070925,,,A*4D
$GPGGA,195746.000,4308.7159,N,07729.5111,W,1,07,1.26,115.3,M,-34.4,M,,*56
$GPRMC,195746.250,A,4308.7150,N,07729.5124,W,18.14,224.62,070925,,,A*43
$GPGGA,195746.500,4308.7139,N,07729.5136,W,1,07,1.33,115.2,M,-34.4,M,,*55
$GPRMC,195746.750,A,4308.7130,N,07729.5149,W,17.90,223.63,070925,,,A*4E
$GPGGA,195747.000,4308.7120,N,07729.5160,W,1,07,1.26,115.3,M,-34.4,M,,*5F
$GPRMC,195747.250,A,4308.7108,N,07729.5171,W,17.62,219.42,070925,,,A*4D
$GPGGA,195747.500,4308.7097,N,07729.5181,W,1,07,1.33,115.2,M,-34.4,M,,*5D
$GPRMC,195747.750,A,4308.7087,N,07729.5192,W,17.19,215.32,070925,,,A*44
$GPGGA,195748.000,4308.7076,N,07729.5202,W,1,07,1.26,115.0,M,-34.4,M,,*56
$GPRMC,195748.250,A,4308.7066,N,07729.5212,W,16.49,211.38,070925,,,A*40
$GPGGA,195748.500,4308.7056,N,07729.5221,W,1,07,1.33,114.8,M,-34.4,M,,*5D
$GPRMC,195748.750,A,4308.7048,N,07729.5228,W,15.89,206.75,070925,,,A*40
$GPGGA,195749.000,4308.7040,N,07729.5235,W,1,07,1.26,114.8,M,-34.4,M,,*5F
$GPRMC,195749.250,A,4308.7030,N,07729.5242,W,15.33,203.31,070925,,,A*43
$GPGGA,195749.500,4308.7021,N,07729.5247,W,1,07,1.33,114.5,M,-34.4,M,,*51
$GPRMC,195749.750,A,4308.7011,N,07729.5253,W,14.28,199.68,070925,,,A*42
$GPGGA,195750.000,4308.7002,N,07729.5258,W,1,07,1.26,114.3,M,-34.4,M,,*51
$GPRMC,195750.250,A,4308.6993,N,07729.5263,W,14.20,197.48,070925,,,A*4A
$GPGGA,195750.500,4308.6985,N,07729.5268,W,1,07,1.26,114.2,M,-34.4,M,,*51
$GPRMC,195750.750,A,4308.6976,N,07729.5272,W,14.67,191.83,070925,,,A*46
$GPGGA,195751.000,4308.6967,N,07729.5276,W,1,07,1.33,114.1,M,-34.4,M,,*51
$GPRMC,195751.250,A,4308.6958,N,07729.5279,W,14.73,189.70,070925,,,A*45
$GPGGA,195751.500,4308.6948,N,07729.5282,W,1,07,1.33,114.0,M,-34.4,M,,*53
$GPRMC,195751.750,A,4308.6938,N,07729.5284,W,14.95,187.88,070925,,,A*45
$GPGGA,195752.000,4308.6928,N,07729.5287,W,1,07,1.26,113.8,M,-34.4,M,,*5D
$GPRMC,195752.250,A,4308.6918,N,07729.5290,W,15.08,188.27,070925,,,A*4B
$GPGGA,195752.500,4308.6907,N,07729.5294,W,1,07,1.33,113.6,M,-34.4,M,,*5D
$GPRMC,195752.750,A,4308.6896,N,07729.5299,W,15.07,189.43,070925,,,A*4C
$GPGGA,195753.000,4308.6887,N,07729.5302,W,1,07,1.26,113.4,M,-34.4,M,,*58
$GPRMC,195753.250,A,4308.6877,N,07729.5305,W,14.89,190.45,070925,,,A*4A
$GPGGA,195753.500,4308.6867,N,07729.5308,W,1,07,1.33,113.2,M,-34.4,M,,*5B
$GPRMC,195753.750,A,4308.6857,N,07729.5312,W,14.89,191.19,070925,,,A*43
$GPGGA,195754.000,4308.6847,N,07729.5314,W,1,07,1.26,112.9,M,-34.4,M,,*58
$GPRMC,195754.250,A,4308.6838,N,07729.5317,W,14.81,192.02,070925,,,A*4C
$GPGGA,195754.500,4308.6828,N,07729.5320,W,1,07,1.33,112.7,M,-34.4,M,,*59
$GPRMC,195754.750,A,4308.6819,N,07729.5323,W,14.59,192.02,070925,,,A*48
$GPGGA,195755.000,4308.6810,N,07729.5325,W,1,07,1.26,112.4,M,-34.4,M,,*54
$GPRMC,195755.250,A,4308.6800,N,07729.5328,W,14.45,191.52,070925,,,A*44
$GPGGA,195755.500,4308.6791,N,07729.5330,W,1,07,1.33,112.2,M,-34.4,M,,*51
$GPRMC,195755.750,A,4308.6782,N,07729.5333,W,14.07,191.69,070925,,,A*40
$GPGGA,195756.000,4308.6772,N,07729.5336,W,1,07,1.26,112.0,M,-34.4,M,,*5A
$GPRMC,195756.250,A,4308.6763,N,07729.5338,W,14.08,192.35,070925,,,A*47
$GPGGA,195756.500,4308.6754,N,07729.5340,W,1,07,1.33,111.9,M,-34.4,M,,*54
$GPRMC,195756.750,A,4308.6744,N,07729.5343,W,14.17,192.60,070925,,,A*45
$GPGGA,195757.000,4308.6734,N,07729.5347,W,1,07,1.26,111.6,M,-34.4,M,,*5A
$GPRMC,195757.250,A,4308.6723,N,07729.5351,W,14.21,192.74,070925,,,A*43
$GPGGA,195757.500,4308.6713,N,07729.5355,W,1,07,1.26,111.4,M,-34.4,M,,*5B
$GPRMC,195757.750,A,4308.6703,N,07729.5359,W,13.94,193.24,070925,,,A*41
$GPGGA,195758.000,4308.6691,N,07729.5365,W,1,07,1.26,111.1,M,-34.4,M,,*5C
$GPRMC,195758.250,A,4308.6679,N,07729.5371,W,14.51,199.46,070925,,,A*4D
$GPGGA,195758.500,4308.6668,N,07729.5376,W,1,07,1.33,110.8,M,-34.4,M,,*51
$GPRMC,195758.750,A,4308.6658,N,07729.5382,W,14.97,204.05,070925,,,A*4D
$GPGGA,195759.000,4308.6647,N,07729.5388,W,1,07,1.33,110.6,M,-34.4,M,,*57
$GPRMC,195759.250,A,4308.6637,N,07729.5394,W,15.26,205.93,070925,,,A*42
$GPGGA,195759.500,4308.6626,N,07729.5400,W,1,07,1.26,110.3,M,-34.4,M,,*53
$GPRMC,195759.750,A,4308.6615,N,07729.5407,W,15.64,208.10,070925,,,A*4A
$GPGGA,195800.000,4308.6605,N,07729.5414,W,1,07,1.26,110.1,M,-34.4,M,,*53
$GPRMC,195800.250,A,4308.6595,N,07729.5421,W,15.60,209.32,070925,,,A*46
$GPGGA,195800.500,4308.6584,N,07729.5429,W,1,07,1.33,109.9,M,-34.4,M,,*56
$GPRMC,195800.750,A,4308.6574,N,07729.5437,W,15.31,209.89,070925,,,A*4F
$GPGGA,195801.000,4308.6564,N,07729.5445,W,1,07,1.26,109.8,M,-34.4,M,,*53
$GPRMC,195801.250,A,4308.6554,N,07729.5453,W,14.92,209.89,070925,,,A*43
$GPGGA,195801.500,4308.6545,N,07729.5461,W,1,07,1.33,109.7,M,-34.4,M,,*58
$GPRMC,195801.750,A,4308.6534,N,07729.5467,W,14.22,209.27,070925,,,A*48
$GPGGA,195802.000,4308.6525,N,07729.5474,W,1,07,1.26,109.6,M,-34.4,M,,*59
$GPRMC,195802.250,A,4308.6515,N,07729.5480,W,13.84,208.58,070925,,,A*46
$GPGGA,195802.500,4308.6506,N,07729.5486,W,1,07,1.33,109.6,M,-34.4,M,,*54
$GPRMC,195802.750,A,4308.6497,N,07729.5493,W,13.58,207.77,070925,,,A*49
$GPGGA,195803.000,4308.6488,N,07729.5499,W,1,07,1.26,109.4,M,-34.4,M,,*5F
$GPRMC,195803.250,A,4308.6479,N,07729.5505,W,13.51,205.95,070925,,,A*44
$GPGGA,195803.500,4308.6470,N,07729.5511,W,1,07,1.33,109.3,M,-34.4,M,,*5F
$GPRMC,195803.750,A,4308.6460,N,07729.5517,W,13.81,205.27,070925,,,A*4E
$GPGGA,195804.000,4308.6451,N,07729.5522,W,1,07,1.26,109.2,M,-34.4,M,,*5B
$GPRMC,195804.250,A,4308.6442,N,07729.5528,W,14.49,205.65,070925,,,A*45
$GPGGA,195804.500,4308.6433,N,07729.5535,W,1,07,1.33,109.1,M,-34.4,M,,*5B
$GPRMC,195804.750,A,4308.6422,N,07729.5542,W,15.38,206.06,070925,,,A*4B
$GPGGA,195805.000,4308.6412,N,07729.5549,W,1,07,1.26,109.0,M,-34.4,M,,*52
$GPRMC,195805.250,A,4308.6401,N,07729.5556,W,16.15,207.36,070925,,,A*45
$GPGGA,195805.500,4308.6390,N,07729.5564,W,1,07,1.33,108.8,M,-34.4,M,,*58
$GPRMC,195805.750,A,4308.6380,N,07729.5571,W,16.67,208.16,070925,,,A*43
$GPGGA,195806.000,4308.6369,N,07729.5579,W,1,07,1.26,108.7,M,-34.4,M,,*5F
$GPRMC,195806.250,A,4308.6357,N,07729.5586,W,16.77,207.72,070925,,,A*4B
$GPGGA,195806.500,4308.6344,N,07729.5593,W,1,07,1.33,108.6,M,-34.4,M,,*54
$GPRMC,195806.750,A,4308.6333,N,07729.5600,W,16.84,206.65,070925,,,A*4A
$GPGGA,195807.000,4308.6318,N,07729.5604,W,1,07,1.26,108.6,M,-34.4,M,,*50
$GPRMC,195807.250,A,4308.6306,N,07729.5611,W,16.66,205.96,070925,,,A*4B
$GPGGA,195807.500,4308.6294,N,07729.5618,W,1,07,1.33,108.5,M,-34.4,M,,*5A
$GPRMC,195807.750,A,4308.6283,N,07729.5624,W,16.28,205.82,070925,,,A*4B
$GPGGA,195808.000,4308.6272,N,07729.5630,W,1,07,1.26,108.4,M,-34.4,M,,*57
$GPRMC,195808.250,A,4308.6262,N,07729.5637,W,15.67,205.33,070925,,,A*4E
$GPGGA,195808.500,4308.6253,N,07729.5644,W,1,07,1.33,108.3,M,-34.4,M,,*51
$GPRMC,195808.750,A,4308.6245,N,07729.5651,W,15.13,206.30,070925,,,A*4D
$GPGGA,195809.000,4308.6236,N,07729.5658,W,1,07,1.33,108.2,M,-34.4,M,,*5A
$GPRMC,195809.250,A,4308.6228,N,07729.5665,W,15.00,207.24,070925,,,A*43
$GPGGA,195809.500,4308.6219,N,07729.5673,W,1,07,1.33,108.1,M,-34.4,M,,*58
$GPRMC,195809.750,A,4308.6212,N,07729.5680,W,14.59,208.04,070925,,,A*44
$GPGGA,195810.000,4308.6203,N,07729.5687,W,1,07,1.26,108.0,M,-34.4,M,,*50
$GPRMC,195810.250,A,4308.6194,N,07729.5694,W,14.53,207.69,070925,,,A*4F
$GPGGA,195810.500,4308.6186,N,07729.5700,W,1,07,1.26,107.9,M,-34.4,M,,*53
$GPRMC,195810.750,A,4308.6177,N,07729.5707,W,14.21,207.17,070925,,,A*40
$GPGGA,195811.000,4308.6169,N,07729.5713,W,1,07,1.26,107.8,M,-34.4,M,,*55
$GPRMC,195811.250,A,4308.6161,N,07729.5720,W,13.58,207.57,070925,,,A*4B
$GPGGA,195811.500,4308.6153,N,07729.5726,W,1,07,1.33,107.7,M,-34.4,M,,*54
$GPRMC,195811.750,A,4308.6142,N,07729.5726,W,13.46,208.50,070925,,,A*4E
$GPGGA,195812.000,4308.6134,N,07729.5731,W,1,07,1.33,107.8,M,-34.4,M,,*5A
$GPRMC,195812.250,A,4308.6127,N,07729.5737,W,13.36,209.03,070925,,,A*4B
$GPGGA,195812.500,4308.6120,N,07729.5743,W,1,07,1.33,107.7,M,-34.4,M,,*50
$GPRMC,195812.750,A,4308.6112,N,07729.5750,W,13.61,209.68,070925,,,A*46
$GPGGA,195813.000,4308.6104,N,07729.5756,W,1,07,1.26,107.5,M,-34.4,M,,*50
$GPRMC,195813.250,A,4308.6095,N,07729.5762,W,13.71,209.23,070925,,,A*43
$GPGGA,195813.500,4308.6087,N,07729.5767,W,1,07,1.26,107.3,M,-34.4,M,,*5B
$GPRMC,195813.750,A,4308.6078,N,07729.5772,W,13.93,206.95,070925,,,A*4A
$GPGGA,195814.000,4308.6070,N,07729.5778,W,1,07,1.26,107.2,M,-34.4,M,,*5E
$GPRMC,195814.250,A,4308.6061,N,07729.5783,W,13.99,205.95,070925,,,A*47
$GPGGA,195814.500,4308.6052,N,07729.5787,W,1,07,1.33,107.1,M,-34.4,M,,*5C
$GPRMC,195814.750,A,4308.6043,N,07729.5793,W,14.12,205.23,070925,,,A*4A
$GPGGA,195815.000,4308.6034,N,07729.5799,W,1,07,1.26,107.1,M,-34.4,M,,*53
$GPRMC,195815.250,A,4308.6024,N,07729.5806,W,14.22,205.35,070925,,,A*48
$GPGGA,195815.500,4308.6015,N,07729.5813,W,1,07,1.33,106.9,M,-34.4,M,,*55
$GPRMC,195815.750,A,4308.6004,N,07729.5819,W,14.30,205.94,070925,,,A*49
$GPGGA,195816.000,4308.5995,N,07729.5827,W,1,07,1.26,106.9,M,-34.4,M,,*52
$GPRMC,195816.250,A,4308.5985,N,07729.5834,W,14.08,206.61,070925,,,A*41
$GPGGA,195816.500,4308.5977,N,07729.5841,W,1,07,1.33,106.9,M,-34.4,M,,*5F
$GPRMC,195816.750,A,4308.5968,N,07729.5847,W,14.19,207.07,070925,,,A*42
$GPGGA,195817.000,4308.5959,N,07729.5854,W,1,07,1.26,106.8,M,-34.4,M,,*56
$GPRMC,195817.250,A,4308.5949,N,07729.5860,W,14.13,206.90,070925,,,A*45
$GPGGA,195817.500,4308.5940,N,07729.5866,W,1,07,1.33,106.7,M,-34.4,M,,*51
$GPRMC,195817.750,A,4308.5930,N,07729.5871,W,14.14,206.38,070925,,,A*4B
$GPGGA,195818.000,4308.5921,N,07729.5878,W,1,07,1.26,106.7,M,-34.4,M,,*57
$GPRMC,195818.250,A,4308.5912,N,07729.5885,W,14.17,207.33,070925,,,A*43
$GPGGA,195818.500,4308.5904,N,07729.5893,W,1,07,1.33,106.6,M,-34.4,M,,*55
$GPRMC,195818.750,A,4308.5896,N,07729.5901,W,13.73,208.46,070925,,,A*4E
$GPGGA,195819.000,4308.5887,N,07729.5908,W,1,07,1.26,106.6,M,-34.4,M,,*5C
$GPRMC,195819.250,A,4308.5878,N,07729.5915,W,13.67,207.87,070925,,,A*48
$GPGGA,195819.500,4308.5866,N,07729.5925,W,1,07,1.33,106.5,M,-34.4,M,,*5E
$GPRMC,195819.750,A,4308.5859,N,07729.5932,W,13.13,207.90,070925,,,A*4E
$GPGGA,195820.000,4308.5850,N,07729.5939,W,1,07,1.26,106.4,M,-34.4,M,,*5C
$GPRMC,195820.250,A,4308.5843,N,07729.5947,W,13.01,206.78,070925,,,A*4C
$GPGGA,195820.500,4308.5837,N,07729.5955,W,1,07,1.33,106.3,M,-34.4,M,,*51
$GPRMC,195820.750,A,4308.5829,N,07729.5962,W,12.91,206.90,070925,,,A*4C
$GPGGA,195821.000,4308.5821,N,07729.5968,W,1,07,1.26,106.2,M,-34.4,M,,*59
$GPRMC,195821.250,A,4308.5812,N,07729.5975,W,12.92,207.81,070925,,,A*44
$GPGGA,195821.500,4308.5803,N,07729.5982,W,1,07,1.33,106.1,M,-34.4,M,,*5F
$GPRMC,195821.750,A,4308.5794,N,07729.5989,W,13.57,208.22,070925,,,A*4D
$GPGGA,195822.000,4308.5786,N,07729.5997,W,1,07,1.33,106.0,M,-34.4,M,,*5E
$GPRMC,195822.250,A,4308.5777,N,07729.6004,W,13.85,207.98,070925,,,A*48
$GPGGA,195822.500,4308.5765,N,07729.6009,W,1,07,1.33,106.0,M,-34.4,M,,*5B
$GPRMC,195822.750,A,4308.5755,N,07729.6016,W,14.51,206.93,070925,,,A*4A
$GPGGA,195823.000,4308.5746,N,07729.6023,W,1,07,1.26,106.0,M,-34.4,M,,*52
$GPRMC,195823.250,A,4308.5737,N,07729.6031,W,14.58,207.55,070925,,,A*4D
$GPGGA,195823.500,4308.5727,N,07729.6039,W,1,07,1.33,105.9,M,-34.4,M,,*55
$GPRMC,195823.750,A,4308.5717,N,07729.6047,W,15.01,207.68,070925,,,A*48
$GPGGA,195824.000,4308.5708,N,07729.6055,W,1,07,1.33,105.7,M,-34.4,M,,*5E
$GPRMC,195824.250,A,4308.5698,N,07729.6063,W,15.59,208.72,070925,,,A*43
$GPGGA,195824.500,4308.5688,N,07729.6071,W,1,07,1.33,105.6,M,-34.4,M,,*55
$GPRMC,195824.750,A,4308.5677,N,07729.6079,W,15.77,208.68,070925,,,A*4B
$GPGGA,195825.000,4308.5667,N,07729.6086,W,1,07,1.26,105.5,M,-34.4,M,,*5F
$GPRMC,195825.250,A,4308.5658,N,07729.6094,W,15.35,208.66,070925,,,A*49
$GPGGA,195825.500,4308.5648,N,07729.6102,W,1,07,1.26,105.4,M,-34.4,M,,*5B
$GPRMC,195825.750,A,4308.5639,N,07729.6110,W,14.87,208.78,070925,,,A*41
$GPGGA,195826.000,4308.5630,N,07729.6117,W,1,07,1.26,105.2,M,-34.4,M,,*50
$GPRMC,195826.250,A,4308.5621,N,07729.6125,W,14.60,208.19,070925,,,A*46
$GPGGA,195826.500,4308.5612,N,07729.6132,W,1,07,1.33,105.0,M,-34.4,M,,*54
$GPRMC,195826.750,A,4308.5603,N,07729.6140,W,14.48,208.69,070925,,,A*4D
$GPGGA,195827.000,4308.5594,N,07729.6147,W,1,07,1.26,104.8,M,-34.4,M,,*52
$GPRMC,195827.250,A,4308.5584,N,07729.6156,W,14.43,209.21,070925,,,A*44
$GPGGA,195827.500,4308.5577,N,07729.6164,W,1,07,1.26,104.6,M,-34.4,M,,*55
$GPRMC,195827.750,A,4308.5569,N,07729.6170,W,14.34,209.00,070925,,,A*45
$GPGGA,195828.000,4308.5560,N,07729.6177,W,1,07,1.26,104.5,M,-34.4,M,,*58
$GPRMC,195828.250,A,4308.5550,N,07729.6183,W,14.10,208.24,070925,,,A*48
$GPGGA,195828.500,4308.5541,N,07729.6190,W,1,07,1.33,104.4,M,-34.4,M,,*52
$GPRMC,195828.750,A,4308.5531,N,07729.6197,W,14.09,207.62,070925,,,A*4A
$GPGGA,195829.000,4308.5522,N,07729.6204,W,1,07,1.26,104.3,M,-34.4,M,,*5E
$GPRMC,195829.250,A,4308.5513,N,07729.6211,W,14.32,207.67,070925,,,A*4E
$GPGGA,195829.500,4308.5504,N,07729.6218,W,1,07,1.33,104.2,M,-34.4,M,,*57
$GPRMC,195829.750,A,4308.5495,N,07729.6226,W,14.68,208.30,070925,,,A*42
$GPGGA,195830.000,4308.5484,N,07729.6232,W,1,07,1.26,104.2,M,-34.4,M,,*5F
$GPRMC,195830.250,A,4308.5474,N,07729.6239,W,15.20,208.33,070925,,,A*40
$GPGGA,195830.500,4308.5464,N,07729.6246,W,1,07,1.26,104.1,M,-34.4,M,,*54
$GPRMC,195830.750,A,4308.5452,N,07729.6252,W,15.49,207.87,070925,,,A*43
$GPGGA,195831.000,4308.5441,N,07729.6258,W,1,07,1.26,104.1,M,-34.4,M,,*58
$GPRMC,195831.250,A,4308.5428,N,07729.6265,W,15.87,207.22,070925,,,A*43
$GPGGA,195831.500,4308.5417,N,07729.6272,W,1,07,1.33,104.2,M,-34.4,M,,*51
$GPRMC,195831.750,A,4308.5407,N,07729.6279,W,15.90,207.58,070925,,,A*4D
$GPGGA,195832.000,4308.5397,N,07729.6288,W,1,07,1.26,104.1,M,-34.4,M,,*5A
$GPRMC,195832.250,A,4308.5387,N,07729.6295,W,15.93,207.68,070925,,,A*46
$GPGGA,195832.500,4308.5378,N,07729.6304,W,1,07,1.33,104.1,M,-34.4,M,,*5F
$GPRMC,195832.750,A,4308.5368,N,07729.6311,W,15.87,207.64,070925,,,A*46
$GPGGA,195833.000,4308.5358,N,07729.6319,W,1,07,1.26,104.0,M,-34.4,M,,*50
$GPRMC,195833.250,A,4308.5349,N,07729.6326,W,15.82,206.63,070925,,,A*46
$GPGGA,195833.500,4308.5339,N,07729.6333,W,1,07,1.33,103.9,M,-34.4,M,,*50
$GPRMC,195833.750,A,4308.5329,N,07729.6341,W,15.86,206.79,070925,,,A*4B
$GPGGA,195834.000,4308.5319,N,07729.6348,W,1,07,1.26,103.7,M,-34.4,M,,*56
$GPRMC,195834.250,A,4308.5310,N,07729.6355,W,15.85,207.22,070925,,,A*4A
$GPGGA,195834.500,4308.5301,N,07729.6363,W,1,07,1.33,103.6,M,-34.4,M,,*56
$GPRMC,195834.750,A,4308.5292,N,07729.6370,W,15.55,207.67,070925,,,A*4F
$GPGGA,195835.000,4308.5282,N,07729.6381,W,1,07,1.26,103.5,M,-34.4,M,,*53
$GPRMC,195835.250,A,4308.5274,N,07729.6389,W,15.28,207.85,070925,,,A*43
$GPGGA,195835.500,4308.5266,N,07729.6397,W,1,07,1.33,103.4,M,-34.4,M,,*5E
$GPRMC,195835.750,A,4308.5258,N,07729.6404,W,14.96,207.73,070925,,,A*47
$GPGGA,195836.000,4308.5249,N,07729.6411,W,1,07,1.26,103.3,M,-34.4,M,,*5F
$GPRMC,195836.250,A,4308.5240,N,07729.6416,W,14.64,207.29,070925,,,A*49
$GPGGA,195836.500,4308.5233,N,07729.6422,W,1,07,1.26,103.2,M,-34.4,M,,*56
$GPRMC,195836.750,A,4308.5224,N,07729.6426,W,13.88,207.52,070925,,,A*44
$GPGGA,195837.000,4308.5216,N,07729.6431,W,1,07,1.33,103.4,M,-34.4,M,,*55
$GPRMC,195837.250,A,4308.5209,N,07729.6436,W,13.37,206.56,070925,,,A*4F
$GPGGA,195837.500,4308.5201,N,07729.6442,W,1,07,1.33,103.3,M,-34.4,M,,*55
$GPRMC,195837.750,A,4308.5192,N,07729.6448,W,13.40,204.86,070925,,,A*4D
$GPGGA,195838.000,4308.5185,N,07729.6453,W,1,07,1.26,103.1,M,-34.4,M,,*56
$GPRMC,195838.250,A,4308.5176,N,07729.6458,W,13.70,202.50,070925,,,A*42
$GPGGA,195838.500,4308.5167,N,07729.6463,W,1,07,1.33,103.0,M,-34.4,M,,*59
$GPRMC,195838.750,A,4308.5158,N,07729.6467,W,14.33,200.02,070925,,,A*42
$GPGGA,195839.000,4308.5148,N,07729.6472,W,1,07,1.33,102.8,M,-34.4,M,,*59
$GPRMC,195839.250,A,4308.5138,N,07729.6477,W,14.72,199.01,070925,,,A*44
$GPGGA,195839.500,4308.5129,N,07729.6481,W,1,07,1.33,102.6,M,-34.4,M,,*59
$GPRMC,195839.750,A,4308.5119,N,07729.6485,W,14.94,197.67,070925,,,A*49
$GPGGA,195840.000,4308.5109,N,07729.6490,W,1,07,1.33,102.5,M,-34.4,M,,*53
$GPRMC,195840.250,A,4308.5099,N,07729.6494,W,14.96,197.11,070925,,,A*48
$GPGGA,195840.500,4308.5089,N,07729.6497,W,1,07,1.33,102.5,M,-34.4,M,,*58
$GPRMC,195840.750,A,4308.5079,N,07729.6501,W,15.46,196.36,070925,,,A*46
$GPGGA,195841.000,4308.5067,N,07729.6504,W,1,07,1.26,102.5,M,-34.4,M,,*53
$GPRMC,195841.250,A,4308.5056,N,07729.6506,W,16.68,192.86,070925,,,A*48
$GPGGA,195841.500,4308.5044,N,07729.6509,W,1,07,1.33,102.5,M,-34.4,M,,*5E
$GPRMC,195841.750,A,4308.5032,N,07729.6511,W,17.57,189.85,070925,,,A*4D
$GPGGA,195842.000,4308.5021,N,07729.6514,W,1,07,1.26,102.4,M,-34.4,M,,*52
$GPRMC,195842.250,A,4308.5009,N,07729.6516,W,17.95,187.65,070925,,,A*4A
$GPGGA,195842.500,4308.4998,N,07729.6516,W,1,07,1.26,102.4,M,-34.4,M,,*5F
$GPRMC,195842.750,A,4308.4986,N,07729.6517,W,17.42,183.43,070925,,,A*4B
$GPGGA,195843.000,4308.4974,N,07729.6517,W,1,07,1.26,102.2,M,-34.4,M,,*5E
$GPRMC,195843.250,A,4308.4963,N,07729.6518,W,17.28,182.24,070925,,,A*47
$GPGGA,195843.500,4308.4951,N,07729.6519,W,1,07,1.33,102.0,M,-34.4,M,,*54
$GPRMC,195843.750,A,4308.4940,N,07729.6519,W,16.83,181.71,070925,,,A*41
$GPGGA,195844.000,4308.4929,N,07729.6520,W,1,07,1.26,101.8,M,-34.4,M,,*5C
$GPRMC,195844.250,A,4308.4918,N,07729.6521,W,16.59,181.61,070925,,,A*43
$GPGGA,195844.500,4308.4906,N,07729.6523,W,1,07,1.33,101.7,M,-34.4,M,,*5C
$GPRMC,195844.750,A,4308.4894,N,07729.6523,W,16.66,181.22,070925,,,A*4A
$GPGGA,195845.000,4308.4881,N,07729.6523,W,1,07,1.26,101.4,M,-34.4,M,,*51
$GPRMC,195845.250,A,4308.4868,N,07729.6524,W,16.94,181.69,070925,,,A*48
$GPGGA,195845.500,4308.4855,N,07729.6525,W,1,07,1.33,101.2,M,-34.4,M,,*59
$GPRMC,195845.750,A,4308.4841,N,07729.6528,W,16.97,182.10,070925,,,A*44
$GPGGA,195846.000,4308.4829,N,07729.6528,W,1,07,1.26,101.0,M,-34.4,M,,*5F
$GPRMC,195846.250,A,4308.4816,N,07729.6530,W,16.58,183.06,070925,,,A*4C
$GPGGA,195846.500,4308.4805,N,07729.6530,W,1,07,1.33,100.7,M,-34.4,M,,*5F
$GPRMC,195846.750,A,4308.4793,N,07729.6531,W,15.85,181.54,070925,,,A*4C
$GPGGA,195847.000,4308.4781,N,07729.6532,W,1,07,1.26,100.5,M,-34.4,M,,*5C
$GPRMC,195847.250,A,4308.4771,N,07729.6532,W,14.97,181.68,070925,,,A*4A
$GPGGA,195847.500,4308.4759,N,07729.6533,W,1,07,1.26,100.2,M,-34.4,M,,*5A
$GPRMC,195847.750,A,4308.4749,N,07729.6534,W,14.39,180.29,070925,,,A*42
$GPGGA,195848.000,4308.4739,N,07729.6534,W,1,07,1.26,99.9,M,-34.4,M,,*6B
$GPRMC,195848.250,A,4308.4728,N,07729.6535,W,14.25,179.94,070925,,,A*43
$GPGGA,195848.500,4308.4719,N,07729.6535,W,1,07,1.33,99.7,M,-34.4,M,,*67
$GPRMC,195848.750,A,4308.4709,N,07729.6535,W,14.02,180.56,070925,,,A*48
$GPGGA,195849.000,4308.4699,N,07729.6536,W,1,07,1.26,99.4,M,-34.4,M,,*6E
$GPRMC,195849.250,A,4308.4689,N,07729.6537,W,13.94,181.51,070925,,,A*49
$GPGGA,195849.500,4308.4679,N,07729.6538,W,1,07,1.26,99.2,M,-34.4,M,,*6D
$GPRMC,195849.750,A,4308.4669,N,07729.6540,W,13.97,182.43,070925,,,A*41
$GPGGA,195850.000,4308.4659,N,07729.6541,W,1,07,1.26,98.9,M,-34.4,M,,*66
$GPRMC,195850.250,A,4308.4649,N,07729.6542,W,13.93,183.06,070925,,,A*48
$GPGGA,195850.500,4308.4638,N,07729.6544,W,1,07,1.33,98.6,M,-34.4,M,,*6A
$GPRMC,195850.750,A,4308.4627,N,07729.6547,W,13.87,183.77,070925,,,A*43
$GPGGA,195851.000,4308.4616,N,07729.6547,W,1,07,1.26,98.4,M,-34.4,M,,*67
$GPRMC,195851.250,A,4308.4597,N,07729.6536,W,13.85,183.25,070925,,,A*4C
$GPGGA,195851.500,4308.4585,N,07729.6533,W,1,07,1.33,98.5,M,-34.4,M,,*6D
$GPRMC,195851.750,A,4308.4573,N,07729.6536,W,13.59,181.48,070925,,,A*4B
$GPGGA,195852.000,4308.4564,N,07729.6537,W,1,07,1.26,98.4,M,-34.4,M,,*65
$GPRMC,195852.250,A,4308.4556,N,07729.6540,W,12.79,181.79,070925,,,A*4A
$GPGGA,195852.500,4308.4548,N,07729.6544,W,1,07,1.33,98.2,M,-34.4,M,,*68
$GPRMC,195852.750,A,4308.4540,N,07729.6547,W,12.17,182.23,070925,,,A*4B
$GPGGA,195853.000,4308.4532,N,07729.6550,W,1,07,1.33,98.1,M,-34.4,M,,*67
$GPRMC,195853.250,A,4308.4524,N,07729.6551,W,11.96,182.76,070925,,,A*40
$GPGGA,195853.500,4308.4514,N,07729.6557,W,1,07,1.33,97.9,M,-34.4,M,,*66
$GPRMC,195853.750,A,4308.4503,N,07729.6562,W,11.35,185.09,070925,,,A*46
$GPGGA,195854.000,4308.4492,N,07729.6568,W,1,07,1.26,97.5,M,-34.4,M,,*6F
$GPRMC,195854.250,A,4308.4484,N,07729.6572,W,10.41,188.03,070925,,,A*4E
$GPGGA,195854.500,4308.4477,N,07729.6574,W,1,07,1.33,97.2,M,-34.4,M,,*6F
$GPRMC,195854.750,A,4308.4471,N,07729.6576,W,9.62,189.94,070925,,,A*73
$GPGGA,195855.000,4308.4465,N,07729.6577,W,1,07,1.33,96.9,M,-34.4,M,,*61
$GPRMC,195855.250,A,4308.4459,N,07729.6579,W,8.62,194.48,070925,,,A*7E
$GPGGA,195855.500,4308.4456,N,07729.6581,W,1,07,1.33,96.7,M,-34.4,M,,*63
$GPRMC,195855.750,A,4308.4453,N,07729.6583,W,6.56,199.61,070925,,,A*7B
$GPGGA,195856.000,4308.4449,N,07729.6584,W,1,07,1.33,96.5,M,-34.4,M,,*6C
$GPRMC,195856.250,A,4308.4447,N,07729.6586,W,5.09,202.72,070925,,,A*77
$GPGGA,195856.500,4308.4444,N,07729.6587,W,1,07,1.33,96.3,M,-34.4,M,,*61
$GPRMC,195856.750,A,4308.4443,N,07729.6587,W,2.85,203.73,070925,,,A*74
$GPGGA,195857.000,4308.4441,N,07729.6587,W,1,07,1.26,96.0,M,-34.4,M,,*67
$GPRMC,195857.250,A,4308.4439,N,07729.6588,W,1.78,203.73,070925,,,A*73
$GPGGA,195857.500,4308.4437,N,07729.6587,W,1,07,1.26,96.4,M,-34.4,M,,*67
$GPGGA,195858.750,4308.4426,N,07729.6588,W,1,07,1.26,99.0,M,-34.4,M,,*6B
$GPRMC,195858.750,A,4308.4426,N,07729.6588,W,0.73,203.73,070925,,,A*7D
$GPGGA,195859.000,4308.4424,N,07729.6588,W,1,07,1.26,99.2,M,-34.4,M,,*68
$GPRMC,195859.000,A,4308.4424,N,07729.6588,W,0.78,203.73,070925,,,A*77
$GPRMC,195914.250,A,4308.4415,N,07729.6579,W,2.60,203.73,070925,,,A*7F
$GPGGA,195914.500,4308.4413,N,07729.6577,W,1,07,1.26,99.8,M,-34.4,M,,*6B
$GPRMC,195914.750,A,4308.4410,N,07729.6576,W,3.23,137.68,070925,,,A*78
$GPGGA,195915.000,4308.4408,N,07729.6572,W,1,07,1.26,99.7,M,-34.4,M,,*6F
$GPRMC,195915.250,A,4308.4405,N,07729.6569,W,4.22,123.89,070925,,,A*7A
$GPGGA,195915.500,4308.4394,N,07729.6554,W,1,07,1.33,99.7,M,-34.4,M,,*68
$GPRMC,195915.750,A,4308.4389,N,07729.6547,W,8.44,127.18,070925,,,A*70
$GPGGA,195916.000,4308.4385,N,07729.6540,W,1,07,1.26,99.7,M,-34.4,M,,*6F
$GPRMC,195916.250,A,4308.4381,N,07729.6531,W,9.10,123.41,070925,,,A*77
$GPGGA,195916.500,4308.4377,N,07729.6524,W,1,07,1.26,99.6,M,-34.4,M,,*64
$GPRMC,195916.750,A,4308.4372,N,07729.6515,W,9.68,123.18,070925,,,A*7B
$GPGGA,195917.000,4308.4367,N,07729.6507,W,1,07,1.26,99.6,M,-34.4,M,,*60
$GPRMC,195917.250,A,4308.4357,N,07729.6493,W,11.88,126.99,070925,,,A*4C
$GPGGA,195917.500,4308.4351,N,07729.6481,W,1,07,1.26,99.6,M,-34.4,M,,*6F
$GPRMC,195917.750,A,4308.4344,N,07729.6472,W,12.87,125.17,070925,,,A*4D
$GPGGA,195918.000,4308.4337,N,07729.6464,W,1,07,1.26,99.6,M,-34.4,M,,*6E
$GPRMC,195918.250,A,4308.4329,N,07729.6453,W,13.48,125.46,070925,,,A*49
$GPGGA,195918.500,4308.4321,N,07729.6441,W,1,07,1.26,99.6,M,-34.4,M,,*6B
$GPRMC,195918.750,A,4308.4310,N,07729.6427,W,15.08,126.06,070925,,,A*40
$GPGGA,195919.000,4308.4304,N,07729.6415,W,1,07,1.26,99.6,M,-34.4,M,,*69
$GPRMC,195919.250,A,4308.4297,N,07729.6404,W,15.20,124.94,070925,,,A*48
$GPGGA,195919.500,4308.4291,N,07729.6392,W,1,07,1.26,99.5,M,-34.4,M,,*6A
$GPRMC,195919.750,A,4308.4285,N,07729.6380,W,15.15,124.38,070925,,,A*45
$GPGGA,195920.000,4308.4279,N,07729.6367,W,1,07,1.26,99.5,M,-34.4,M,,*69
$GPRMC,195920.250,A,4308.4273,N,07729.6354,W,15.21,122.24,070925,,,A*46
$GPGGA,195920.500,4308.4267,N,07729.6340,W,1,07,1.26,99.4,M,-34.4,M,,*67
$GPRMC,195920.750,A,4308.4253,N,07729.6324,W,16.58,124.21,070925,,,A*48
$GPGGA,195921.000,4308.4242,N,07729.6309,W,1,07,1.26,99.3,M,-34.4,M,,*6E
$GPRMC,195921.250,A,4308.4233,N,07729.6294,W,17.44,125.45,070925,,,A*4F
$GPGGA,195921.500,4308.4221,N,07729.6275,W,1,07,1.26,99.1,M,-34.4,M,,*66
$GPRMC,195921.750,A,4308.4212,N,07729.6257,W,18.96,125.11,070925,,,A*47
$GPGGA,195922.000,4308.4203,N,07729.6241,W,1,07,1.26,99.0,M,-34.4,M,,*66
$GPRMC,195922.250,A,4308.4190,N,07729.6222,W,20.09,126.16,070925,,,A*43
$GPGGA,195922.500,4308.4179,N,07729.6204,W,1,07,1.26,98.9,M,-34.4,M,,*64
$GPRMC,195922.750,A,4308.4167,N,07729.6186,W,20.99,127.67,070925,,,A*4D
$GPGGA,195923.000,4308.4156,N,07729.6170,W,1,07,1.26,98.8,M,-34.4,M,,*6C
$GPRMC,195923.250,A,4308.4145,N,07729.6152,W,21.61,128.47,070925,,,A*4B
$GPGGA,195923.500,4308.4131,N,07729.6132,W,1,07,1.26,98.6,M,-34.4,M,,*60
$GPRMC,195923.750,A,4308.4118,N,07729.6111,W,22.62,128.93,070925,,,A*48
$GPGGA,195924.000,4308.4108,N,07729.6094,W,1,07,1.26,98.5,M,-34.4,M,,*66
$GPRMC,195924.250,A,4308.4093,N,07729.6075,W,23.19,130.10,070925,,,A*44
$GPGGA,195924.500,4308.4077,N,07729.6055,W,1,07,1.26,98.4,M,-34.4,M,,*66
$GPRMC,195924.750,A,4308.4060,N,07729.6034,W,24.40,133.15,070925,,,A*45
$GPGGA,195925.000,4308.4044,N,07729.6015,W,1,07,1.25,98.2,M,-34.4,M,,*63
$GPRMC,195925.250,A,4308.4022,N,07729.5997,W,25.10,135.92,070925,,,A*49
$GPGGA,195925.500,4308.4001,N,07729.5979,W,1,07,1.25,98.1,M,-34.4,M,,*64
$GPRMC,195925.750,A,4308.3977,N,07729.5959,W,26.26,140.13,070925,,,A*4D
$GPGGA,195926.000,4308.3958,N,07729.5941,W,1,07,1.25,97.9,M,-34.4,M,,*6C
$GPRMC,195926.250,A,4308.3939,N,07729.5921,W,27.36,141.87,070925,,,A*42
$GPGGA,195926.500,4308.3920,N,07729.5903,W,1,07,1.25,97.7,M,-34.4,M,,*6E
$GPRMC,195926.750,A,4308.3900,N,07729.5887,W,28.10,146.15,070925,,,A*47
$GPGGA,195927.000,4308.3882,N,07729.5872,W,1,07,1.26,97.4,M,-34.4,M,,*64
$GPRMC,195927.250,A,4308.3863,N,07729.5857,W,28.02,148.77,070925,,,A*43
$GPGGA,195927.500,4308.3845,N,07729.5842,W,1,07,1.32,97.0,M,-34.4,M,,*68
$GPRMC,195927.750,A,4308.3827,N,07729.5827,W,27.89,150.33,070925,,,A*44
$GPGGA,195928.000,4308.3810,N,07729.5814,W,1,07,1.25,96.6,M,-34.4,M,,*60
$GPRMC,195928.250,A,4308.3792,N,07729.5799,W,27.83,150.66,070925,,,A*4F
$GPGGA,195928.500,4308.3774,N,07729.5784,W,1,07,1.26,96.2,M,-34.4,M,,*69
$GPRMC,195928.750,A,4308.3755,N,07729.5771,W,28.50,151.99,070925,,,A*47
$GPGGA,195929.000,4308.3734,N,07729.5757,W,1,07,1.26,95.7,M,-34.4,M,,*61
$GPRMC,195929.250,A,4308.3712,N,07729.5744,W,29.76,153.29,070925,,,A*4A
$GPGGA,195929.500,4308.3690,N,07729.5730,W,1,07,1.26,95.3,M,-34.4,M,,*6E
$GPRMC,195929.750,A,4308.3668,N,07729.5718,W,30.92,155.76,070925,,,A*44
$GPGGA,195930.000,4308.3647,N,07729.5705,W,1,07,1.26,94.9,M,-34.4,M,,*64
$GPRMC,195930.250,A,4308.3625,N,07729.5694,W,31.17,157.10,070925,,,A*4B
$GPGGA,195930.500,4308.3603,N,07729.5682,W,1,07,1.25,94.4,M,-34.4,M,,*61
$GPRMC,195930.750,A,4308.3580,N,07729.5671,W,31.25,159.74,070925,,,A*44
$GPGGA,195931.000,4308.3557,N,07729.5661,W,1,07,1.25,94.0,M,-34.4,M,,*6E
$GPRMC,195931.250,A,4308.3534,N,07729.5651,W,31.36,162.17,070925,,,A*42
$GPGGA,195931.500,4308.3511,N,07729.5641,W,1,07,1.33,93.6,M,-34.4,M,,*6D
$GPRMC,195931.750,A,4308.3488,N,07729.5631,W,31.57,163.39,070925,,,A*4D
$GPGGA,195932.000,4308.3466,N,07729.5621,W,1,07,1.26,93.1,M,-34.4,M,,*6F
$GPRMC,195932.250,A,4308.3443,N,07729.5611,W,31.63,164.09,070925,,,A*4D
$GPGGA,195932.500,4308.3420,N,07729.5602,W,1,07,1.32,92.7,M,-34.4,M,,*6B
$GPRMC,195932.750,A,4308.3398,N,07729.5593,W,31.72,164.77,070925,,,A*49
$GPGGA,195933.000,4308.3375,N,07729.5584,W,1,07,1.25,92.2,M,-34.4,M,,*66
$GPRMC,195933.250,A,4308.3352,N,07729.5576,W,32.02,165.21,070925,,,A*46
$GPGGA,195933.500,4308.3329,N,07729.5567,W,1,07,1.32,91.7,M,-34.4,M,,*67
