Vers 72
USE_SERIAL_FEEDBACK=true
DEVELOPMENT_MODE=false
USE_RMC_ONLY=false

$GPRMC,230402.000,A,4305.1771,N,07740.5630,W,0.03,228.97,100925,,,A*77
$GPGGA,230402.250,4305.1772,N,07740.5630,W,1,04,2.20,176.9,M,-34.4,M,,*58
$GPRMC,230402.500,A,4305.1773,N,07740.5630,W,0.02,99.19,100925,,,A*4F
$GPGGA,230402.750,4305.1773,N,07740.5630,W,1,04,2.20,176.5,M,-34.4,M,,*50
$GPGGA,230416.250,4305.1760,N,07740.5631,W,1,04,2.20,178.9,M,-34.4,M,,*51
$GPRMC,230416.250,A,4305.1760,N,07740.5631,W,0.03,61.84,100925,,,A*49
$GPGGA,230416.500,4305.1760,N,07740.5631,W,1,04,2.20,179.1,M,-34.4,M,,*5A
$GPRMC,230416.500,A,4305.1760,N,07740.5631,W,0.06,162.23,100925,,,A*71
$GPGGA,230418.750,4305.1769,N,07740.5617,W,1,05,1.45,176.8,M,-34.4,M,,*59
$GPRMC,230418.750,A,4305.1769,N,07740.5617,W,0.04,169.93,100925,,,A*77
$GPGGA,230419.000,4305.1771,N,07740.5615,W,1,05,1.45,176.3,M,-34.4,M,,*5A
$GPRMC,230419.000,A,4305.1771,N,07740.5615,W,0.03,237.70,100925,,,A*7D
$GPGGA,230422.250,4305.1777,N,07740.5602,W,1,05,1.45,174.9,M,-34.4,M,,*5D
$GPRMC,230422.250,A,4305.1777,N,07740.5602,W,0.01,342.58,100925,,,A*79
$GPGGA,230422.500,4305.1777,N,07740.5602,W,1,05,1.45,174.9,M,-34.4,M,,*5F
$GPRMC,230422.500,A,4305.1777,N,07740.5602,W,0.03,260.82,100925,,,A*7F
$GPGGA,230543.000,4305.1769,N,07740.5614,W,2,09,0.89,172.4,M,-34.4,M,0000,0000*51
$GPRMC,230543.000,A,4305.1769,N,07740.5614,W,0.72,204.97,100925,,,D*71
$GPGGA,230543.250,4305.1768,N,07740.5614,W,2,09,0.89,172.4,M,-34.4,M,0000,0000*57
$GPRMC,230543.250,A,4305.1768,N,07740.5614,W,0.86,200.29,100925,,,D*7D
$GPGGA,230545.000,4305.1755,N,07740.5627,W,2,09,0.89,172.4,M,-34.4,M,0000,0000*58
$GPRMC,230545.000,A,4305.1755,N,07740.5627,W,2.89,226.54,100925,,,D*71
$GPGGA,230545.250,4305.1753,N,07740.5630,W,2,09,0.89,172.4,M,-34.4,M,0000,0000*5F
$GPRMC,230545.250,A,4305.1753,N,07740.5630,W,3.35,230.64,100925,,,D*74
$GPGGA,230545.500,4305.1752,N,07740.5635,W,2,09,0.89,172.4,M,-34.4,M,0000,0000*59
$GPRMC,230545.500,A,4305.1752,N,07740.5635,W,3.81,238.76,100925,,,D*76
$GPGGA,230545.750,4305.1751,N,07740.5640,W,2,09,0.89,172.4,M,-34.4,M,0000,0000*5F
$GPRMC,230545.750,A,4305.1751,N,07740.5640,W,4.75,245.18,100925,,,D*7E
$GPGGA,230546.000,4305.1749,N,07740.5646,W,2,09,0.89,172.4,M,-34.4,M,0000,0000*51
$GPRMC,230546.000,A,4305.1749,N,07740.5646,W,5.32,250.78,100925,,,D*70
$GPGGA,230546.250,4305.1748,N,07740.5653,W,2,09,0.89,172.4,M,-34.4,M,0000,0000*53
$GPRMC,230546.250,A,4305.1748,N,07740.5653,W,5.80,254.78,100925,,,D*7F
$GPGGA,230546.500,4305.1747,N,07740.5660,W,2,09,0.89,172.4,M,-34.4,M,0000,0000*5E
$GPRMC,230546.500,A,4305.1747,N,07740.5660,W,6.40,257.55,100925,,,D*71
$GPGGA,230546.750,4305.1746,N,07740.5668,W,2,09,0.89,172.4,M,-34.4,M,0000,0000*50
$GPRMC,230546.750,A,4305.1746,N,07740.5668,W,7.05,260.88,100925,,,D*7B
$GPGGA,230547.000,4305.1745,N,07740.5676,W,2,09,0.89,172.4,M,-34.4,M,0000,0000*5F
$GPRMC,230547.000,A,4305.1745,N,07740.5676,W,7.58,261.31,100925,,,D*7F
$GPGGA,230547.250,4305.1743,N,07740.5685,W,2,09,0.89,172.4,M,-34.4,M,0000,0000*52
$GPRMC,230547.250,A,4305.1743,N,07740.5685,W,8.04,261.68,100925,,,D*78
$GPGGA,230547.500,4305.1742,N,07740.5693,W,2,09,0.89,172.4,M,-34.4,M,0000,0000*56
$GPRMC,230547.500,A,4305.1742,N,07740.5693,W,8.28,263.24,100925,,,D*78
$GPGGA,230547.750,4305.1742,N,07740.5702,W,2,09,0.89,172.4,M,-34.4,M,0000,0000*58
$GPRMC,230547.750,A,4305.1742,N,07740.5702,W,8.17,266.56,100925,,,D*7A
$GPGGA,230548.000,4305.1742,N,07740.5710,W,2,09,0.89,172.4,M,-34.4,M,0000,0000*56
$GPRMC,230548.000,A,4305.1742,N,07740.5710,W,8.33,266.82,100925,,,D*7B
$GPGGA,230548.250,4305.1741,N,07740.5718,W,2,09,0.89,172.4,M,-34.4,M,0000,0000*5A
$GPRMC,230548.250,A,4305.1741,N,07740.5718,W,8.30,267.22,100925,,,D*7F
$GPGGA,230548.500,4305.1741,N,07740.5727,W,2,09,0.89,172.3,M,-34.4,M,0000,0000*53
$GPRMC,230548.500,A,4305.1741,N,07740.5727,W,8.44,269.02,100925,,,D*7E
$GPGGA,230548.750,4305.1741,N,07740.5736,W,2,09,0.89,172.4,M,-34.4,M,0000,0000*53
$GPRMC,230548.750,A,4305.1741,N,07740.5736,W,8.56,269.51,100925,,,D*7C
$GPGGA,230549.000,4305.1741,N,07740.5745,W,2,09,0.89,172.3,M,-34.4,M,0000,0000*53
$GPRMC,230549.000,A,4305.1741,N,07740.5745,W,8.61,270.47,100925,,,D*70
$GPGGA,230549.250,4305.1741,N,07740.5753,W,2,09,0.89,172.3,M,-34.4,M,0000,0000*53
$GPRMC,230549.250,A,4305.1741,N,07740.5753,W,8.54,272.57,100925,,,D*75
$GPGGA,230549.500,4305.1742,N,07740.5762,W,2,09,0.89,172.2,M,-34.4,M,0000,0000*51
$GPRMC,230549.500,A,4305.1742,N,07740.5762,W,8.45,274.85,100925,,,D*7F
$GPGGA,230549.750,4305.1742,N,07740.5770,W,2,09,0.89,172.2,M,-34.4,M,0000,0000*55
$GPRMC,230549.750,A,4305.1742,N,07740.5770,W,8.46,274.56,100925,,,D*76
$GPGGA,230550.000,4305.1743,N,07740.5778,W,2,09,0.89,172.2,M,-34.4,M,0000,0000*56
$GPRMC,230550.000,A,4305.1743,N,07740.5778,W,8.21,273.95,100925,,,D*7C
$GPGGA,230550.250,4305.1743,N,07740.5786,W,2,09,0.89,172.1,M,-34.4,M,0000,0000*53
$GPRMC,230550.250,A,4305.1743,N,07740.5786,W,8.30,273.41,100925,,,D*73
$GPGGA,230550.500,4305.1744,N,07740.5795,W,2,09,0.89,172.1,M,-34.4,M,0000,0000*54
$GPRMC,230550.500,A,4305.1744,N,07740.5795,W,8.43,271.41,100925,,,D*72
$GPGGA,230550.750,4305.1744,N,07740.5803,W,2,09,0.89,172.1,M,-34.4,M,0000,0000*53
$GPRMC,230550.750,A,4305.1744,N,07740.5803,W,8.41,272.25,100925,,,D*76
$GPGGA,230551.000,4305.1745,N,07740.5811,W,2,09,0.89,172.1,M,-34.4,M,0000,0000*52
$GPRMC,230551.000,A,4305.1745,N,07740.5811,W,8.38,274.98,100925,,,D*79
$GPGGA,230551.250,4305.1747,N,07740.5819,W,2,09,0.89,172.1,M,-34.4,M,0000,0000*5F
$GPRMC,230551.250,A,4305.1747,N,07740.5819,W,8.38,278.42,100925,,,D*7F
$GPGGA,230551.500,4305.1748,N,07740.5827,W,2,09,0.89,172.1,M,-34.4,M,0000,0000*5F
$GPRMC,230551.500,A,4305.1748,N,07740.5827,W,8.25,280.14,100925,,,D*77
$GPGGA,230551.750,4305.1750,N,07740.5834,W,2,09,0.89,172.0,M,-34.4,M,0000,0000*52
$GPRMC,230551.750,A,4305.1750,N,07740.5834,W,8.12,283.81,100925,,,D*70
$GPGGA,230552.000,4305.1752,N,07740.5842,W,2,09,0.89,172.0,M,-34.4,M,0000,0000*50
$GPRMC,230552.000,A,4305.1752,N,07740.5842,W,8.28,288.77,100925,,,D*79
$GPGGA,230552.250,4305.1754,N,07740.5849,W,2,09,0.89,172.0,M,-34.4,M,0000,0000*5A
$GPRMC,230552.250,A,4305.1754,N,07740.5849,W,8.31,289.60,100925,,,D*7C
$GPGGA,230552.500,4305.1757,N,07740.5856,W,2,09,0.89,172.0,M,-34.4,M,0000,0000*55
$GPRMC,230552.500,A,4305.1757,N,07740.5856,W,8.07,291.38,100925,,,D*72
$GPGGA,230552.750,4305.1759,N,07740.5863,W,2,09,0.89,172.0,M,-34.4,M,0000,0000*5A
$GPRMC,230552.750,A,4305.1759,N,07740.5863,W,7.67,293.30,100925,,,D*7E
$GPGGA,230553.000,4305.1761,N,07740.5869,W,2,09,0.89,172.0,M,-34.4,M,0000,0000*58
$GPRMC,230553.000,A,4305.1761,N,07740.5869,W,7.42,294.70,100925,,,D*78
$GPGGA,230553.250,4305.1764,N,07740.5875,W,2,09,0.89,172.0,M,-34.4,M,0000,0000*57
$GPRMC,230553.250,A,4305.1764,N,07740.5875,W,7.29,296.67,100925,,,D*7E
$GPGGA,230553.500,4305.1767,N,07740.5880,W,2,09,0.89,172.0,M,-34.4,M,0000,0000*5C
$GPRMC,230553.500,A,4305.1767,N,07740.5880,W,7.12,303.93,100925,,,D*7B
$GPGGA,230553.750,4305.1772,N,07740.5885,W,2,09,0.89,171.9,M,-34.4,M,0000,0000*50
$GPRMC,230553.750,A,4305.1772,N,07740.5885,W,7.11,312.98,100925,,,D*75
$GPGGA,230554.000,4305.1778,N,07740.5889,W,2,09,0.89,171.8,M,-34.4,M,0000,0000*52
$GPRMC,230554.000,A,4305.1778,N,07740.5889,W,7.75,323.54,100925,,,D*76
$GPGGA,230554.250,4305.1783,N,07740.5893,W,2,09,0.89,171.8,M,-34.4,M,0000,0000*5A
$GPRMC,230554.250,A,4305.1783,N,07740.5893,W,7.72,325.39,100925,,,D*74
$GPGGA,230554.500,4305.1788,N,07740.5896,W,2,09,0.89,171.9,M,-34.4,M,0000,0000*57
$GPRMC,230554.500,A,4305.1788,N,07740.5896,W,7.71,330.47,100925,,,D*76
$GPGGA,230554.750,4305.1793,N,07740.5898,W,2,09,0.89,171.9,M,-34.4,M,0000,0000*54
$GPRMC,230554.750,A,4305.1793,N,07740.5898,W,7.59,337.08,100925,,,D*73
$GPGGA,230555.000,4305.1799,N,07740.5900,W,2,09,0.89,171.9,M,-34.4,M,0000,0000*5D
$GPRMC,230555.000,A,4305.1799,N,07740.5900,W,7.89,342.60,100925,,,D*7B
$GPGGA,230555.250,4305.1806,N,07740.5901,W,2,09,0.89,171.9,M,-34.4,M,0000,0000*52
$GPRMC,230555.250,A,4305.1806,N,07740.5901,W,8.08,345.51,100925,,,D*77
$GPGGA,230555.500,4305.1812,N,07740.5902,W,2,09,0.89,171.9,M,-34.4,M,0000,0000*56
$GPRMC,230555.500,A,4305.1812,N,07740.5902,W,8.25,351.10,100925,,,D*7C
$GPGGA,230555.750,4305.1820,N,07740.5901,W,2,09,0.89,171.9,M,-34.4,M,0000,0000*53
$GPRMC,230555.750,A,4305.1820,N,07740.5901,W,8.77,357.40,100925,,,D*7D
$GPGGA,230556.000,4305.1826,N,07740.5900,W,2,09,0.89,171.9,M,-34.4,M,0000,0000*55
$GPRMC,230556.000,A,4305.1826,N,07740.5900,W,8.98,358.90,100925,,,D*78
$GPGGA,230556.250,4305.1834,N,07740.5901,W,2,09,0.89,171.9,M,-34.4,M,0000,0000*50
$GPRMC,230556.250,A,4305.1834,N,07740.5901,W,9.25,358.88,100925,,,D*73
$GPGGA,230556.500,4305.1841,N,07740.5901,W,2,09,0.89,171.9,M,-34.4,M,0000,0000*50
$GPRMC,230556.500,A,4305.1841,N,07740.5901,W,9.67,357.54,100925,,,D*7B
$GPGGA,230556.750,4305.1848,N,07740.5903,W,2,09,0.89,171.9,M,-34.4,M,0000,0000*5C
$GPRMC,230556.750,A,4305.1848,N,07740.5903,W,10.14,353.53,100925,,,D*48
$GPGGA,230557.000,4305.1856,N,07740.5905,W,2,09,0.89,171.8,M,-34.4,M,0000,0000*57
$GPRMC,230557.000,A,4305.1856,N,07740.5905,W,10.41,349.94,100925,,,D*42
$GPGGA,230557.250,4305.1863,N,07740.5907,W,2,09,0.89,171.7,M,-34.4,M,0000,0000*5B
$GPRMC,230557.250,A,4305.1863,N,07740.5907,W,10.64,347.28,100925,,,D*4F
$GPGGA,230557.500,4305.1871,N,07740.5910,W,2,09,0.89,171.6,M,-34.4,M,0000,0000*5D
$GPRMC,230557.500,A,4305.1871,N,07740.5910,W,10.92,344.75,100925,,,D*4A
$GPGGA,230557.750,4305.1878,N,07740.5913,W,2,09,0.89,171.5,M,-34.4,M,0000,0000*53
$GPRMC,230557.750,A,4305.1878,N,07740.5913,W,11.00,341.72,100925,,,D*4F
$GPGGA,230558.000,4305.1886,N,07740.5917,W,2,09,0.89,171.4,M,-34.4,M,0000,0000*5A
$GPRMC,230558.000,A,4305.1886,N,07740.5917,W,11.31,338.82,100925,,,D*44
$GPGGA,230558.250,4305.1894,N,07740.5921,W,2,09,0.89,171.3,M,-34.4,M,0000,0000*5C
$GPRMC,230558.250,A,4305.1894,N,07740.5921,W,11.37,337.27,100925,,,D*43
$GPGGA,230558.500,4305.1901,N,07740.5927,W,2,09,0.89,171.1,M,-34.4,M,0000,0000*57
$GPRMC,230558.500,A,4305.1901,N,07740.5927,W,11.44,334.65,100925,,,D*4B
$GPGGA,230558.750,4305.1908,N,07740.5932,W,2,09,0.89,171.0,M,-34.4,M,0000,0000*5C
$GPRMC,230558.750,A,4305.1908,N,07740.5932,W,11.46,333.33,100925,,,D*47
$GPGGA,230559.000,4305.1916,N,07740.5937,W,2,09,0.89,170.8,M,-34.4,M,0000,0000*5C
$GPRMC,230559.000,A,4305.1916,N,07740.5937,W,11.44,331.75,100925,,,D*4C
$GPGGA,230559.250,4305.1923,N,07740.5943,W,2,09,0.89,170.7,M,-34.4,M,0000,0000*51
$GPRMC,230559.250,A,4305.1923,N,07740.5943,W,11.42,331.37,100925,,,D*4E
$GPGGA,230559.500,4305.1931,N,07740.5948,W,2,09,0.89,170.6,M,-34.4,M,0000,0000*5A
$GPRMC,230559.500,A,4305.1931,N,07740.5948,W,11.46,331.02,100925,,,D*46
$GPGGA,230559.750,4305.1939,N,07740.5953,W,2,09,0.89,170.5,M,-34.4,M,0000,0000*5C
$GPRMC,230559.750,A,4305.1939,N,07740.5953,W,11.47,330.31,100925,,,D*43
$GPGGA,230600.000,4305.1947,N,07740.5958,W,2,09,0.89,170.4,M,-34.4,M,0000,0000*52
$GPRMC,230600.000,A,4305.1947,N,07740.5958,W,11.49,330.00,100925,,,D*40
$GPGGA,230600.250,4305.1955,N,07740.5963,W,2,09,0.89,170.2,M,-34.4,M,0000,0000*58
$GPRMC,230600.250,A,4305.1955,N,07740.5963,W,11.52,329.42,100925,,,D*48
$GPGGA,230600.500,4305.1962,N,07740.5969,W,2,09,0.89,170.0,M,-34.4,M,0000,0000*56
$GPRMC,230600.500,A,4305.1962,N,07740.5969,W,11.56,329.65,100925,,,D*45
$GPGGA,230600.750,4305.1969,N,07740.5975,W,2,09,0.89,169.9,M,-34.4,M,0000,0000*56
$GPRMC,230600.750,A,4305.1969,N,07740.5975,W,11.56,330.17,100925,,,D*49
$GPGGA,230601.000,4305.1976,N,07740.5980,W,2,09,0.89,169.7,M,-34.4,M,0000,0000*5F
$GPRMC,230601.000,A,4305.1976,N,07740.5980,W,11.34,331.87,100925,,,D*42
$GPGGA,230601.250,4305.1984,N,07740.5984,W,2,09,0.89,169.7,M,-34.4,M,0000,0000*51
$GPRMC,230601.250,A,4305.1984,N,07740.5984,W,11.26,335.37,100925,,,D*40
$GPGGA,230601.500,4305.1993,N,07740.5986,W,2,09,0.89,169.5,M,-34.4,M,0000,0000*55
$GPRMC,230601.500,A,4305.1993,N,07740.5986,W,11.52,340.81,100925,,,D*4A
$GPGGA,230601.750,4305.2001,N,07740.5989,W,2,09,0.89,169.4,M,-34.4,M,0000,0000*5D
$GPRMC,230601.750,A,4305.2001,N,07740.5989,W,11.73,343.24,100925,,,D*4C
$GPGGA,230602.000,4305.2010,N,07740.5992,W,2,09,0.89,169.2,M,-34.4,M,0000,0000*50
$GPRMC,230602.000,A,4305.2010,N,07740.5992,W,11.80,344.55,100925,,,D*4A
$GPGGA,230602.250,4305.2018,N,07740.5995,W,2,09,0.89,169.2,M,-34.4,M,0000,0000*58
$GPRMC,230602.250,A,4305.2018,N,07740.5995,W,11.86,345.91,100925,,,D*4D
$GPGGA,230602.500,4305.2027,N,07740.5997,W,2,09,0.89,169.1,M,-34.4,M,0000,0000*57
$GPRMC,230602.500,A,4305.2027,N,07740.5997,W,12.23,347.68,100925,,,D*49
$GPGGA,230602.750,4305.2036,N,07740.5999,W,2,09,0.89,169.0,M,-34.4,M,0000,0000*5F
$GPRMC,230602.750,A,4305.2036,N,07740.5999,W,12.47,349.59,100925,,,D*4E
$GPGGA,230603.000,4305.2045,N,07740.6000,W,2,09,0.89,168.9,M,-34.4,M,0000,0000*5A
$GPRMC,230603.000,A,4305.2045,N,07740.6000,W,12.74,351.75,100925,,,D*44
$GPGGA,230603.250,4305.2055,N,07740.6000,W,2,09,0.89,168.9,M,-34.4,M,0000,0000*5C
$GPRMC,230603.250,A,4305.2055,N,07740.6000,W,12.76,352.69,100925,,,D*4E
$GPGGA,230603.500,4305.2064,N,07740.6001,W,2,09,0.89,168.8,M,-34.4,M,0000,0000*5C
$GPRMC,230603.500,A,4305.2064,N,07740.6001,W,12.84,353.89,100925,,,D*4D
$GPGGA,230603.750,4305.2073,N,07740.6002,W,2,09,0.89,168.7,M,-34.4,M,0000,0000*51
$GPRMC,230603.750,A,4305.2073,N,07740.6002,W,12.87,355.61,100925,,,D*4C
$GPGGA,230604.000,4305.2081,N,07740.6002,W,2,09,0.89,168.6,M,-34.4,M,0000,0000*58
$GPRMC,230604.000,A,4305.2081,N,07740.6002,W,12.80,356.64,100925,,,D*45
$GPGGA,230604.250,4305.2090,N,07740.6003,W,2,09,0.89,168.5,M,-34.4,M,0000,0000*5D
$GPRMC,230604.250,A,4305.2090,N,07740.6003,W,12.75,356.88,100925,,,D*4B
$GPGGA,230604.500,4305.2099,N,07740.6003,W,2,09,0.89,168.4,M,-34.4,M,0000,0000*57
$GPRMC,230604.500,A,4305.2099,N,07740.6003,W,12.95,357.55,100925,,,D*4F
$GPGGA,230604.750,4305.2109,N,07740.6003,W,2,09,0.89,168.2,M,-34.4,M,0000,0000*5E
$GPRMC,230604.750,A,4305.2109,N,07740.6003,W,13.24,358.24,100925,,,D*42
$GPGGA,230605.000,4305.2118,N,07740.6004,W,2,09,0.89,168.2,M,-34.4,M,0000,0000*5A
$GPRMC,230605.000,A,4305.2118,N,07740.6004,W,13.30,358.54,100925,,,D*44
$GPGGA,230605.250,4305.2128,N,07740.6003,W,2,09,0.89,168.1,M,-34.4,M,0000,0000*5A
$GPRMC,230605.250,A,4305.2128,N,07740.6003,W,13.38,358.73,100925,,,D*4A
$GPGGA,230605.500,4305.2139,N,07740.6002,W,2,09,0.89,168.0,M,-34.4,M,0000,0000*58
$GPRMC,230605.500,A,4305.2139,N,07740.6002,W,13.63,358.72,100925,,,D*46
$GPGGA,230605.750,4305.2149,N,07740.6002,W,2,09,0.89,167.9,M,-34.4,M,0000,0000*5E
$GPRMC,230605.750,A,4305.2149,N,07740.6002,W,13.84,358.97,100925,,,D*44
$GPGGA,230606.000,4305.2160,N,07740.6001,W,2,09,0.89,167.7,M,-34.4,M,0000,0000*59
$GPRMC,230606.000,A,4305.2160,N,07740.6001,W,13.90,359.03,100925,,,D*44
$GPGGA,230606.250,4305.2171,N,07740.6001,W,2,09,0.89,167.6,M,-34.4,M,0000,0000*5F
$GPRMC,230606.250,A,4305.2171,N,07740.6001,W,13.97,358.75,100925,,,D*44
$GPGGA,230606.500,4305.2181,N,07740.6001,W,2,09,0.89,167.5,M,-34.4,M,0000,0000*51
$GPRMC,230606.500,A,4305.2181,N,07740.6001,W,14.00,358.71,100925,,,D*44
$GPGGA,230606.750,4305.2191,N,07740.6000,W,2,09,0.89,167.3,M,-34.4,M,0000,0000*50
$GPRMC,230606.750,A,4305.2191,N,07740.6000,W,13.98,358.96,100925,,,D*4C
$GPGGA,230607.000,4305.2201,N,07740.6000,W,2,09,0.90,167.2,M,-34.4,M,0000,0000*50
$GPRMC,230607.000,A,4305.2201,N,07740.6000,W,13.98,359.09,100925,,,D*42
$GPGGA,230607.250,4305.2211,N,07740.5999,W,2,09,0.89,167.1,M,-34.4,M,0000,0000*57
$GPRMC,230607.250,A,4305.2211,N,07740.5999,W,14.03,358.89,100925,,,D*42
$GPGGA,230607.500,4305.2222,N,07740.5999,W,2,09,0.89,166.9,M,-34.4,M,0000,0000*5C
$GPRMC,230607.500,A,4305.2222,N,07740.5999,W,14.29,359.00,100925,,,D*48
$GPGGA,230607.750,4305.2232,N,07740.5999,W,2,09,0.89,166.8,M,-34.4,M,0000,0000*5B
$GPRMC,230607.750,A,4305.2232,N,07740.5999,W,14.34,358.70,100925,,,D*44
$GPGGA,230608.000,4305.2243,N,07740.5999,W,2,09,0.89,166.7,M,-34.4,M,0000,0000*5F
$GPRMC,230608.000,A,4305.2243,N,07740.5999,W,14.39,358.28,100925,,,D*4F
$GPGGA,230608.250,4305.2253,N,07740.5999,W,2,09,0.89,166.6,M,-34.4,M,0000,0000*58
$GPRMC,230608.250,A,4305.2253,N,07740.5999,W,14.37,358.83,100925,,,D*46
$GPGGA,230608.500,4305.2264,N,07740.5999,W,2,09,0.89,166.5,M,-34.4,M,0000,0000*5D
$GPRMC,230608.500,A,4305.2264,N,07740.5999,W,14.37,359.26,100925,,,D*4E
$GPGGA,230608.750,4305.2274,N,07740.5999,W,2,09,0.89,166.4,M,-34.4,M,0000,0000*5A
$GPRMC,230608.750,A,4305.2274,N,07740.5999,W,14.63,359.46,100925,,,D*4F
$GPGGA,230609.000,4305.2285,N,07740.6000,W,2,09,0.89,166.3,M,-34.4,M,0000,0000*5A
$GPRMC,230609.000,A,4305.2285,N,07740.6000,W,14.67,358.77,100925,,,D*4F
$GPGGA,230609.250,4305.2295,N,07740.6000,W,2,09,0.89,166.2,M,-34.4,M,0000,0000*5D
$GPRMC,230609.250,A,4305.2295,N,07740.6000,W,14.73,358.53,100925,,,D*4A
$GPGGA,230609.500,4305.2306,N,07740.6001,W,2,09,0.89,166.1,M,-34.4,M,0000,0000*56
$GPRMC,230609.500,A,4305.2306,N,07740.6001,W,14.94,358.00,100925,,,D*4D
$GPGGA,230609.750,4305.2317,N,07740.6002,W,2,09,0.89,166.1,M,-34.4,M,0000,0000*52
$GPRMC,230609.750,A,4305.2317,N,07740.6002,W,14.95,358.15,100925,,,D*4C
$GPGGA,230610.000,4305.2328,N,07740.6002,W,2,09,0.89,166.0,M,-34.4,M,0000,0000*55
$GPRMC,230610.000,A,4305.2328,N,07740.6002,W,14.97,358.19,100925,,,D*44
$GPGGA,230610.250,4305.2338,N,07740.6002,W,2,09,0.89,165.9,M,-34.4,M,0000,0000*59
$GPRMC,230610.250,A,4305.2338,N,07740.6002,W,14.97,358.57,100925,,,D*48
$GPGGA,230610.500,4305.2350,N,07740.6003,W,2,09,0.89,165.8,M,-34.4,M,0000,0000*55
$GPRMC,230610.500,A,4305.2350,N,07740.6003,W,15.16,358.86,100925,,,D*41
$GPGGA,230610.750,4305.2361,N,07740.6003,W,2,09,0.89,165.7,M,-34.4,M,0000,0000*5F
$GPRMC,230610.750,A,4305.2361,N,07740.6003,W,15.23,359.15,100925,,,D*49
$GPGGA,230611.000,4305.2372,N,07740.6004,W,2,09,0.89,165.6,M,-34.4,M,0000,0000*58
$GPRMC,230611.000,A,4305.2372,N,07740.6004,W,15.49,358.65,100925,,,D*45
$GPGGA,230611.250,4305.2383,N,07740.6004,W,2,09,0.89,165.5,M,-34.4,M,0000,0000*52
$GPRMC,230611.250,A,4305.2383,N,07740.6004,W,15.50,358.47,100925,,,D*44
$GPGGA,230611.500,4305.2394,N,07740.6005,W,2,09,0.89,165.4,M,-34.4,M,0000,0000*56
$GPRMC,230611.500,A,4305.2394,N,07740.6005,W,15.55,358.14,100925,,,D*42
$GPGGA,230611.750,4305.2405,N,07740.6005,W,2,09,0.89,165.3,M,-34.4,M,0000,0000*59
$GPRMC,230611.750,A,4305.2405,N,07740.6005,W,15.79,358.03,100925,,,D*42
$GPGGA,230612.000,4305.2417,N,07740.6005,W,2,09,0.89,165.2,M,-34.4,M,0000,0000*5A
$GPRMC,230612.000,A,4305.2417,N,07740.6005,W,15.83,358.48,100925,,,D*4A
$GPGGA,230612.250,4305.2428,N,07740.6005,W,2,09,0.89,165.1,M,-34.4,M,0000,0000*52
$GPRMC,230612.250,A,4305.2428,N,07740.6005,W,15.84,358.57,100925,,,D*48
$GPGGA,230612.500,4305.2439,N,07740.6006,W,2,09,0.89,165.0,M,-34.4,M,0000,0000*52
$GPRMC,230612.500,A,4305.2439,N,07740.6006,W,15.77,358.96,100925,,,D*48
$GPGGA,230612.750,4305.2450,N,07740.6006,W,2,09,0.89,164.9,M,-34.4,M,0000,0000*52
$GPRMC,230612.750,A,4305.2450,N,07740.6006,W,15.46,359.33,100925,,,D*4C
$GPGGA,230613.000,4305.2461,N,07740.6006,W,2,09,0.90,164.7,M,-34.4,M,0000,0000*55
$GPRMC,230613.000,A,4305.2461,N,07740.6006,W,15.25,359.57,100925,,,D*4A
$GPGGA,230613.250,4305.2472,N,07740.6006,W,2,09,0.89,164.6,M,-34.4,M,0000,0000*59
$GPRMC,230613.250,A,4305.2472,N,07740.6006,W,15.04,359.91,100925,,,D*46
$GPGGA,230613.500,4305.2481,N,07740.6006,W,2,09,0.89,164.5,M,-34.4,M,0000,0000*54
$GPRMC,230613.500,A,4305.2481,N,07740.6006,W,14.56,359.94,100925,,,D*4B
$GPGGA,230613.750,4305.2490,N,07740.6007,W,2,09,0.89,164.5,M,-34.4,M,0000,0000*52
$GPRMC,230613.750,A,4305.2490,N,07740.6007,W,13.92,0.13,100925,,,D*42
$GPGGA,230614.000,4305.2498,N,07740.6008,W,2,09,0.89,164.4,M,-34.4,M,0000,0000*51
$GPRMC,230614.000,A,4305.2498,N,07740.6008,W,13.32,0.27,100925,,,D*4D
$GPGGA,230614.250,4305.2506,N,07740.6009,W,2,09,0.89,164.4,M,-34.4,M,0000,0000*51
$GPRMC,230614.250,A,4305.2506,N,07740.6009,W,12.91,0.04,100925,,,D*44
$GPGGA,230614.500,4305.2514,N,07740.6009,W,2,09,0.90,164.3,M,-34.4,M,0000,0000*5F
$GPRMC,230614.500,A,4305.2514,N,07740.6009,W,12.15,0.98,100925,,,D*4C
$GPGGA,230614.750,4305.2522,N,07740.6011,W,2,09,0.89,164.3,M,-34.4,M,0000,0000*5C
$GPRMC,230614.750,A,4305.2522,N,07740.6011,W,11.34,1.29,100925,,,D*4C
$GPGGA,230615.000,4305.2527,N,07740.6013,W,2,09,0.89,164.3,M,-34.4,M,0000,0000*58
$GPRMC,230615.000,A,4305.2527,N,07740.6013,W,10.54,1.98,100925,,,D*45
$GPGGA,230615.250,4305.2533,N,07740.6013,W,2,09,0.89,164.3,M,-34.4,M,0000,0000*5A
$GPRMC,230615.250,A,4305.2533,N,07740.6013,W,9.87,2.65,100925,,,D*70
$GPGGA,230615.500,4305.2538,N,07740.6013,W,2,09,0.89,164.3,M,-34.4,M,0000,0000*53
$GPRMC,230615.500,A,4305.2538,N,07740.6013,W,9.11,3.46,100925,,,D*76
$GPGGA,230615.750,4305.2543,N,07740.6013,W,2,09,0.90,164.3,M,-34.4,M,0000,0000*50
$GPRMC,230615.750,A,4305.2543,N,07740.6013,W,8.46,3.70,100925,,,D*7B
$GPGGA,230616.000,4305.2546,N,07740.6014,W,2,09,0.89,164.2,M,-34.4,M,0000,0000*5A
$GPRMC,230616.000,A,4305.2546,N,07740.6014,W,7.85,2.31,100925,,,D*7C
$GPGGA,230616.250,4305.2551,N,07740.6014,W,2,09,0.89,164.1,M,-34.4,M,0000,0000*58
$GPRMC,230616.250,A,4305.2551,N,07740.6014,W,7.60,2.74,100925,,,D*77
$GPGGA,230616.500,4305.2553,N,07740.6013,W,2,09,0.89,164.0,M,-34.4,M,0000,0000*5E
$GPRMC,230616.500,A,4305.2553,N,07740.6013,W,6.94,6.15,100925,,,D*79
$GPGGA,230616.750,4305.2555,N,07740.6013,W,2,09,0.89,163.8,M,-34.4,M,0000,0000*50
$GPRMC,230616.750,A,4305.2555,N,07740.6013,W,6.61,7.94,100925,,,D*7A
$GPGGA,230617.000,4305.2557,N,07740.6013,W,2,09,0.89,163.6,M,-34.4,M,0000,0000*5F
$GPRMC,230617.000,A,4305.2557,N,07740.6013,W,6.31,9.58,100925,,,D*70
$GPGGA,230617.250,4305.2561,N,07740.6012,W,2,09,0.89,163.5,M,-34.4,M,0000,0000*5F
$GPRMC,230617.250,A,4305.2561,N,07740.6012,W,6.13,12.42,100925,,,D*42
$GPGGA,230617.500,4305.2564,N,07740.6010,W,2,09,0.89,163.4,M,-34.4,M,0000,0000*5B
$GPRMC,230617.500,A,4305.2564,N,07740.6010,W,6.11,16.77,100925,,,D*47
$GPGGA,230617.750,4305.2568,N,07740.6008,W,2,09,0.89,163.2,M,-34.4,M,0000,0000*5F
$GPRMC,230617.750,A,4305.2568,N,07740.6008,W,6.30,20.01,100925,,,D*42
$GPGGA,230618.000,4305.2571,N,07740.6005,W,2,09,0.89,163.1,M,-34.4,M,0000,0000*54
$GPRMC,230618.000,A,4305.2571,N,07740.6005,W,6.29,24.63,100925,,,D*42
$GPGGA,230618.250,4305.2575,N,07740.6001,W,2,09,0.89,163.0,M,-34.4,M,0000,0000*52
$GPRMC,230618.250,A,4305.2575,N,07740.6001,W,6.50,29.52,100925,,,D*44
$GPGGA,230618.500,4305.2578,N,07740.5997,W,2,09,0.89,162.8,M,-34.4,M,0000,0000*51
$GPRMC,230618.500,A,4305.2578,N,07740.5997,W,6.97,35.38,100925,,,D*44
$GPGGA,230618.750,4305.2582,N,07740.5992,W,2,09,0.89,162.7,M,-34.4,M,0000,0000*59
$GPRMC,230618.750,A,4305.2582,N,07740.5992,W,7.54,37.95,100925,,,D*48
$GPGGA,230619.000,4305.2585,N,07740.5986,W,2,09,0.89,162.5,M,-34.4,M,0000,0000*5A
$GPRMC,230619.000,A,4305.2585,N,07740.5986,W,8.12,42.09,100925,,,D*43
$GPGGA,230619.250,4305.2589,N,07740.5980,W,2,09,0.89,162.4,M,-34.4,M,0000,0000*56
$GPRMC,230619.250,A,4305.2589,N,07740.5980,W,8.44,46.02,100925,,,D*42
$GPGGA,230619.500,4305.2592,N,07740.5973,W,2,09,0.90,162.4,M,-34.4,M,0000,0000*5A
$GPRMC,230619.500,A,4305.2592,N,07740.5973,W,8.51,50.23,100925,,,D*46
$GPGGA,230619.750,4305.2594,N,07740.5965,W,2,09,0.89,162.3,M,-34.4,M,0000,0000*53
$GPRMC,230619.750,A,4305.2594,N,07740.5965,W,8.84,57.97,100925,,,D*40
$GPGGA,230620.000,4305.2596,N,07740.5957,W,2,09,0.89,162.2,M,-34.4,M,0000,0000*59
$GPRMC,230620.000,A,4305.2596,N,07740.5957,W,9.11,60.56,100925,,,D*4F
$GPGGA,230620.250,4305.2599,N,07740.5949,W,2,09,0.89,162.1,M,-34.4,M,0000,0000*5D
$GPRMC,230620.250,A,4305.2599,N,07740.5949,W,9.19,61.79,100925,,,D*4C
$GPGGA,230620.500,4305.2600,N,07740.5942,W,2,09,0.89,162.0,M,-34.4,M,0000,0000*56
$GPRMC,230620.500,A,4305.2600,N,07740.5942,W,9.24,62.83,100925,,,D*4E
$GPGGA,230620.750,4305.2601,N,07740.5935,W,2,09,0.89,162.0,M,-34.4,M,0000,0000*50
$GPRMC,230620.750,A,4305.2601,N,07740.5935,W,9.42,64.73,100925,,,D*41
$GPGGA,230621.000,4305.2602,N,07740.5925,W,2,09,0.89,161.9,M,-34.4,M,0000,0000*5B
$GPRMC,230621.000,A,4305.2602,N,07740.5925,W,9.64,67.56,100925,,,D*40
$GPGGA,230621.250,4305.2603,N,07740.5915,W,2,09,0.89,161.8,M,-34.4,M,0000,0000*5F
$GPRMC,230621.250,A,4305.2603,N,07740.5915,W,9.89,72.13,100925,,,D*43
$GPGGA,230621.500,4305.2603,N,07740.5904,W,2,09,0.89,161.6,M,-34.4,M,0000,0000*53
$GPRMC,230621.500,A,4305.2603,N,07740.5904,W,10.07,78.43,100925,,,D*70
$GPGGA,230621.750,4305.2603,N,07740.5893,W,2,09,0.89,161.6,M,-34.4,M,0000,0000*5B
$GPRMC,230621.750,A,4305.2603,N,07740.5893,W,10.43,82.18,100925,,,D*73
$GPGGA,230622.000,4305.2604,N,07740.5880,W,2,09,0.89,161.5,M,-34.4,M,0000,0000*5C
$GPRMC,230622.000,A,4305.2604,N,07740.5880,W,10.85,84.96,100925,,,D*7D
$GPGGA,230622.250,4305.2605,N,07740.5867,W,2,09,0.89,161.5,M,-34.4,M,0000,0000*53
$GPRMC,230622.250,A,4305.2605,N,07740.5867,W,11.30,86.79,100925,,,D*7E
$GPGGA,230622.500,4305.2606,N,07740.5855,W,2,09,0.89,161.5,M,-34.4,M,0000,0000*53
$GPRMC,230622.500,A,4305.2606,N,07740.5855,W,11.62,88.26,100925,,,D*7D
$GPGGA,230622.750,4305.2606,N,07740.5841,W,2,09,0.89,161.4,M,-34.4,M,0000,0000*50
$GPRMC,230622.750,A,4305.2606,N,07740.5841,W,12.06,89.29,100925,,,D*70
$GPGGA,230623.000,4305.2607,N,07740.5827,W,2,09,0.89,161.4,M,-34.4,M,0000,0000*52
$GPRMC,230623.000,A,4305.2607,N,07740.5827,W,12.40,90.01,100925,,,D*72
$GPGGA,230623.250,4305.2608,N,07740.5814,W,2,09,0.89,161.3,M,-34.4,M,0000,0000*5D
$GPRMC,230623.250,A,4305.2608,N,07740.5814,W,12.60,90.66,100925,,,D*79
$GPGGA,230623.500,4305.2608,N,07740.5801,W,2,09,0.89,161.3,M,-34.4,M,0000,0000*5B
$GPRMC,230623.500,A,4305.2608,N,07740.5801,W,12.85,90.98,100925,,,D*75
$GPGGA,230623.750,4305.2608,N,07740.5788,W,2,09,0.89,161.2,M,-34.4,M,0000,0000*53
$GPRMC,230623.750,A,4305.2608,N,07740.5788,W,13.19,91.06,100925,,,D*7E
$GPGGA,230624.000,4305.2608,N,07740.5773,W,2,09,0.89,161.2,M,-34.4,M,0000,0000*52
$GPRMC,230624.000,A,4305.2608,N,07740.5773,W,13.58,90.84,100925,,,D*71
$GPGGA,230624.250,4305.2609,N,07740.5758,W,2,09,0.89,161.2,M,-34.4,M,0000,0000*5D
$GPRMC,230624.250,A,4305.2609,N,07740.5758,W,13.88,90.38,100925,,,D*74
$GPGGA,230624.500,4305.2610,N,07740.5743,W,2,09,0.89,161.1,M,-34.4,M,0000,0000*5E
$GPRMC,230624.500,A,4305.2610,N,07740.5743,W,14.19,90.24,100925,,,D*76
$GPGGA,230624.750,4305.2611,N,07740.5726,W,2,09,0.89,161.1,M,-34.4,M,0000,0000*5B
$GPRMC,230624.750,A,4305.2611,N,07740.5726,W,14.65,90.29,100925,,,D*75
$GPGGA,230625.000,4305.2611,N,07740.5709,W,2,09,0.90,161.0,M,-34.4,M,0000,0000*5C
$GPRMC,230625.000,A,4305.2611,N,07740.5709,W,14.94,90.13,100925,,,D*7C
$GPGGA,230625.250,4305.2612,N,07740.5692,W,2,09,0.89,160.9,M,-34.4,M,0000,0000*5B
$GPRMC,230625.250,A,4305.2612,N,07740.5692,W,15.20,89.79,100925,,,D*71
$GPGGA,230625.500,4305.2613,N,07740.5675,W,2,09,0.89,160.9,M,-34.4,M,0000,0000*51
$GPRMC,230625.500,A,4305.2613,N,07740.5675,W,15.51,89.74,100925,,,D*70
$GPGGA,230625.750,4305.2614,N,07740.5659,W,2,09,0.89,160.8,M,-34.4,M,0000,0000*5E
$GPRMC,230625.750,A,4305.2614,N,07740.5659,W,15.74,89.40,100925,,,D*7E
$GPGGA,230626.000,4305.2615,N,07740.5642,W,2,09,0.89,160.7,M,-34.4,M,0000,0000*5B
$GPRMC,230626.000,A,4305.2615,N,07740.5642,W,15.96,89.14,100925,,,D*79
$GPGGA,230626.250,4305.2616,N,07740.5625,W,2,09,0.89,160.6,M,-34.4,M,0000,0000*5F
$GPRMC,230626.250,A,4305.2616,N,07740.5625,W,16.02,88.52,100925,,,D*71
$GPGGA,230626.500,4305.2617,N,07740.5608,W,2,09,0.89,160.5,M,-34.4,M,0000,0000*50
$GPRMC,230626.500,A,4305.2617,N,07740.5608,W,16.22,88.07,100925,,,D*7F
$GPGGA,230626.750,4305.2618,N,07740.5592,W,2,09,0.89,160.5,M,-34.4,M,0000,0000*58
$GPRMC,230626.750,A,4305.2618,N,07740.5592,W,16.25,87.87,100925,,,D*77
$GPGGA,230627.000,4305.2619,N,07740.5575,W,2,09,0.89,160.4,M,-34.4,M,0000,0000*52
$GPRMC,230627.000,A,4305.2619,N,07740.5575,W,16.29,87.99,100925,,,D*7F
$GPGGA,230627.250,4305.2619,N,07740.5558,W,2,09,0.90,160.3,M,-34.4,M,0000,0000*55
$GPRMC,230627.250,A,4305.2619,N,07740.5558,W,16.33,87.90,100925,,,D*75
$GPGGA,230627.500,4305.2620,N,07740.5541,W,2,09,0.89,160.2,M,-34.4,M,0000,0000*5C
$GPRMC,230627.500,A,4305.2620,N,07740.5541,W,16.34,88.13,100925,,,D*76
$GPGGA,230627.750,4305.2620,N,07740.5525,W,2,09,0.89,160.1,M,-34.4,M,0000,0000*5A
$GPRMC,230627.750,A,4305.2620,N,07740.5525,W,16.34,88.14,100925,,,D*74
$GPGGA,230628.000,4305.2621,N,07740.5509,W,2,09,0.89,160.0,M,-34.4,M,0000,0000*59
$GPRMC,230628.000,A,4305.2621,N,07740.5509,W,15.98,89.74,100925,,,D*74
$GPGGA,230628.250,4305.2620,N,07740.5492,W,2,09,0.89,159.9,M,-34.4,M,0000,0000*5F
$GPRMC,230628.250,A,4305.2620,N,07740.5492,W,15.99,89.56,100925,,,D*70
$GPGGA,230628.500,4305.2619,N,07740.5477,W,2,09,0.89,159.9,M,-34.4,M,0000,0000*5C
$GPRMC,230628.500,A,4305.2619,N,07740.5477,W,15.99,89.24,100925,,,D*76
$GPGGA,230628.750,4305.2619,N,07740.5460,W,2,09,0.89,159.9,M,-34.4,M,0000,0000*5D
$GPRMC,230628.750,A,4305.2619,N,07740.5460,W,15.97,88.90,100925,,,D*77
$GPGGA,230629.000,4305.2619,N,07740.5443,W,2,09,0.89,159.8,M,-34.4,M,0000,0000*5E
$GPRMC,230629.000,A,4305.2619,N,07740.5443,W,15.96,88.74,100925,,,D*7E
$GPGGA,230629.250,4305.2620,N,07740.5427,W,2,09,0.89,159.8,M,-34.4,M,0000,0000*51
$GPRMC,230629.250,A,4305.2620,N,07740.5427,W,15.95,88.87,100925,,,D*7E
$GPGGA,230629.500,4305.2620,N,07740.5411,W,2,09,0.89,159.8,M,-34.4,M,0000,0000*56
$GPRMC,230629.500,A,4305.2620,N,07740.5411,W,15.92,88.65,100925,,,D*72
$GPGGA,230629.750,4305.2621,N,07740.5396,W,2,09,0.90,159.7,M,-34.4,M,0000,0000*5F
$GPRMC,230629.750,A,4305.2621,N,07740.5396,W,15.70,88.45,100925,,,D*72
$GPGGA,230630.000,4305.2622,N,07740.5380,W,2,09,0.89,159.7,M,-34.4,M,0000,0000*59
$GPRMC,230630.000,A,4305.2622,N,07740.5380,W,15.64,88.31,100925,,,D*7A
$GPGGA,230630.250,4305.2622,N,07740.5365,W,2,09,0.89,159.6,M,-34.4,M,0000,0000*54
$GPRMC,230630.250,A,4305.2622,N,07740.5365,W,15.48,88.24,100925,,,D*7C
$GPGGA,230630.500,4305.2623,N,07740.5350,W,2,09,0.89,159.6,M,-34.4,M,0000,0000*51
$GPRMC,230630.500,A,4305.2623,N,07740.5350,W,15.41,87.71,100925,,,D*7F
$GPGGA,230630.750,4305.2624,N,07740.5335,W,2,09,0.89,159.6,M,-34.4,M,0000,0000*52
$GPRMC,230630.750,A,4305.2624,N,07740.5335,W,15.13,87.11,100925,,,D*7D
$GPGGA,230631.000,4305.2625,N,07740.5319,W,2,09,0.89,159.6,M,-34.4,M,0000,0000*5E
$GPRMC,230631.000,A,4305.2625,N,07740.5319,W,15.06,86.89,100925,,,D*75
$GPGGA,230631.250,4305.2626,N,07740.5305,W,2,09,0.89,159.5,M,-34.4,M,0000,0000*54
$GPRMC,230631.250,A,4305.2626,N,07740.5305,W,14.86,87.00,100925,,,D*75
$GPGGA,230631.500,4305.2627,N,07740.5291,W,2,09,0.89,159.5,M,-34.4,M,0000,0000*5B
$GPRMC,230631.500,A,4305.2627,N,07740.5291,W,14.81,87.30,100925,,,D*7E
$GPGGA,230631.750,4305.2628,N,07740.5276,W,2,09,0.89,159.5,M,-34.4,M,0000,0000*5A
$GPRMC,230631.750,A,4305.2628,N,07740.5276,W,14.57,87.28,100925,,,D*7D
$GPGGA,230632.000,4305.2629,N,07740.5262,W,2,09,0.89,159.5,M,-34.4,M,0000,0000*5F
$GPRMC,230632.000,A,4305.2629,N,07740.5262,W,14.34,87.70,100925,,,D*70
$GPGGA,230632.250,4305.2629,N,07740.5249,W,2,09,0.89,159.5,M,-34.4,M,0000,0000*51
$GPRMC,230632.250,A,4305.2629,N,07740.5249,W,14.10,87.98,100925,,,D*7E
$GPGGA,230632.500,4305.2629,N,07740.5236,W,2,09,0.90,159.5,M,-34.4,M,0000,0000*53
$GPRMC,230632.500,A,4305.2629,N,07740.5236,W,13.95,88.02,100925,,,D*72
$GPGGA,230632.750,4305.2629,N,07740.5222,W,2,09,0.89,159.4,M,-34.4,M,0000,0000*58
$GPRMC,230632.750,A,4305.2629,N,07740.5222,W,13.87,88.14,100925,,,D*74
$GPGGA,230633.000,4305.2630,N,07740.5209,W,2,09,0.89,159.4,M,-34.4,M,0000,0000*5A
$GPRMC,230633.000,A,4305.2630,N,07740.5209,W,13.69,88.34,100925,,,D*74
$GPGGA,230633.250,4305.2630,N,07740.5196,W,2,09,0.89,159.4,M,-34.4,M,0000,0000*58
$GPRMC,230633.250,A,4305.2630,N,07740.5196,W,13.68,88.40,100925,,,D*74
$GPGGA,230633.500,4305.2630,N,07740.5182,W,2,09,0.90,159.3,M,-34.4,M,0000,0000*50
$GPRMC,230633.500,A,4305.2630,N,07740.5182,W,13.74,88.59,100925,,,D*76
$GPGGA,230633.750,4305.2630,N,07740.5168,W,2,09,0.89,159.3,M,-34.4,M,0000,0000*5B
$GPRMC,230633.750,A,4305.2630,N,07740.5168,W,14.04,89.11,100925,,,D*78
$GPGGA,230634.000,4305.2630,N,07740.5153,W,2,09,0.89,159.3,M,-34.4,M,0000,0000*56
$GPRMC,230634.000,A,4305.2630,N,07740.5153,W,14.24,89.71,100925,,,D*71
$GPGGA,230634.250,4305.2629,N,07740.5140,W,2,09,0.90,159.4,M,-34.4,M,0000,0000*54
$GPRMC,230634.250,A,4305.2629,N,07740.5140,W,14.29,89.97,100925,,,D*79
$GPGGA,230634.500,4305.2629,N,07740.5126,W,2,09,0.89,159.4,M,-34.4,M,0000,0000*5E
$GPRMC,230634.500,A,4305.2629,N,07740.5126,W,14.48,89.72,100925,,,D*77
$GPGGA,230634.750,4305.2629,N,07740.5111,W,2,09,0.89,159.4,M,-34.4,M,0000,0000*5D
$GPRMC,230634.750,A,4305.2629,N,07740.5111,W,14.67,89.62,100925,,,D*78
$GPGGA,230635.000,4305.2629,N,07740.5096,W,2,09,0.89,159.4,M,-34.4,M,0000,0000*50
$GPRMC,230635.000,A,4305.2629,N,07740.5096,W,14.73,89.69,100925,,,D*7B
$GPGGA,230635.250,4305.2629,N,07740.5083,W,2,09,0.89,159.4,M,-34.4,M,0000,0000*53
$GPRMC,230635.250,A,4305.2629,N,07740.5083,W,14.75,89.46,100925,,,D*73
$GPGGA,230635.500,4305.2629,N,07740.5069,W,2,09,0.89,159.3,M,-34.4,M,0000,0000*52
$GPRMC,230635.500,A,4305.2629,N,07740.5069,W,14.76,89.43,100925,,,D*73
$GPGGA,230635.750,4305.2629,N,07740.5055,W,2,09,0.89,159.3,M,-34.4,M,0000,0000*5A
$GPRMC,230635.750,A,4305.2629,N,07740.5055,W,14.75,88.98,100925,,,D*7F
$GPGGA,230636.000,4305.2628,N,07740.5041,W,2,09,0.89,159.3,M,-34.4,M,0000,0000*5F
$GPRMC,230636.000,A,4305.2628,N,07740.5041,W,14.72,88.55,100925,,,D*7C
$GPGGA,230636.250,4305.2627,N,07740.5026,W,2,09,0.89,159.3,M,-34.4,M,0000,0000*56
$GPRMC,230636.250,A,4305.2627,N,07740.5026,W,14.71,88.46,100925,,,D*74
$GPGGA,230636.500,4305.2625,N,07740.5009,W,2,09,0.90,159.3,M,-34.4,M,0000,0000*53
$GPRMC,230636.500,A,4305.2625,N,07740.5009,W,14.69,88.47,100925,,,D*71
$GPGGA,230636.750,4305.2625,N,07740.4993,W,2,09,0.89,159.4,M,-34.4,M,0000,0000*50
$GPRMC,230636.750,A,4305.2625,N,07740.4993,W,14.68,88.38,100925,,,D*74
$GPGGA,230637.000,4305.2625,N,07740.4977,W,2,09,0.89,159.5,M,-34.4,M,0000,0000*58
$GPRMC,230637.000,A,4305.2625,N,07740.4977,W,14.69,88.16,100925,,,D*70
$GPGGA,230637.250,4305.2624,N,07740.4960,W,2,09,0.90,159.5,M,-34.4,M,0000,0000*50
$GPRMC,230637.250,A,4305.2624,N,07740.4960,W,14.72,88.31,100925,,,D*7F
$GPGGA,230637.500,4305.2622,N,07740.4943,W,2,09,0.89,159.6,M,-34.4,M,0000,0000*5E
$GPRMC,230637.500,A,4305.2622,N,07740.4943,W,14.76,88.76,100925,,,D*7D
$GPGGA,230637.750,4305.2622,N,07740.4928,W,2,09,0.89,159.6,M,-34.4,M,0000,0000*54
$GPRMC,230637.750,A,4305.2622,N,07740.4928,W,14.79,88.87,100925,,,D*76
$GPGGA,230638.000,4305.2621,N,07740.4913,W,2,09,0.90,159.6,M,-34.4,M,0000,0000*5A
$GPRMC,230638.000,A,4305.2621,N,07740.4913,W,14.55,89.01,100925,,,D*71
$GPGGA,230638.250,4305.2621,N,07740.4898,W,2,09,0.89,159.6,M,-34.4,M,0000,0000*57
$GPRMC,230638.250,A,4305.2621,N,07740.4898,W,14.49,89.21,100925,,,D*7B
$GPGGA,230638.500,4305.2619,N,07740.4883,W,2,09,0.89,159.7,M,-34.4,M,0000,0000*55
$GPRMC,230638.500,A,4305.2619,N,07740.4883,W,14.07,90.00,100925,,,D*79
$GPGGA,230638.750,4305.2617,N,07740.4869,W,2,09,0.89,159.8,M,-34.4,M,0000,0000*57
$GPRMC,230638.750,A,4305.2617,N,07740.4869,W,13.86,91.34,100925,,,D*7C
$GPGGA,230639.000,4305.2613,N,07740.4856,W,2,09,0.89,159.7,M,-34.4,M,0000,0000*53
$GPRMC,230639.000,A,4305.2613,N,07740.4856,W,13.79,95.98,100925,,,D*75
$GPGGA,230639.250,4305.2605,N,07740.4842,W,2,09,0.89,159.9,M,-34.4,M,0000,0000*58
$GPRMC,230639.250,A,4305.2605,N,07740.4842,W,13.79,99.88,100925,,,D*7D
$GPGGA,230639.500,4305.2598,N,07740.4828,W,2,09,0.90,160.1,M,-34.4,M,0000,0000*5B
$GPRMC,230639.500,A,4305.2598,N,07740.4828,W,13.81,104.47,100925,,,D*45
$GPGGA,230639.750,4305.2591,N,07740.4817,W,2,09,0.90,160.4,M,-34.4,M,0000,0000*5C
$GPRMC,230639.750,A,4305.2591,N,07740.4817,W,13.74,109.14,100925,,,D*46
$GPGGA,230640.000,4305.2586,N,07740.4806,W,2,09,0.89,160.5,M,-34.4,M,0000,0000*5F
$GPRMC,230640.000,A,4305.2586,N,07740.4806,W,13.67,112.23,100925,,,D*40
$GPGGA,230640.250,4305.2580,N,07740.4796,W,2,09,0.89,160.7,M,-34.4,M,0000,0000*5A
$GPRMC,230640.250,A,4305.2580,N,07740.4796,W,13.64,114.48,100925,,,D*4F
$GPGGA,230640.500,4305.2575,N,07740.4785,W,2,09,0.89,160.9,M,-34.4,M,0000,0000*5E
$GPRMC,230640.500,A,4305.2575,N,07740.4785,W,13.59,117.24,100925,,,D*42
$GPGGA,230640.750,4305.2570,N,07740.4775,W,2,09,0.89,161.2,M,-34.4,M,0000,0000*59
$GPRMC,230640.750,A,4305.2570,N,07740.4775,W,13.59,119.07,100925,,,D*40
$GPGGA,230641.000,4305.2565,N,07740.4764,W,2,09,0.89,161.4,M,-34.4,M,0000,0000*58
$GPRMC,230641.000,A,4305.2565,N,07740.4764,W,13.78,120.03,100925,,,D*4A
$GPGGA,230641.250,4305.2560,N,07740.4753,W,2,09,0.89,161.5,M,-34.4,M,0000,0000*5F
$GPRMC,230641.250,A,4305.2560,N,07740.4753,W,13.80,120.12,100925,,,D*4B
$GPGGA,230641.500,4305.2554,N,07740.4741,W,2,09,0.90,161.6,M,-34.4,M,0000,0000*52
$GPRMC,230641.500,A,4305.2554,N,07740.4741,W,13.82,119.60,100925,,,D*40
$GPGGA,230641.750,4305.2550,N,07740.4729,W,2,09,0.89,161.6,M,-34.4,M,0000,0000*57
$GPRMC,230641.750,A,4305.2550,N,07740.4729,W,14.01,117.30,100925,,,D*4A
$GPGGA,230642.000,4305.2546,N,07740.4716,W,2,09,0.90,161.7,M,-34.4,M,0000,0000*54
$GPRMC,230642.000,A,4305.2546,N,07740.4716,W,14.07,114.27,100925,,,D*43
$GPGGA,230642.250,4305.2542,N,07740.4703,W,2,09,0.89,161.9,M,-34.4,M,0000,0000*55
$GPRMC,230642.250,A,4305.2542,N,07740.4703,W,14.38,112.35,100925,,,D*4D
$GPGGA,230642.500,4305.2539,N,07740.4689,W,2,09,0.89,162.1,M,-34.4,M,0000,0000*53
$GPRMC,230642.500,A,4305.2539,N,07740.4689,W,14.62,108.54,100925,,,D*43
$GPGGA,230642.750,4305.2537,N,07740.4675,W,2,09,0.89,162.1,M,-34.4,M,0000,0000*59
$GPRMC,230642.750,A,4305.2537,N,07740.4675,W,14.70,106.62,100925,,,D*41
$GPGGA,230643.000,4305.2535,N,07740.4662,W,2,09,0.90,162.2,M,-34.4,M,0000,0000*55
$GPRMC,230643.000,A,4305.2535,N,07740.4662,W,14.65,105.25,100925,,,D*42
$GPGGA,230643.250,4305.2534,N,07740.4649,W,2,09,0.89,162.2,M,-34.4,M,0000,0000*52
$GPRMC,230643.250,A,4305.2534,N,07740.4649,W,14.46,103.69,100925,,,D*42
$GPGGA,230643.500,4305.2533,N,07740.4636,W,2,09,0.89,162.2,M,-34.4,M,0000,0000*5F
$GPRMC,230643.500,A,4305.2533,N,07740.4636,W,14.45,101.36,100925,,,D*44
$GPGGA,230643.750,4305.2532,N,07740.4624,W,2,09,0.89,162.2,M,-34.4,M,0000,0000*5A
$GPRMC,230643.750,A,4305.2532,N,07740.4624,W,14.39,98.68,100925,,,D*70
$GPGGA,230644.000,4305.2533,N,07740.4612,W,2,09,0.90,162.3,M,-34.4,M,0000,0000*52
$GPRMC,230644.000,A,4305.2533,N,07740.4612,W,14.34,95.24,100925,,,D*79
$GPGGA,230644.250,4305.2534,N,07740.4600,W,2,09,0.90,162.3,M,-34.4,M,0000,0000*51
$GPRMC,230644.250,A,4305.2534,N,07740.4600,W,14.15,92.90,100925,,,D*71
$GPGGA,230644.500,4305.2536,N,07740.4586,W,2,09,0.89,162.3,M,-34.4,M,0000,0000*54
$GPRMC,230644.500,A,4305.2536,N,07740.4586,W,14.15,90.39,100925,,,D*7D
$GPGGA,230644.750,4305.2539,N,07740.4570,W,2,09,0.89,162.4,M,-34.4,M,0000,0000*52
$GPRMC,230644.750,A,4305.2539,N,07740.4570,W,14.17,87.49,100925,,,D*7F
$GPGGA,230645.000,4305.2542,N,07740.4559,W,2,09,0.90,162.4,M,-34.4,M,0000,0000*5E
$GPRMC,230645.000,A,4305.2542,N,07740.4559,W,13.74,84.40,100925,,,D*73
$GPGGA,230645.250,4305.2546,N,07740.4549,W,2,09,0.90,162.5,M,-34.4,M,0000,0000*5D
$GPRMC,230645.250,A,4305.2546,N,07740.4549,W,13.11,80.24,100925,,,D*74
$GPGGA,230645.500,4305.2551,N,07740.4539,W,2,09,0.89,162.6,M,-34.4,M,0000,0000*55
$GPRMC,230645.500,A,4305.2551,N,07740.4539,W,12.69,76.40,100925,,,D*72
$GPGGA,230645.750,4305.2556,N,07740.4529,W,2,09,0.89,162.6,M,-34.4,M,0000,0000*54
$GPRMC,230645.750,A,4305.2556,N,07740.4529,W,12.35,72.65,100925,,,D*79
$GPGGA,230646.000,4305.2562,N,07740.4520,W,2,09,0.89,162.5,M,-34.4,M,0000,0000*58
$GPRMC,230646.000,A,4305.2562,N,07740.4520,W,12.33,68.19,100925,,,D*70
$GPGGA,230646.250,4305.2567,N,07740.4510,W,2,09,0.89,162.5,M,-34.4,M,0000,0000*59
$GPRMC,230646.250,A,4305.2567,N,07740.4510,W,12.36,66.67,100925,,,D*73
$GPGGA,230646.500,4305.2573,N,07740.4498,W,2,09,0.89,162.6,M,-34.4,M,0000,0000*5C
$GPRMC,230646.500,A,4305.2573,N,07740.4498,W,12.42,64.80,100925,,,D*7D
$GPGGA,230646.750,4305.2579,N,07740.4487,W,2,09,0.90,162.6,M,-34.4,M,0000,0000*57
$GPRMC,230646.750,A,4305.2579,N,07740.4487,W,12.61,64.48,100925,,,D*7B
$GPGGA,230647.000,4305.2583,N,07740.4476,W,2,09,0.89,162.7,M,-34.4,M,0000,0000*56
$GPRMC,230647.000,A,4305.2583,N,07740.4476,W,12.66,65.67,100925,,,D*78
$GPGGA,230647.250,4305.2588,N,07740.4465,W,2,09,0.90,162.7,M,-34.4,M,0000,0000*50
$GPRMC,230647.250,A,4305.2588,N,07740.4465,W,12.83,66.27,100925,,,D*7A
$GPGGA,230647.500,4305.2593,N,07740.4453,W,2,09,0.89,162.8,M,-34.4,M,0000,0000*5A
$GPRMC,230647.500,A,4305.2593,N,07740.4453,W,12.84,67.06,100925,,,D*72
$GPGGA,230647.750,4305.2597,N,07740.4440,W,2,09,0.89,162.8,M,-34.4,M,0000,0000*5B
$GPRMC,230647.750,A,4305.2597,N,07740.4440,W,13.08,68.98,100925,,,D*7E
$GPGGA,230648.000,4305.2601,N,07740.4428,W,2,09,0.90,162.9,M,-34.4,M,0000,0000*5D
$GPRMC,230648.000,A,4305.2601,N,07740.4428,W,13.08,70.32,100925,,,D*78
$GPGGA,230648.250,4305.2604,N,07740.4416,W,2,09,0.89,162.9,M,-34.4,M,0000,0000*5A
$GPRMC,230648.250,A,4305.2604,N,07740.4416,W,13.10,71.41,100925,,,D*7B
$GPGGA,230648.500,4305.2606,N,07740.4403,W,2,09,0.89,163.0,M,-34.4,M,0000,0000*56
$GPRMC,230648.500,A,4305.2606,N,07740.4403,W,13.12,72.55,100925,,,D*7B
$GPGGA,230648.750,4305.2609,N,07740.4392,W,2,09,0.89,163.1,M,-34.4,M,0000,0000*50
$GPRMC,230648.750,A,4305.2609,N,07740.4392,W,13.16,73.26,100925,,,D*7D
$GPGGA,230649.000,4305.2610,N,07740.4379,W,2,09,0.90,163.1,M,-34.4,M,0000,0000*56
$GPRMC,230649.000,A,4305.2610,N,07740.4379,W,13.22,75.65,100925,,,D*75
$GPGGA,230649.250,4305.2610,N,07740.4366,W,2,09,0.89,163.1,M,-34.4,M,0000,0000*57
$GPRMC,230649.250,A,4305.2610,N,07740.4366,W,13.51,79.52,100925,,,D*70
$GPGGA,230649.500,4305.2612,N,07740.4353,W,2,09,0.89,163.2,M,-34.4,M,0000,0000*52
$GPRMC,230649.500,A,4305.2612,N,07740.4353,W,13.56,81.58,100925,,,D*7C
$GPGGA,230649.750,4305.2613,N,07740.4339,W,2,09,0.89,163.3,M,-34.4,M,0000,0000*59
$GPRMC,230649.750,A,4305.2613,N,07740.4339,W,13.73,83.49,100925,,,D*73
$GPGGA,230650.000,4305.2615,N,07740.4326,W,2,09,0.90,163.4,M,-34.4,M,0000,0000*54
$GPRMC,230650.000,A,4305.2615,N,07740.4326,W,13.75,84.73,100925,,,D*79
$GPGGA,230650.250,4305.2616,N,07740.4313,W,2,09,0.90,163.5,M,-34.4,M,0000,0000*57
$GPRMC,230650.250,A,4305.2616,N,07740.4313,W,13.78,85.24,100925,,,D*75
$GPGGA,230650.500,4305.2617,N,07740.4299,W,2,09,0.89,163.6,M,-34.4,M,0000,0000*5C
$GPRMC,230650.500,A,4305.2617,N,07740.4299,W,13.82,85.41,100925,,,D*73
$GPGGA,230650.750,4305.2617,N,07740.4286,W,2,09,0.89,163.7,M,-34.4,M,0000,0000*54
$GPRMC,230650.750,A,4305.2617,N,07740.4286,W,13.87,86.69,100925,,,D*76
$GPGGA,230651.000,4305.2618,N,07740.4272,W,2,09,0.90,163.7,M,-34.4,M,0000,0000*5B
$GPRMC,230651.000,A,4305.2618,N,07740.4272,W,14.12,87.83,100925,,,D*7F
$GPGGA,230651.250,4305.2618,N,07740.4257,W,2,09,0.90,163.8,M,-34.4,M,0000,0000*54
$GPRMC,230651.250,A,4305.2618,N,07740.4257,W,14.19,88.18,100925,,,D*79
$GPGGA,230651.500,4305.2620,N,07740.4243,W,2,09,0.90,163.8,M,-34.4,M,0000,0000*58
$GPRMC,230651.500,A,4305.2620,N,07740.4243,W,14.24,88.73,100925,,,D*76
$GPGGA,230651.750,4305.2621,N,07740.4229,W,2,09,0.90,163.8,M,-34.4,M,0000,0000*52
$GPRMC,230651.750,A,4305.2621,N,07740.4229,W,14.31,88.59,100925,,,D*70
$GPGGA,230652.000,4305.2623,N,07740.4215,W,2,09,0.90,163.8,M,-34.4,M,0000,0000*5E
$GPRMC,230652.000,A,4305.2623,N,07740.4215,W,14.32,88.76,100925,,,D*72
$GPGGA,230652.250,4305.2624,N,07740.4201,W,2,09,0.90,163.8,M,-34.4,M,0000,0000*5B
$GPRMC,230652.250,A,4305.2624,N,07740.4201,W,14.39,89.16,100925,,,D*7B
$GPGGA,230652.500,4305.2625,N,07740.4187,W,2,09,0.89,163.9,M,-34.4,M,0000,0000*5C
$GPRMC,230652.500,A,4305.2625,N,07740.4187,W,14.45,89.75,100925,,,D*7B
$GPGGA,230652.750,4305.2627,N,07740.4172,W,2,09,0.89,163.9,M,-34.4,M,0000,0000*53
$GPRMC,230652.750,A,4305.2627,N,07740.4172,W,14.72,90.04,100925,,,D*7E
$GPGGA,230653.000,4305.2628,N,07740.4157,W,2,09,0.90,163.9,M,-34.4,M,0000,0000*50
$GPRMC,230653.000,A,4305.2628,N,07740.4157,W,14.79,89.70,100925,,,D*75
$GPGGA,230653.250,4305.2629,N,07740.4142,W,2,09,0.90,164.0,M,-34.4,M,0000,0000*5C
$GPRMC,230653.250,A,4305.2629,N,07740.4142,W,15.00,89.54,100925,,,D*7E
$GPGGA,230653.500,4305.2630,N,07740.4127,W,2,09,0.90,164.0,M,-34.4,M,0000,0000*55
$GPRMC,230653.500,A,4305.2630,N,07740.4127,W,15.06,89.72,100925,,,D*75
$GPGGA,230653.750,4305.2631,N,07740.4113,W,2,09,0.89,164.1,M,-34.4,M,0000,0000*5D
$GPRMC,230653.750,A,4305.2631,N,07740.4113,W,15.13,89.97,100925,,,D*7B
$GPGGA,230654.000,4305.2631,N,07740.4099,W,2,09,0.89,164.1,M,-34.4,M,0000,0000*5B
$GPRMC,230654.000,A,4305.2631,N,07740.4099,W,15.30,90.04,100925,,,D*7E
$GPGGA,230654.250,4305.2632,N,07740.4084,W,2,09,0.90,164.1,M,-34.4,M,0000,0000*5B
$GPRMC,230654.250,A,4305.2632,N,07740.4084,W,15.34,90.01,100925,,,D*77
$GPGGA,230654.500,4305.2633,N,07740.4069,W,2,09,0.90,164.1,M,-34.4,M,0000,0000*5B
$GPRMC,230654.500,A,4305.2633,N,07740.4069,W,15.40,89.57,100925,,,D*7F
$GPGGA,230654.750,4305.2634,N,07740.4054,W,2,09,0.89,164.1,M,-34.4,M,0000,0000*5D
$GPRMC,230654.750,A,4305.2634,N,07740.4054,W,15.46,89.24,100925,,,D*73
$GPGGA,230655.000,4305.2635,N,07740.4038,W,2,09,0.90,164.1,M,-34.4,M,0000,0000*5D
$GPRMC,230655.000,A,4305.2635,N,07740.4038,W,15.65,88.82,100925,,,D*77
$GPGGA,230655.250,4305.2636,N,07740.4022,W,2,09,0.90,164.1,M,-34.4,M,0000,0000*52
$GPRMC,230655.250,A,4305.2636,N,07740.4022,W,15.65,88.70,100925,,,D*75
$GPGGA,230655.500,4305.2636,N,07740.4007,W,2,09,0.90,164.2,M,-34.4,M,0000,0000*54
$GPRMC,230655.500,A,4305.2636,N,07740.4007,W,15.66,88.80,100925,,,D*7C
$GPGGA,230655.750,4305.2637,N,07740.3991,W,2,09,0.90,164.2,M,-34.4,M,0000,0000*53
$GPRMC,230655.750,A,4305.2637,N,07740.3991,W,15.70,89.07,100925,,,D*72
$GPGGA,230656.000,4305.2638,N,07740.3975,W,2,09,0.90,164.2,M,-34.4,M,0000,0000*57
$GPRMC,230656.000,A,4305.2638,N,07740.3975,W,15.89,88.89,100925,,,D*77
$GPGGA,230656.250,4305.2638,N,07740.3959,W,2,09,0.90,164.2,M,-34.4,M,0000,0000*5E
$GPRMC,230656.250,A,4305.2638,N,07740.3959,W,15.96,88.74,100925,,,D*72
$GPGGA,230656.500,4305.2638,N,07740.3944,W,2,09,0.89,164.2,M,-34.4,M,0000,0000*58
$GPRMC,230656.500,A,4305.2638,N,07740.3944,W,16.16,88.81,100925,,,D*7D
$GPGGA,230656.750,4305.2639,N,07740.3928,W,2,09,0.90,164.2,M,-34.4,M,0000,0000*5C
$GPRMC,230656.750,A,4305.2639,N,07740.3928,W,16.23,88.87,100925,,,D*71
$GPGGA,230657.000,4305.2639,N,07740.3912,W,2,09,0.89,164.2,M,-34.4,M,0000,0000*5E
$GPRMC,230657.000,A,4305.2639,N,07740.3912,W,16.41,89.13,100925,,,D*73
$GPGGA,230657.250,4305.2639,N,07740.3896,W,2,09,0.90,164.2,M,-34.4,M,0000,0000*5C
$GPRMC,230657.250,A,4305.2639,N,07740.3896,W,16.49,89.57,100925,,,D*71
$GPGGA,230657.500,4305.2640,N,07740.3880,W,2,09,0.90,164.1,M,-34.4,M,0000,0000*54
$GPRMC,230657.500,A,4305.2640,N,07740.3880,W,16.74,89.86,100925,,,D*78
$GPGGA,230657.750,4305.2640,N,07740.3863,W,2,09,0.90,164.0,M,-34.4,M,0000,0000*5F
$GPRMC,230657.750,A,4305.2640,N,07740.3863,W,16.98,89.82,100925,,,D*74
$GPGGA,230658.000,4305.2640,N,07740.3847,W,2,09,0.90,164.0,M,-34.4,M,0000,0000*54
$GPRMC,230658.000,A,4305.2640,N,07740.3847,W,17.15,89.73,100925,,,D*75
$GPGGA,230658.250,4305.2640,N,07740.3830,W,2,09,0.90,163.9,M,-34.4,M,0000,0000*5D
$GPRMC,230658.250,A,4305.2640,N,07740.3830,W,17.20,89.44,100925,,,D*70
$GPGGA,230658.500,4305.2641,N,07740.3814,W,2,09,0.90,163.9,M,-34.4,M,0000,0000*58
$GPRMC,230658.500,A,4305.2641,N,07740.3814,W,17.26,89.16,100925,,,D*74
$GPGGA,230658.750,4305.2641,N,07740.3797,W,2,09,0.90,163.9,M,-34.4,M,0000,0000*5B
$GPRMC,230658.750,A,4305.2641,N,07740.3797,W,17.46,88.94,100925,,,D*7A
$GPGGA,230659.000,4305.2641,N,07740.3781,W,2,09,0.89,163.9,M,-34.4,M,0000,0000*57
$GPRMC,230659.000,A,4305.2641,N,07740.3781,W,17.50,88.75,100925,,,D*76
$GPGGA,230659.250,4305.2642,N,07740.3764,W,2,09,0.90,164.0,M,-34.4,M,0000,0000*5E
$GPRMC,230659.250,A,4305.2642,N,07740.3764,W,17.56,88.41,100925,,,D*78
$GPGGA,230659.500,4305.2643,N,07740.3748,W,2,09,0.90,164.0,M,-34.4,M,0000,0000*53
$GPRMC,230659.500,A,4305.2643,N,07740.3748,W,17.73,88.08,100925,,,D*7F
$GPGGA,230659.750,4305.2644,N,07740.3729,W,2,09,0.90,164.1,M,-34.4,M,0000,0000*55
$GPRMC,230659.750,A,4305.2644,N,07740.3729,W,17.77,87.63,100925,,,D*7E
$GPGGA,230700.000,4305.2645,N,07740.3710,W,2,09,0.90,164.3,M,-34.4,M,0000,0000*53
$GPRMC,230700.000,A,4305.2645,N,07740.3710,W,17.84,87.29,100925,,,D*78
$GPGGA,230700.250,4305.2646,N,07740.3691,W,2,09,0.90,164.4,M,-34.4,M,0000,0000*58
$GPRMC,230700.250,A,4305.2646,N,07740.3691,W,17.92,86.92,100925,,,D*72
$GPGGA,230700.500,4305.2646,N,07740.3672,W,2,09,0.90,164.4,M,-34.4,M,0000,0000*57
$GPRMC,230700.500,A,4305.2646,N,07740.3672,W,18.08,86.73,100925,,,D*7E
$GPGGA,230700.750,4305.2647,N,07740.3654,W,2,09,0.90,164.5,M,-34.4,M,0000,0000*54
$GPRMC,230700.750,A,4305.2647,N,07740.3654,W,18.11,86.48,100925,,,D*7C
$GPGGA,230701.000,4305.2647,N,07740.3636,W,2,09,0.89,164.6,M,-34.4,M,0000,0000*58
$GPRMC,230701.000,A,4305.2647,N,07740.3636,W,18.15,86.60,100925,,,D*75
$GPGGA,230701.250,4305.2648,N,07740.3617,W,2,09,0.90,164.6,M,-34.4,M,0000,0000*5B
$GPRMC,230701.250,A,4305.2648,N,07740.3617,W,18.22,86.66,100925,,,D*7C
$GPGGA,230701.500,4305.2649,N,07740.3599,W,2,09,0.89,164.7,M,-34.4,M,0000,0000*54
$GPRMC,230701.500,A,4305.2649,N,07740.3599,W,18.43,86.48,100925,,,D*71
$GPGGA,230701.750,4305.2650,N,07740.3580,W,2,09,0.90,164.7,M,-34.4,M,0000,0000*5B
$GPRMC,230701.750,A,4305.2650,N,07740.3580,W,18.50,86.19,100925,,,D*70
$GPGGA,230702.000,4305.2650,N,07740.3561,W,2,09,0.90,164.7,M,-34.4,M,0000,0000*55
$GPRMC,230702.000,A,4305.2650,N,07740.3561,W,18.79,86.21,100925,,,D*7E
$GPGGA,230702.250,4305.2651,N,07740.3542,W,2,09,0.89,164.8,M,-34.4,M,0000,0000*55
$GPRMC,230702.250,A,4305.2651,N,07740.3542,W,18.96,86.09,100925,,,D*72
$GPGGA,230702.500,4305.2652,N,07740.3522,W,2,09,0.90,164.8,M,-34.4,M,0000,0000*5A
$GPRMC,230702.500,A,4305.2652,N,07740.3522,W,19.18,85.88,100925,,,D*78
$GPGGA,230702.750,4305.2653,N,07740.3503,W,2,09,0.90,164.8,M,-34.4,M,0000,0000*5F
$GPRMC,230702.750,A,4305.2653,N,07740.3503,W,19.41,85.75,100925,,,D*73
$GPGGA,230703.000,4305.2654,N,07740.3484,W,2,09,0.90,164.8,M,-34.4,M,0000,0000*55
$GPRMC,230703.000,A,4305.2654,N,07740.3484,W,19.58,85.46,100925,,,D*71
$GPGGA,230703.250,4305.2655,N,07740.3465,W,2,09,0.90,164.8,M,-34.4,M,0000,0000*5C
$GPRMC,230703.250,A,4305.2655,N,07740.3465,W,19.64,85.32,100925,,,D*74
$GPGGA,230703.500,4305.2656,N,07740.3445,W,2,09,0.90,164.9,M,-34.4,M,0000,0000*5E
$GPRMC,230703.500,A,4305.2656,N,07740.3445,W,19.84,84.95,100925,,,D*75
$GPGGA,230703.750,4305.2657,N,07740.3425,W,2,09,0.90,164.9,M,-34.4,M,0000,0000*5E
$GPRMC,230703.750,A,4305.2657,N,07740.3425,W,19.89,84.59,100925,,,D*78
$GPGGA,230704.000,4305.2658,N,07740.3405,W,2,09,0.90,165.0,M,-34.4,M,0000,0000*5E
$GPRMC,230704.000,A,4305.2658,N,07740.3405,W,19.96,84.49,100925,,,D*7F
$GPGGA,230704.250,4305.2659,N,07740.3385,W,2,09,0.90,165.1,M,-34.4,M,0000,0000*56
$GPRMC,230704.250,A,4305.2659,N,07740.3385,W,20.12,84.67,100925,,,D*7C
$GPGGA,230704.500,4305.2660,N,07740.3365,W,2,09,0.90,165.2,M,-34.4,M,0000,0000*53
$GPRMC,230704.500,A,4305.2660,N,07740.3365,W,20.14,84.47,100925,,,D*7E
$GPGGA,230704.750,4305.2662,N,07740.3345,W,2,09,0.90,165.3,M,-34.4,M,0000,0000*55
$GPRMC,230704.750,A,4305.2662,N,07740.3345,W,20.14,83.86,100925,,,D*73
$GPGGA,230705.000,4305.2663,N,07740.3326,W,2,09,0.90,165.4,M,-34.4,M,0000,0000*55
$GPRMC,230705.000,A,4305.2663,N,07740.3326,W,20.15,83.61,100925,,,D*7C
$GPGGA,230705.250,4305.2665,N,07740.3307,W,2,09,0.90,165.5,M,-34.4,M,0000,0000*56
$GPRMC,230705.250,A,4305.2665,N,07740.3307,W,20.19,83.33,100925,,,D*75
$GPGGA,230705.500,4305.2667,N,07740.3288,W,2,09,0.90,165.6,M,-34.4,M,0000,0000*53
$GPRMC,230705.500,A,4305.2667,N,07740.3288,W,20.38,82.88,100925,,,D*71
$GPGGA,230705.750,4305.2669,N,07740.3269,W,2,09,0.90,165.7,M,-34.4,M,0000,0000*54
$GPRMC,230705.750,A,4305.2669,N,07740.3269,W,20.54,82.53,100925,,,D*7B
$GPGGA,230706.000,4305.2670,N,07740.3251,W,2,09,0.90,165.8,M,-34.4,M,0000,0000*59
$GPRMC,230706.000,A,4305.2670,N,07740.3251,W,20.56,82.31,100925,,,D*7F
$GPGGA,230706.250,4305.2672,N,07740.3233,W,2,09,0.90,166.0,M,-34.4,M,0000,0000*53
$GPRMC,230706.250,A,4305.2672,N,07740.3233,W,20.60,82.04,100925,,,D*7D
$GPGGA,230706.500,4305.2674,N,07740.3214,W,2,09,0.90,166.1,M,-34.4,M,0000,0000*53
$GPRMC,230706.500,A,4305.2674,N,07740.3214,W,20.67,81.83,100925,,,D*77
$GPGGA,230706.750,4305.2676,N,07740.3195,W,2,09,0.90,166.1,M,-34.4,M,0000,0000*5C
$GPRMC,230706.750,A,4305.2676,N,07740.3195,W,20.87,81.40,100925,,,D*79
$GPGGA,230707.000,4305.2678,N,07740.3177,W,2,09,0.90,166.3,M,-34.4,M,0000,0000*5F
$GPRMC,230707.000,A,4305.2678,N,07740.3177,W,20.93,80.98,100925,,,D*79
$GPGGA,230707.250,4305.2680,N,07740.3158,W,2,09,0.90,166.4,M,-34.4,M,0000,0000*55
$GPRMC,230707.250,A,4305.2680,N,07740.3158,W,21.01,80.67,100925,,,D*7E
$GPGGA,230707.500,4305.2683,N,07740.3139,W,2,09,0.90,166.4,M,-34.4,M,0000,0000*53
$GPRMC,230707.500,A,4305.2683,N,07740.3139,W,21.07,80.36,100925,,,D*7A
$GPGGA,230707.750,4305.2685,N,07740.3120,W,2,09,0.90,166.5,M,-34.4,M,0000,0000*5B
$GPRMC,230707.750,A,4305.2685,N,07740.3120,W,21.08,79.65,100925,,,D*7C
$GPGGA,230708.000,4305.2688,N,07740.3101,W,2,09,0.89,166.6,M,-34.4,M,0000,0000*53
$GPRMC,230708.000,A,4305.2688,N,07740.3101,W,21.14,78.94,100925,,,D*7D
$GPGGA,230708.250,4305.2691,N,07740.3081,W,2,09,0.90,166.7,M,-34.4,M,0000,0000*5C
$GPRMC,230708.250,A,4305.2691,N,07740.3081,W,21.19,78.29,100925,,,D*70
$GPGGA,230708.500,4305.2694,N,07740.3061,W,2,09,0.90,166.9,M,-34.4,M,0000,0000*5B
$GPRMC,230708.500,A,4305.2694,N,07740.3061,W,21.24,77.62,100925,,,D*77
$GPGGA,230708.750,4305.2697,N,07740.3041,W,2,09,0.90,167.0,M,-34.4,M,0000,0000*55
$GPRMC,230708.750,A,4305.2697,N,07740.3041,W,21.44,77.46,100925,,,D*71
$GPGGA,230709.000,4305.2700,N,07740.3021,W,2,09,0.90,167.1,M,-34.4,M,0000,0000*5E
$GPRMC,230709.000,A,4305.2700,N,07740.3021,W,21.60,77.26,100925,,,D*7B
$GPGGA,230709.250,4305.2704,N,07740.3001,W,2,09,0.90,167.2,M,-34.4,M,0000,0000*5C
$GPRMC,230709.250,A,4305.2704,N,07740.3001,W,21.59,77.01,100925,,,D*75
$GPGGA,230709.500,4305.2707,N,07740.2982,W,2,09,0.90,167.3,M,-34.4,M,0000,0000*5F
$GPRMC,230709.500,A,4305.2707,N,07740.2982,W,21.56,76.73,100925,,,D*7C
$GPGGA,230709.750,4305.2710,N,07740.2962,W,2,09,0.90,167.3,M,-34.4,M,0000,0000*50
$GPRMC,230709.750,A,4305.2710,N,07740.2962,W,21.55,76.75,100925,,,D*76
$GPGGA,230710.000,4305.2714,N,07740.2942,W,2,09,0.90,167.4,M,-34.4,M,0000,0000*5B
$GPRMC,230710.000,A,4305.2714,N,07740.2942,W,21.72,76.41,100925,,,D*78
$GPGGA,230710.250,4305.2718,N,07740.2922,W,2,09,0.90,167.3,M,-34.4,M,0000,0000*51
$GPRMC,230710.250,A,4305.2718,N,07740.2922,W,21.91,75.90,100925,,,D*77
$GPGGA,230710.500,4305.2723,N,07740.2901,W,2,09,0.90,167.3,M,-34.4,M,0000,0000*5A
$GPRMC,230710.500,A,4305.2723,N,07740.2901,W,22.22,74.74,100925,,,D*7C
$GPGGA,230710.750,4305.2727,N,07740.2881,W,2,09,0.90,167.2,M,-34.4,M,0000,0000*51
$GPRMC,230710.750,A,4305.2727,N,07740.2881,W,22.42,74.06,100925,,,D*75
$GPGGA,230711.000,4305.2732,N,07740.2861,W,2,09,0.90,167.2,M,-34.4,M,0000,0000*58
$GPRMC,230711.000,A,4305.2732,N,07740.2861,W,22.43,73.52,100925,,,D*7B
$GPGGA,230711.250,4305.2737,N,07740.2842,W,2,09,0.90,167.1,M,-34.4,M,0000,0000*58
$GPRMC,230711.250,A,4305.2737,N,07740.2842,W,22.36,72.56,100925,,,D*7F
$GPGGA,230711.500,4305.2742,N,07740.2822,W,2,09,0.90,167.0,M,-34.4,M,0000,0000*5F
$GPRMC,230711.500,A,4305.2742,N,07740.2822,W,22.15,71.61,100925,,,D*7F
$GPGGA,230711.750,4305.2747,N,07740.2802,W,2,09,0.90,166.8,M,-34.4,M,0000,0000*56
$GPRMC,230711.750,A,4305.2747,N,07740.2802,W,22.17,71.03,100925,,,D*79
$GPGGA,230712.000,4305.2753,N,07740.2782,W,2,09,0.90,166.7,M,-34.4,M,0000,0000*5A
$GPRMC,230712.000,A,4305.2753,N,07740.2782,W,22.16,70.53,100925,,,D*7F
$GPGGA,230712.250,4305.2758,N,07740.2763,W,2,09,0.90,166.7,M,-34.4,M,0000,0000*59
$GPRMC,230712.250,A,4305.2758,N,07740.2763,W,22.16,70.06,100925,,,D*7C
$GPGGA,230712.500,4305.2764,N,07740.2743,W,2,09,0.90,166.6,M,-34.4,M,0000,0000*57
$GPRMC,230712.500,A,4305.2764,N,07740.2743,W,22.18,69.63,100925,,,D*76
$GPGGA,230712.750,4305.2769,N,07740.2723,W,2,09,0.90,166.6,M,-34.4,M,0000,0000*5B
$GPRMC,230712.750,A,4305.2769,N,07740.2723,W,22.18,69.19,100925,,,D*77
$GPGGA,230713.000,4305.2775,N,07740.2703,W,2,09,0.90,166.5,M,-34.4,M,0000,0000*54
$GPRMC,230713.000,A,4305.2775,N,07740.2703,W,22.19,68.67,100925,,,D*72
$GPGGA,230713.250,4305.2781,N,07740.2683,W,2,09,0.90,166.5,M,-34.4,M,0000,0000*51
$GPRMC,230713.250,A,4305.2781,N,07740.2683,W,22.22,68.06,100925,,,D*78
$GPGGA,230713.500,4305.2787,N,07740.2663,W,2,09,0.90,166.5,M,-34.4,M,0000,0000*5B
$GPRMC,230713.500,A,4305.2787,N,07740.2663,W,22.26,67.19,100925,,,D*77
$GPGGA,230713.750,4305.2793,N,07740.2643,W,2,09,0.90,166.5,M,-34.4,M,0000,0000*5B
$GPRMC,230713.750,A,4305.2793,N,07740.2643,W,22.31,66.79,100925,,,D*76
$GPGGA,230714.000,4305.2800,N,07740.2622,W,2,09,0.90,166.4,M,-34.4,M,0000,0000*5D
$GPRMC,230714.000,A,4305.2800,N,07740.2622,W,22.55,66.41,100925,,,D*78
$GPGGA,230714.250,4305.2806,N,07740.2602,W,2,09,0.90,166.4,M,-34.4,M,0000,0000*5E
$GPRMC,230714.250,A,4305.2806,N,07740.2602,W,22.61,66.13,100925,,,D*7B
$GPGGA,230714.500,4305.2813,N,07740.2582,W,2,09,0.90,166.3,M,-34.4,M,0000,0000*54
$GPRMC,230714.500,A,4305.2813,N,07740.2582,W,22.83,65.92,100925,,,D*70
$GPGGA,230714.750,4305.2820,N,07740.2562,W,2,09,0.90,166.2,M,-34.4,M,0000,0000*5C
$GPRMC,230714.750,A,4305.2820,N,07740.2562,W,22.87,65.56,100925,,,D*75
$GPGGA,230715.000,4305.2826,N,07740.2542,W,2,09,0.90,166.1,M,-34.4,M,0000,0000*58
$GPRMC,230715.000,A,4305.2826,N,07740.2542,W,22.91,64.99,100925,,,D*77
$GPGGA,230715.250,4305.2833,N,07740.2523,W,2,09,0.90,165.9,M,-34.4,M,0000,0000*57
$GPRMC,230715.250,A,4305.2833,N,07740.2523,W,22.90,64.55,100925,,,D*72
$GPGGA,230715.500,4305.2840,N,07740.2504,W,2,09,0.90,165.8,M,-34.4,M,0000,0000*55
$GPRMC,230715.500,A,4305.2840,N,07740.2504,W,22.96,63.83,100925,,,D*7B
$GPGGA,230715.750,4305.2847,N,07740.2485,W,2,09,0.90,165.7,M,-34.4,M,0000,0000*52
$GPRMC,230715.750,A,4305.2847,N,07740.2485,W,23.03,63.42,100925,,,D*73
$GPGGA,230716.000,4305.2855,N,07740.2466,W,2,09,0.90,165.6,M,-34.4,M,0000,0000*5C
$GPRMC,230716.000,A,4305.2855,N,07740.2466,W,23.06,62.94,100925,,,D*73
$GPGGA,230716.250,4305.2862,N,07740.2446,W,2,09,0.90,165.5,M,-34.4,M,0000,0000*5E
$GPRMC,230716.250,A,4305.2862,N,07740.2446,W,23.23,62.66,100925,,,D*78
$GPGGA,230716.500,4305.2870,N,07740.2427,W,2,09,0.90,165.5,M,-34.4,M,0000,0000*58
$GPRMC,230716.500,A,4305.2870,N,07740.2427,W,23.42,62.18,100925,,,D*70
$GPGGA,230716.750,4305.2878,N,07740.2407,W,2,09,0.90,165.5,M,-34.4,M,0000,0000*55
$GPRMC,230716.750,A,4305.2878,N,07740.2407,W,23.45,61.81,100925,,,D*79
$GPGGA,230717.000,4305.2886,N,07740.2388,W,2,09,0.90,165.5,M,-34.4,M,0000,0000*57
$GPRMC,230717.000,A,4305.2886,N,07740.2388,W,23.51,61.47,100925,,,D*74
$GPGGA,230717.250,4305.2894,N,07740.2368,W,2,09,0.90,165.5,M,-34.4,M,0000,0000*5D
$GPRMC,230717.250,A,4305.2894,N,07740.2368,W,23.68,61.57,100925,,,D*75
$GPGGA,230717.500,4305.2902,N,07740.2349,W,2,09,0.90,165.6,M,-34.4,M,0000,0000*51
$GPRMC,230717.500,A,4305.2902,N,07740.2349,W,23.73,61.08,100925,,,D*7A
$GPGGA,230717.750,4305.2910,N,07740.2329,W,2,09,0.90,165.7,M,-34.4,M,0000,0000*52
$GPRMC,230717.750,A,4305.2910,N,07740.2329,W,23.90,61.08,100925,,,D*75
$GPGGA,230718.000,4305.2919,N,07740.2310,W,2,09,0.90,165.8,M,-34.4,M,0000,0000*53
$GPRMC,230718.000,A,4305.2919,N,07740.2310,W,23.98,61.07,100925,,,D*7C
$GPGGA,230718.250,4305.2927,N,07740.2290,W,2,09,0.90,165.9,M,-34.4,M,0000,0000*51
$GPRMC,230718.250,A,4305.2927,N,07740.2290,W,24.20,60.73,100925,,,D*79
$GPGGA,230718.500,4305.2936,N,07740.2270,W,2,09,0.90,166.0,M,-34.4,M,0000,0000*57
$GPRMC,230718.500,A,4305.2936,N,07740.2270,W,24.25,60.30,100925,,,D*77
$GPGGA,230718.750,4305.2944,N,07740.2251,W,2,09,0.90,166.1,M,-34.4,M,0000,0000*57
$GPRMC,230718.750,A,4305.2944,N,07740.2251,W,24.32,60.37,100925,,,D*77
$GPGGA,230719.000,4305.2953,N,07740.2231,W,2,09,0.90,166.2,M,-34.4,M,0000,0000*57
$GPRMC,230719.000,A,4305.2953,N,07740.2231,W,24.31,59.90,100925,,,D*70
$GPGGA,230719.250,4305.2962,N,07740.2212,W,2,09,0.90,166.3,M,-34.4,M,0000,0000*52
$GPRMC,230719.250,A,4305.2962,N,07740.2212,W,24.34,59.91,100925,,,D*70
$GPGGA,230719.500,4305.2970,N,07740.2192,W,2,09,0.90,166.4,M,-34.4,M,0000,0000*5F
$GPRMC,230719.500,A,4305.2970,N,07740.2192,W,24.38,59.88,100925,,,D*7E
$GPGGA,230719.750,4305.2979,N,07740.2172,W,2,09,0.90,166.5,M,-34.4,M,0000,0000*5E
$GPRMC,230719.750,A,4305.2979,N,07740.2172,W,24.68,59.78,100925,,,D*74
$GPGGA,230720.000,4305.2989,N,07740.2152,W,2,09,0.90,166.7,M,-34.4,M,0000,0000*59
$GPRMC,230720.000,A,4305.2989,N,07740.2152,W,24.76,59.61,100925,,,D*76
$GPGGA,230720.250,4305.2998,N,07740.2132,W,2,09,0.90,166.8,M,-34.4,M,0000,0000*57
