$GPRMC,142136.000,A,4308.3063,N,07726.2633,W,1.75,22.65,080925,,,A*40
$GPGGA,142136.250,4308.3065,N,07726.2633,W,1,05,3.35,158.0,M,-34.4,M,,*57
$GPRMC,142136.500,A,4308.3068,N,07726.2633,W,1.90,19.34,080925,,,A*49
$GPGGA,142136.750,4308.3070,N,07726.2633,W,1,05,3.35,158.0,M,-34.4,M,,*56
$GPGGA,142137.750,4308.3079,N,07726.2636,W,1,05,3.36,158.0,M,-34.4,M,,*58
$GPRMC,142137.750,A,4308.3079,N,07726.2636,W,2.16,11.04,080925,,,A*4C
$GPGGA,142138.000,4308.3080,N,07726.2637,W,1,05,3.35,158.0,M,-34.4,M,,*51
$GPRMC,142138.000,A,4308.3080,N,07726.2637,W,2.15,8.72,080925,,,A*7C
$GPGGA,142139.500,4308.3096,N,07726.2638,W,1,05,3.36,158.1,M,-34.4,M,,*5F
$GPRMC,142139.500,A,4308.3096,N,07726.2638,W,2.44,6.94,080925,,,A*72
$GPGGA,142139.750,4308.3098,N,07726.2638,W,1,05,3.36,158.1,M,-34.4,M,,*56
$GPRMC,142140.250,A,4308.3105,N,07726.2639,W,2.56,5.61,080925,,,A*7E
$GPGGA,142140.500,4308.3110,N,07726.2639,W,1,05,3.36,158.1,M,-34.4,M,,*5F
$GPRMC,142140.750,A,4308.3113,N,07726.2640,W,2.76,4.50,080925,,,A*73
$GPGGA,142141.000,4308.3117,N,07726.2639,W,1,05,3.36,158.1,M,-34.4,M,,*5C
$GPRMC,142141.250,A,4308.3119,N,07726.2639,W,2.98,14.26,080925,,,A*43
$GPGGA,142141.500,4308.3120,N,07726.2639,W,1,05,3.73,158.1,M,-34.4,M,,*5C
$GPRMC,142141.750,A,4308.3123,N,07726.2639,W,2.69,17.18,080925,,,A*4F
$GPGGA,142142.000,4308.3124,N,07726.2639,W,1,05,3.36,158.1,M,-34.4,M,,*5F
$GPRMC,142142.250,A,4308.3124,N,07726.2640,W,1.88,10.83,080925,,,A*49
$GPGGA,142147.250,4308.3138,N,07726.2646,W,1,05,3.74,158.2,M,-34.4,M,,*5D
$GPRMC,142147.250,A,4308.3138,N,07726.2646,W,1.10,17.33,080925,,,A*4A
$GPGGA,142149.000,4308.3153,N,07726.2642,W,1,05,3.37,158.3,M,-34.4,M,,*5B
$GPRMC,142149.000,A,4308.3153,N,07726.2642,W,1.74,27.03,080925,,,A*48
$GPGGA,142149.250,4308.3154,N,07726.2641,W,1,05,3.37,158.3,M,-34.4,M,,*58
$GPRMC,142149.250,A,4308.3154,N,07726.2641,W,1.79,30.39,080925,,,A*49
$GPGGA,142153.250,4308.3165,N,07726.2654,W,1,05,3.38,158.5,M,-34.4,M,,*5C
$GPRMC,142153.250,A,4308.3165,N,07726.2654,W,1.58,305.04,080925,,,A*7C
$GPGGA,142153.500,4308.3165,N,07726.2658,W,1,05,3.37,158.5,M,-34.4,M,,*5D
$GPRMC,142154.000,A,4308.3166,N,07726.2665,W,2.98,288.67,080925,,,A*73
$GPGGA,142154.250,4308.3167,N,07726.2669,W,1,05,3.37,158.5,M,-34.4,M,,*58
$GPRMC,142154.500,A,4308.3167,N,07726.2673,W,4.16,280.69,080925,,,A*76
$GPGGA,142154.750,4308.3167,N,07726.2678,W,1,05,3.74,158.6,M,-34.4,M,,*59
$GPRMC,142155.000,A,4308.3169,N,07726.2684,W,5.02,280.92,080925,,,A*74
$GPGGA,142155.250,4308.3169,N,07726.2690,W,1,05,3.74,158.6,M,-34.4,M,,*55
$GPRMC,142155.500,A,4308.3170,N,07726.2696,W,6.30,279.39,080925,,,A*7F
$GPGGA,142155.750,4308.3170,N,07726.2703,W,1,05,3.74,158.6,M,-34.4,M,,*53
$GPRMC,142156.000,A,4308.3170,N,07726.2709,W,6.67,275.30,080925,,,A*79
$GPGGA,142156.250,4308.3171,N,07726.2716,W,1,05,3.74,158.6,M,-34.4,M,,*50
$GPRMC,142156.500,A,4308.3171,N,07726.2723,W,6.98,277.08,080925,,,A*7C
$GPGGA,142156.750,4308.3172,N,07726.2730,W,1,05,3.75,158.6,M,-34.4,M,,*53
$GPRMC,142157.000,A,4308.3174,N,07726.2737,W,7.49,280.47,080925,,,A*76
$GPGGA,142157.250,4308.3175,N,07726.2745,W,1,05,3.75,158.6,M,-34.4,M,,*52
$GPRMC,142157.500,A,4308.3175,N,07726.2753,W,8.45,279.01,080925,,,A*77
$GPGGA,142157.750,4308.3175,N,07726.2761,W,1,05,3.38,158.6,M,-34.4,M,,*58
$GPRMC,142158.000,A,4308.3175,N,07726.2770,W,8.54,277.22,080925,,,A*73
$GPGGA,142158.250,4308.3177,N,07726.2778,W,1,04,4.33,158.6,M,-34.4,M,,*55
$GPRMC,142158.500,A,4308.3178,N,07726.2787,W,9.04,280.63,080925,,,A*7A
$GPGGA,142158.750,4308.3180,N,07726.2795,W,1,04,3.68,158.6,M,-34.4,M,,*52
$GPRMC,142159.000,A,4308.3181,N,07726.2804,W,9.34,281.40,080925,,,A*7F
$GPGGA,142159.250,4308.3183,N,07726.2813,W,1,05,3.75,158.6,M,-34.4,M,,*59
$GPRMC,142159.500,A,4308.3184,N,07726.2823,W,9.82,279.16,080925,,,A*73
$GPGGA,142159.750,4308.3185,N,07726.2832,W,1,05,3.38,158.6,M,-34.4,M,,*50
$GPRMC,142200.000,A,4308.3186,N,07726.2842,W,10.23,278.08,080925,,,A*41
$GPGGA,142200.250,4308.3187,N,07726.2852,W,1,05,3.38,158.7,M,-34.4,M,,*5F
$GPRMC,142200.500,A,4308.3189,N,07726.2862,W,10.63,278.26,080925,,,A*41
$GPGGA,142200.750,4308.3190,N,07726.2871,W,1,05,3.38,158.7,M,-34.4,M,,*5D
$GPRMC,142201.000,A,4308.3192,N,07726.2882,W,10.96,279.62,080925,,,A*4A
$GPGGA,142201.250,4308.3194,N,07726.2892,W,1,05,3.38,158.7,M,-34.4,M,,*50
$GPRMC,142201.500,A,4308.3196,N,07726.2902,W,11.17,281.58,080925,,,A*44
$GPGGA,142201.750,4308.3199,N,07726.2913,W,1,05,3.38,158.7,M,-34.4,M,,*50
$GPRMC,142202.000,A,4308.3202,N,07726.2923,W,11.45,284.27,080925,,,A*45
$GPGGA,142202.250,4308.3205,N,07726.2934,W,1,05,3.38,158.7,M,-34.4,M,,*55
$GPRMC,142202.500,A,4308.3209,N,07726.2945,W,11.65,286.22,080925,,,A*4E
$GPGGA,142202.750,4308.3213,N,07726.2956,W,1,05,3.39,158.7,M,-34.4,M,,*52
$GPRMC,142203.000,A,4308.3218,N,07726.2967,W,11.93,288.26,080925,,,A*49
$GPGGA,142203.250,4308.3224,N,07726.2978,W,1,05,3.38,158.8,M,-34.4,M,,*50
$GPRMC,142203.500,A,4308.3229,N,07726.2989,W,12.24,290.65,080925,,,A*4F
$GPGGA,142203.750,4308.3233,N,07726.3000,W,1,05,3.39,158.8,M,-34.4,M,,*55
$GPRMC,142204.000,A,4308.3238,N,07726.3012,W,12.31,292.03,080925,,,A*41
$GPGGA,142204.250,4308.3242,N,07726.3023,W,1,05,3.38,158.8,M,-34.4,M,,*51
$GPRMC,142204.500,A,4308.3246,N,07726.3035,W,12.39,292.30,080925,,,A*40
$GPGGA,142204.750,4308.3250,N,07726.3047,W,1,05,3.38,158.8,M,-34.4,M,,*55
$GPRMC,142205.000,A,4308.3255,N,07726.3058,W,12.71,292.43,080925,,,A*45
$GPGGA,142205.250,4308.3259,N,07726.3070,W,1,05,3.39,158.8,M,-34.4,M,,*5D
$GPRMC,142205.500,A,4308.3263,N,07726.3082,W,12.81,292.54,080925,,,A*4B
$GPGGA,142205.750,4308.3267,N,07726.3093,W,1,05,3.39,158.8,M,-34.4,M,,*58
$GPRMC,142206.000,A,4308.3272,N,07726.3105,W,13.21,292.12,080925,,,A*4A
$GPGGA,142206.250,4308.3276,N,07726.3117,W,1,05,3.39,158.8,M,-34.4,M,,*53
$GPRMC,142206.500,A,4308.3281,N,07726.3128,W,13.63,292.96,080925,,,A*46
$GPGGA,142206.750,4308.3285,N,07726.3140,W,1,05,3.39,158.7,M,-34.4,M,,*57
$GPRMC,142207.000,A,4308.3290,N,07726.3153,W,14.17,293.42,080925,,,A*42
$GPGGA,142207.250,4308.3295,N,07726.3165,W,1,05,3.39,158.7,M,-34.4,M,,*55
$GPRMC,142207.500,A,4308.3300,N,07726.3178,W,14.65,294.87,080925,,,A*4D
$GPGGA,142207.750,4308.3305,N,07726.3190,W,1,05,3.39,158.7,M,-34.4,M,,*52
$GPRMC,142208.000,A,4308.3310,N,07726.3203,W,15.16,295.35,080925,,,A*44
$GPGGA,142208.250,4308.3314,N,07726.3216,W,1,05,3.39,158.7,M,-34.4,M,,*55
$GPRMC,142208.500,A,4308.3319,N,07726.3230,W,15.53,295.68,080925,,,A*41
$GPGGA,142208.750,4308.3324,N,07726.3243,W,1,05,3.39,158.7,M,-34.4,M,,*53
$GPRMC,142209.000,A,4308.3329,N,07726.3256,W,15.74,296.35,080925,,,A*48
$GPGGA,142209.250,4308.3334,N,07726.3270,W,1,05,3.39,158.6,M,-34.4,M,,*57
$GPRMC,142209.500,A,4308.3338,N,07726.3283,W,15.83,297.15,080925,,,A*4E
$GPGGA,142209.750,4308.3343,N,07726.3296,W,1,05,3.39,158.6,M,-34.4,M,,*5A
$GPRMC,142210.000,A,4308.3348,N,07726.3310,W,15.84,297.65,080925,,,A*4F
$GPGGA,142210.250,4308.3353,N,07726.3323,W,1,05,3.39,158.6,M,-34.4,M,,*59
$GPRMC,142210.500,A,4308.3360,N,07726.3337,W,16.14,297.71,080925,,,A*4A
$GPGGA,142210.750,4308.3366,N,07726.3351,W,1,05,3.40,158.6,M,-34.4,M,,*51
$GPRMC,142211.000,A,4308.3373,N,07726.3365,W,16.39,298.21,080925,,,A*4E
$GPGGA,142211.250,4308.3382,N,07726.3379,W,1,05,3.39,158.6,M,-34.4,M,,*5B
$GPRMC,142211.500,A,4308.3391,N,07726.3394,W,16.79,300.14,080925,,,A*4B
$GPGGA,142211.750,4308.3400,N,07726.3408,W,1,05,3.39,158.6,M,-34.4,M,,*52
$GPRMC,142212.000,A,4308.3408,N,07726.3422,W,17.25,301.72,080925,,,A*49
$GPGGA,142212.250,4308.3416,N,07726.3437,W,1,05,3.39,158.6,M,-34.4,M,,*5F
$GPRMC,142212.500,A,4308.3422,N,07726.3451,W,17.52,301.98,080925,,,A*44
$GPGGA,142212.750,4308.3429,N,07726.3465,W,1,05,3.39,158.6,M,-34.4,M,,*51
$GPRMC,142213.000,A,4308.3437,N,07726.3480,W,17.83,301.95,080925,,,A*49
$GPGGA,142213.250,4308.3445,N,07726.3495,W,1,05,3.39,158.6,M,-34.4,M,,*50
$GPRMC,142213.500,A,4308.3452,N,07726.3509,W,17.89,302.30,080925,,,A*49
$GPGGA,142213.750,4308.3460,N,07726.3523,W,1,05,3.40,158.6,M,-34.4,M,,*50
$GPRMC,142214.000,A,4308.3467,N,07726.3538,W,17.80,302.99,080925,,,A*45
$GPGGA,142214.250,4308.3475,N,07726.3551,W,1,05,3.40,158.6,M,-34.4,M,,*53
$GPRMC,142214.500,A,4308.3484,N,07726.3564,W,17.36,304.98,080925,,,A*4E
$GPGGA,142214.750,4308.3493,N,07726.3577,W,1,05,3.40,158.6,M,-34.4,M,,*5A
$GPRMC,142215.000,A,4308.3502,N,07726.3590,W,17.09,306.76,080925,,,A*40
$GPGGA,142215.250,4308.3510,N,07726.3603,W,1,05,3.40,158.6,M,-34.4,M,,*54
$GPRMC,142215.500,A,4308.3519,N,07726.3616,W,16.96,308.07,080925,,,A*4D
$GPGGA,142215.750,4308.3528,N,07726.3628,W,1,05,3.40,158.6,M,-34.4,M,,*53
$GPRMC,142216.000,A,4308.3538,N,07726.3640,W,16.72,310.30,080925,,,A*4C
$GPGGA,142216.250,4308.3548,N,07726.3652,W,1,05,3.40,158.7,M,-34.4,M,,*5F
$GPRMC,142216.500,A,4308.3558,N,07726.3662,W,16.21,313.11,080925,,,A*49
$GPGGA,142216.750,4308.3568,N,07726.3673,W,1,05,3.40,158.7,M,-34.4,M,,*5B
$GPRMC,142217.000,A,4308.3576,N,07726.3682,W,15.55,316.46,080925,,,A*48
$GPGGA,142217.250,4308.3587,N,07726.3692,W,1,05,3.40,158.7,M,-34.4,M,,*51
$GPRMC,142217.500,A,4308.3601,N,07726.3702,W,15.55,321.69,080925,,,A*4E
$GPGGA,142217.750,4308.3614,N,07726.3711,W,1,05,3.40,158.7,M,-34.4,M,,*57
$GPRMC,142218.000,A,4308.3628,N,07726.3719,W,15.76,327.02,080925,,,A*4F
$GPGGA,142218.250,4308.3642,N,07726.3727,W,1,05,3.40,158.7,M,-34.4,M,,*5B
$GPRMC,142218.500,A,4308.3658,N,07726.3734,W,16.18,331.96,080925,,,A*43
$GPGGA,142218.750,4308.3675,N,07726.3742,W,1,05,3.40,158.7,M,-34.4,M,,*59
$GPRMC,142219.000,A,4308.3693,N,07726.3749,W,16.87,334.96,080925,,,A*49
$GPGGA,142219.250,4308.3712,N,07726.3755,W,1,05,3.40,158.7,M,-34.4,M,,*5B
$GPRMC,142219.500,A,4308.3730,N,07726.3760,W,17.41,341.95,080925,,,A*45
$GPGGA,142219.750,4308.3748,N,07726.3764,W,1,05,3.41,158.7,M,-34.4,M,,*52
$GPRMC,142220.000,A,4308.3767,N,07726.3768,W,18.03,346.56,080925,,,A*41
$GPGGA,142220.250,4308.3785,N,07726.3772,W,1,05,3.77,158.7,M,-34.4,M,,*5E
$GPRMC,142220.500,A,4308.3808,N,07726.3775,W,19.29,350.27,080925,,,A*46
$GPGGA,142220.750,4308.3835,N,07726.3776,W,1,05,3.77,158.7,M,-34.4,M,,*5B
$GPRMC,142221.000,A,4308.3860,N,07726.3778,W,21.82,356.46,080925,,,A*4A
$GPGGA,142221.250,4308.3880,N,07726.3778,W,1,04,5.32,158.7,M,-34.4,M,,*59
$GPRMC,142221.500,A,4308.3899,N,07726.3777,W,22.76,0.21,080925,,,A*4F
$GPGGA,142221.750,4308.3917,N,07726.3776,W,1,05,3.77,158.7,M,-34.4,M,,*5B
$GPRMC,142222.000,A,4308.3933,N,07726.3774,W,22.98,3.30,080925,,,A*48
$GPGGA,142222.250,4308.3950,N,07726.3771,W,1,05,3.78,158.8,M,-34.4,M,,*59
$GPRMC,142222.500,A,4308.3967,N,07726.3768,W,23.46,6.41,080925,,,A*40
$GPGGA,142222.750,4308.3983,N,07726.3764,W,1,05,3.78,158.7,M,-34.4,M,,*59
$GPRMC,142223.000,A,4308.4000,N,07726.3760,W,23.52,8.54,080925,,,A*4C
$GPGGA,142223.250,4308.4017,N,07726.3757,W,1,05,3.78,158.7,M,-34.4,M,,*5E
$GPRMC,142223.500,A,4308.4035,N,07726.3753,W,23.65,8.85,080925,,,A*47
$GPGGA,142223.750,4308.4053,N,07726.3750,W,1,05,3.78,158.7,M,-34.4,M,,*5C
$GPRMC,142224.000,A,4308.4072,N,07726.3746,W,23.90,8.77,080925,,,A*45
$GPGGA,142224.250,4308.4090,N,07726.3742,W,1,05,3.78,158.7,M,-34.4,M,,*52
$GPRMC,142224.500,A,4308.4108,N,07726.3738,W,24.00,8.66,080925,,,A*4B
$GPGGA,142224.750,4308.4126,N,07726.3734,W,1,05,3.78,158.8,M,-34.4,M,,*55
$GPRMC,142225.000,A,4308.4144,N,07726.3729,W,24.32,8.84,080925,,,A*4A
$GPGGA,142225.250,4308.4161,N,07726.3725,W,1,05,3.78,158.9,M,-34.4,M,,*53
$GPRMC,142225.500,A,4308.4178,N,07726.3720,W,24.41,9.43,080925,,,A*47
$GPGGA,142225.750,4308.4196,N,07726.3715,W,1,05,3.78,158.9,M,-34.4,M,,*5D
$GPRMC,142226.000,A,4308.4212,N,07726.3710,W,24.48,10.08,080925,,,A*73
$GPGGA,142226.250,4308.4229,N,07726.3705,W,1,05,3.78,159.0,M,-34.4,M,,*55
$GPRMC,142226.500,A,4308.4245,N,07726.3700,W,24.44,10.81,080925,,,A*78
$GPGGA,142226.750,4308.4260,N,07726.3694,W,1,05,3.78,159.0,M,-34.4,M,,*54
$GPRMC,142227.000,A,4308.4276,N,07726.3689,W,24.04,10.87,080925,,,A*7E
$GPGGA,142227.250,4308.4291,N,07726.3684,W,1,05,3.78,159.0,M,-34.4,M,,*5F
$GPRMC,142227.500,A,4308.4306,N,07726.3680,W,23.72,10.78,080925,,,A*72
$GPGGA,142227.750,4308.4321,N,07726.3675,W,1,05,3.78,159.1,M,-34.4,M,,*5F
$GPRMC,142228.000,A,4308.4336,N,07726.3671,W,23.46,10.46,080925,,,A*7F
$GPGGA,142228.250,4308.4351,N,07726.3666,W,1,05,3.78,159.1,M,-34.4,M,,*50
$GPRMC,142228.500,A,4308.4366,N,07726.3661,W,23.10,10.62,080925,,,A*7B
$GPGGA,142228.750,4308.4380,N,07726.3657,W,1,05,3.78,159.1,M,-34.4,M,,*5B
$GPRMC,142229.000,A,4308.4394,N,07726.3653,W,22.34,9.74,080925,,,A*4B
$GPGGA,142229.250,4308.4409,N,07726.3649,W,1,05,3.79,159.1,M,-34.4,M,,*57
$GPRMC,142229.500,A,4308.4424,N,07726.3645,W,21.77,8.69,080925,,,A*4C
$GPGGA,142229.750,4308.4439,N,07726.3641,W,1,05,3.78,159.2,M,-34.4,M,,*5B
$GPRMC,142230.000,A,4308.4454,N,07726.3638,W,21.34,7.90,080925,,,A*42
$GPGGA,142230.250,4308.4467,N,07726.3635,W,1,06,1.50,159.2,M,-34.4,M,,*55
$GPRMC,142230.500,A,4308.4479,N,07726.3631,W,19.86,7.67,080925,,,A*4B
$GPGGA,142230.750,4308.4491,N,07726.3628,W,1,06,1.50,159.1,M,-34.4,M,,*56
$GPRMC,142231.000,A,4308.4502,N,07726.3625,W,18.44,8.12,080925,,,A*45
$GPGGA,142231.250,4308.4514,N,07726.3621,W,1,06,1.50,159.2,M,-34.4,M,,*54
$GPRMC,142231.500,A,4308.4525,N,07726.3619,W,17.42,8.33,080925,,,A*40
$GPGGA,142231.750,4308.4535,N,07726.3616,W,1,06,1.50,159.4,M,-34.4,M,,*50
$GPRMC,142232.000,A,4308.4545,N,07726.3614,W,15.81,6.98,080925,,,A*4F
$GPGGA,142232.250,4308.4551,N,07726.3612,W,1,06,1.50,159.6,M,-34.4,M,,*52
$GPRMC,142232.500,A,4308.4557,N,07726.3610,W,12.48,3.75,080925,,,A*49
$GPGGA,142232.750,4308.4562,N,07726.3609,W,1,06,1.50,160.0,M,-34.4,M,,*51
$GPRMC,142233.000,A,4308.4567,N,07726.3607,W,10.46,3.10,080925,,,A*47
$GPGGA,142233.250,4308.4570,N,07726.3607,W,1,06,1.50,160.3,M,-34.4,M,,*5B
$GPRMC,142233.500,A,4308.4573,N,07726.3607,W,8.14,358.79,080925,,,A*7B
$GPGGA,142233.750,4308.4577,N,07726.3606,W,1,06,1.50,160.3,M,-34.4,M,,*58
$GPRMC,142247.501,A,4308.4740,N,07726.4800,W,33.93,277.46,080925,,,A*42
$GPGGA,142247.751,4308.4743,N,07726.4833,W,1,06,1.41,159.7,M,-34.4,M,,*5E
$GPRMC,142248.001,A,4308.4745,N,07726.4865,W,33.50,277.25,080925,,,A*44
$GPGGA,142248.251,4308.4748,N,07726.4896,W,1,06,1.41,159.8,M,-34.4,M,,*5F
$GPRMC,142248.501,A,4308.4750,N,07726.4927,W,32.86,276.45,080925,,,A*4F
$GPGGA,142248.751,4308.4752,N,07726.4958,W,1,06,1.41,159.9,M,-34.4,M,,*53
$GPRMC,142249.001,A,4308.4754,N,07726.4989,W,32.77,275.95,080925,,,A*4B
$GPGGA,142249.251,4308.4757,N,07726.5020,W,1,06,1.41,159.9,M,-34.4,M,,*55
$GPRMC,142249.501,A,4308.4759,N,07726.5051,W,32.57,275.64,080925,,,A*42
$GPGGA,142249.750,4308.4762,N,07726.5081,W,1,06,1.41,160.0,M,-34.4,M,,*5F
$GPRMC,142250.000,A,4308.4764,N,07726.5112,W,32.51,275.45,080925,,,A*43
$GPGGA,142250.250,4308.4766,N,07726.5142,W,1,06,1.41,160.1,M,-34.4,M,,*59
$GPRMC,142250.500,A,4308.4768,N,07726.5172,W,32.21,275.32,080925,,,A*4B
$GPGGA,142250.750,4308.4770,N,07726.5202,W,1,06,1.41,160.1,M,-34.4,M,,*5C
$GPRMC,142251.000,A,4308.4772,N,07726.5232,W,31.40,275.01,080925,,,A*47
$GPGGA,142251.250,4308.4773,N,07726.5262,W,1,06,1.41,160.2,M,-34.4,M,,*5E
$GPRMC,142251.500,A,4308.4775,N,07726.5291,W,30.85,274.30,080925,,,A*47
$GPGGA,142251.750,4308.4777,N,07726.5320,W,1,06,1.41,160.2,M,-34.4,M,,*58
$GPRMC,142252.000,A,4308.4779,N,07726.5349,W,30.49,273.70,080925,,,A*4A
$GPGGA,142252.250,4308.4780,N,07726.5379,W,1,06,1.41,160.3,M,-34.4,M,,*5B
$GPRMC,142252.500,A,4308.4781,N,07726.5408,W,30.85,273.10,080925,,,A*4C
$GPGGA,142252.750,4308.4782,N,07726.5438,W,1,06,1.50,160.3,M,-34.4,M,,*5E
$GPRMC,142253.000,A,4308.4783,N,07726.5468,W,30.99,273.04,080925,,,A*44
$GPGGA,142253.250,4308.4784,N,07726.5498,W,1,06,1.41,160.3,M,-34.4,M,,*56
$GPRMC,142253.500,A,4308.4786,N,07726.5527,W,30.93,273.02,080925,,,A*42
$GPGGA,142253.750,4308.4788,N,07726.5557,W,1,06,1.50,160.2,M,-34.4,M,,*5C
$GPRMC,142254.000,A,4308.4789,N,07726.5586,W,31.31,273.44,080925,,,A*4F
$GPGGA,142254.250,4308.4791,N,07726.5616,W,1,06,1.41,160.2,M,-34.4,M,,*50
$GPRMC,142254.500,A,4308.4793,N,07726.5647,W,31.93,273.19,080925,,,A*4F
$GPGGA,142254.750,4308.4794,N,07726.5677,W,1,06,1.50,160.2,M,-34.4,M,,*57
$GPRMC,142255.000,A,4308.4796,N,07726.5708,W,32.36,272.77,080925,,,A*41
$GPGGA,142255.250,4308.4798,N,07726.5739,W,1,06,1.41,160.2,M,-34.4,M,,*54
$GPRMC,142255.500,A,4308.4800,N,07726.5771,W,32.62,272.83,080925,,,A*40
$GPGGA,142255.750,4308.4801,N,07726.5802,W,1,06,1.50,160.2,M,-34.4,M,,*59
$GPRMC,142256.000,A,4308.4804,N,07726.5833,W,32.64,273.45,080925,,,A*46
$GPGGA,142256.250,4308.4805,N,07726.5865,W,1,06,1.41,160.2,M,-34.4,M,,*5A
$GPRMC,142256.500,A,4308.4806,N,07726.5896,W,32.56,272.93,080925,,,A*45
$GPGGA,142256.750,4308.4807,N,07726.5927,W,1,06,1.50,160.1,M,-34.4,M,,*59
$GPRMC,142257.000,A,4308.4808,N,07726.5959,W,32.49,272.47,080925,,,A*4A
$GPGGA,142257.250,4308.4808,N,07726.5990,W,1,06,1.41,160.0,M,-34.4,M,,*5F
$GPRMC,142257.500,A,4308.4809,N,07726.6021,W,32.10,271.80,080925,,,A*4F
$GPGGA,142257.750,4308.4810,N,07726.6052,W,1,06,1.41,159.9,M,-34.4,M,,*54
$GPRMC,142258.000,A,4308.4810,N,07726.6082,W,31.63,271.25,080925,,,A*4C
$GPGGA,142258.250,4308.4811,N,07726.6113,W,1,06,1.41,159.8,M,-34.4,M,,*5A
$GPRMC,142258.500,A,4308.4811,N,07726.6143,W,31.48,271.07,080925,,,A*4D
$GPGGA,142258.750,4308.4812,N,07726.6172,W,1,06,1.41,159.7,M,-34.4,M,,*54
$GPRMC,142259.000,A,4308.4813,N,07726.6202,W,31.65,271.46,080925,,,A*47
$GPGGA,142259.250,4308.4814,N,07726.6232,W,1,06,1.41,159.6,M,-34.4,M,,*50
$GPRMC,142259.500,A,4308.4815,N,07726.6262,W,31.80,272.18,080925,,,A*41
$GPGGA,142259.750,4308.4816,N,07726.6292,W,1,06,1.41,159.4,M,-34.4,M,,*5F
$GPRMC,142300.000,A,4308.4817,N,07726.6323,W,31.62,272.31,080925,,,A*48
$GPGGA,142300.250,4308.4817,N,07726.6353,W,1,06,1.41,159.3,M,-34.4,M,,*5D
$GPRMC,142300.500,A,4308.4816,N,07726.6385,W,31.88,270.86,080925,,,A*4A
$GPGGA,142300.750,4308.4817,N,07726.6416,W,1,06,1.41,159.1,M,-34.4,M,,*5C
$GPRMC,142301.000,A,4308.4816,N,07726.6448,W,32.17,269.69,080925,,,A*44
$GPGGA,142301.250,4308.4816,N,07726.6480,W,1,06,1.41,159.0,M,-34.4,M,,*57
$GPRMC,142301.500,A,4308.4815,N,07726.6512,W,32.73,268.66,080925,,,A*40
$GPGGA,142301.750,4308.4814,N,07726.6544,W,1,06,1.50,158.8,M,-34.4,M,,*50
$GPRMC,142302.000,A,4308.4813,N,07726.6576,W,33.71,267.24,080925,,,A*48
$GPGGA,142302.250,4308.4811,N,07726.6608,W,1,06,1.41,158.6,M,-34.4,M,,*56
$GPRMC,142302.500,A,4308.4810,N,07726.6641,W,34.36,266.80,080925,,,A*42
$GPGGA,142302.750,4308.4809,N,07726.6673,W,1,06,1.50,158.5,M,-34.4,M,,*55
$GPRMC,142303.000,A,4308.4809,N,07726.6706,W,34.80,267.00,080925,,,A*48
$GPGGA,142303.250,4308.4808,N,07726.6739,W,1,06,1.41,158.3,M,-34.4,M,,*59
$GPRMC,142303.500,A,4308.4807,N,07726.6772,W,34.98,266.67,080925,,,A*49
$GPGGA,142303.750,4308.4806,N,07726.6805,W,1,06,1.50,158.2,M,-34.4,M,,*53
$GPRMC,142304.000,A,4308.4805,N,07726.6838,W,34.96,267.15,080925,,,A*42
$GPGGA,142304.250,4308.4804,N,07726.6872,W,1,06,1.41,158.1,M,-34.4,M,,*50
$GPRMC,142304.500,A,4308.4803,N,07726.6905,W,34.83,267.07,080925,,,A*49
$GPGGA,142304.750,4308.4802,N,07726.6938,W,1,06,1.50,158.0,M,-34.4,M,,*5D
$GPRMC,142305.000,A,4308.4801,N,07726.6971,W,34.93,266.93,080925,,,A*41
$GPGGA,142305.250,4308.4799,N,07726.7005,W,1,06,1.41,157.9,M,-34.4,M,,*54
$GPRMC,142305.500,A,4308.4798,N,07726.7038,W,35.19,266.73,080925,,,A*43
$GPGGA,142305.750,4308.4796,N,07726.7071,W,1,06,1.50,157.8,M,-34.4,M,,*5C
$GPRMC,142306.000,A,4308.4794,N,07726.7105,W,34.90,265.98,080925,,,A*40
$GPGGA,142306.250,4308.4792,N,07726.7138,W,1,06,1.41,157.7,M,-34.4,M,,*5D
$GPRMC,142306.500,A,4308.4790,N,07726.7171,W,34.71,265.44,080925,,,A*4C
$GPGGA,142306.750,4308.4788,N,07726.7204,W,1,06,1.50,157.7,M,-34.4,M,,*5F
$GPRMC,142307.000,A,4308.4786,N,07726.7237,W,34.04,264.96,080925,,,A*42
$GPGGA,142307.250,4308.4784,N,07726.7270,W,1,06,1.41,157.6,M,-34.4,M,,*55
$GPRMC,142307.500,A,4308.4782,N,07726.7302,W,33.51,264.90,080925,,,A*45
$GPGGA,142307.750,4308.4779,N,07726.7334,W,1,06,1.50,157.6,M,-34.4,M,,*53
$GPRMC,142308.000,A,4308.4777,N,07726.7366,W,33.46,264.73,080925,,,A*4C
$GPGGA,142308.250,4308.4775,N,07726.7397,W,1,06,1.41,157.5,M,-34.4,M,,*5F
$GPRMC,142308.500,A,4308.4773,N,07726.7429,W,33.18,265.23,080925,,,A*4E
$GPGGA,142308.750,4308.4771,N,07726.7461,W,1,06,1.41,157.5,M,-34.4,M,,*50
$GPRMC,142309.000,A,4308.4770,N,07726.7492,W,32.87,265.16,080925,,,A*48
$GPGGA,142309.250,4308.4768,N,07726.7523,W,1,06,1.41,157.5,M,-34.4,M,,*5B
$GPRMC,142309.500,A,4308.4766,N,07726.7555,W,32.67,265.04,080925,,,A*4D
$GPGGA,142309.750,4308.4764,N,07726.7586,W,1,06,1.50,157.4,M,-34.4,M,,*5C
$GPRMC,142310.000,A,4308.4762,N,07726.7617,W,32.55,265.11,080925,,,A*44
$GPGGA,142310.250,4308.4761,N,07726.7648,W,1,06,1.41,157.3,M,-34.4,M,,*52
$GPRMC,142310.500,A,4308.4758,N,07726.7679,W,31.85,264.64,080925,,,A*4D
$GPGGA,142310.750,4308.4756,N,07726.7709,W,1,06,1.50,157.3,M,-34.4,M,,*57
$GPRMC,142311.000,A,4308.4754,N,07726.7739,W,31.12,264.69,080925,,,A*43
$GPGGA,142311.250,4308.4752,N,07726.7769,W,1,06,1.41,157.2,M,-34.4,M,,*50
$GPRMC,142311.500,A,4308.4750,N,07726.7798,W,30.90,264.63,080925,,,A*48
$GPGGA,142311.750,4308.4748,N,07726.7828,W,1,06,1.50,157.2,M,-34.4,M,,*54
$GPRMC,142312.000,A,4308.4746,N,07726.7857,W,30.59,264.10,080925,,,A*44
$GPGGA,142312.250,4308.4744,N,07726.7886,W,1,06,1.41,157.1,M,-34.4,M,,*59
$GPRMC,142312.500,A,4308.4741,N,07726.7915,W,30.20,263.19,080925,,,A*41
$GPGGA,142312.750,4308.4739,N,07726.7945,W,1,06,1.50,156.9,M,-34.4,M,,*51
$GPRMC,142313.000,A,4308.4737,N,07726.7974,W,30.29,262.80,080925,,,A*4B
$GPGGA,142313.250,4308.4735,N,07726.8004,W,1,06,1.41,156.8,M,-34.4,M,,*5B
$GPRMC,142313.500,A,4308.4732,N,07726.8033,W,30.22,263.11,080925,,,A*4C
$GPGGA,142313.750,4308.4730,N,07726.8063,W,1,06,1.50,156.6,M,-34.4,M,,*54
$GPRMC,142314.000,A,4308.4727,N,07726.8094,W,30.39,262.50,080925,,,A*49
$GPGGA,142314.250,4308.4724,N,07726.8124,W,1,06,1.41,156.4,M,-34.4,M,,*53
$GPRMC,142314.500,A,4308.4721,N,07726.8154,W,30.53,261.52,080925,,,A*4A
$GPGGA,142314.750,4308.4719,N,07726.8185,W,1,06,1.41,156.2,M,-34.4,M,,*55
$GPRMC,142315.000,A,4308.4716,N,07726.8215,W,31.71,261.07,080925,,,A*4D
$GPGGA,142315.250,4308.4712,N,07726.8245,W,1,06,1.41,155.9,M,-34.4,M,,*5D
$GPRMC,142315.500,A,4308.4710,N,07726.8275,W,32.10,261.74,080925,,,A*48
$GPGGA,142315.750,4308.4708,N,07726.8305,W,1,06,1.50,155.6,M,-34.4,M,,*59
$GPRMC,142316.000,A,4308.4706,N,07726.8335,W,32.08,263.29,080925,,,A*4F
$GPGGA,142316.250,4308.4703,N,07726.8365,W,1,06,1.41,155.4,M,-34.4,M,,*50
$GPRMC,142316.500,A,4308.4701,N,07726.8395,W,32.14,264.63,080925,,,A*43
$GPGGA,142316.750,4308.4699,N,07726.8425,W,1,06,1.50,155.1,M,-34.4,M,,*51
$GPRMC,142317.000,A,4308.4698,N,07726.8455,W,32.21,265.93,080925,,,A*45
$GPGGA,142317.250,4308.4696,N,07726.8486,W,1,06,1.41,154.9,M,-34.4,M,,*5A
$GPRMC,142317.500,A,4308.4694,N,07726.8516,W,32.29,266.61,080925,,,A*4C
$GPGGA,142317.750,4308.4693,N,07726.8546,W,1,06,1.50,154.6,M,-34.4,M,,*58
$GPRMC,142318.000,A,4308.4691,N,07726.8576,W,32.07,266.79,080925,,,A*40
$GPGGA,142318.250,4308.4690,N,07726.8606,W,1,06,1.41,154.5,M,-34.4,M,,*55
$GPRMC,142318.500,A,4308.4688,N,07726.8637,W,32.00,266.14,080925,,,A*47
$GPGGA,142318.750,4308.4687,N,07726.8668,W,1,06,1.50,154.3,M,-34.4,M,,*58
$GPRMC,142319.000,A,4308.4684,N,07726.8699,W,32.05,264.88,080925,,,A*49
$GPGGA,142319.250,4308.4682,N,07726.8730,W,1,06,1.41,154.1,M,-34.4,M,,*57
$GPRMC,142319.500,A,4308.4680,N,07726.8761,W,31.87,264.12,080925,,,A*44
$GPGGA,142319.750,4308.4678,N,07726.8791,W,1,06,1.50,153.8,M,-34.4,M,,*52
$GPRMC,142320.000,A,4308.4675,N,07726.8822,W,31.33,263.19,080925,,,A*4A
$GPGGA,142320.250,4308.4673,N,07726.8852,W,1,06,1.41,153.5,M,-34.4,M,,*5B
$GPRMC,142320.500,A,4308.4672,N,07726.8882,W,31.40,263.53,080925,,,A*48
$GPGGA,142320.750,4308.4669,N,07726.8912,W,1,06,1.50,153.2,M,-34.4,M,,*57
$GPRMC,142321.000,A,4308.4667,N,07726.8942,W,31.45,263.35,080925,,,A*40
$GPGGA,142321.250,4308.4664,N,07726.8972,W,1,06,1.41,152.9,M,-34.4,M,,*52
$GPRMC,142321.500,A,4308.4662,N,07726.9002,W,31.63,263.35,080925,,,A*48
$GPGGA,142321.750,4308.4659,N,07726.9033,W,1,06,1.50,152.7,M,-34.4,M,,*5A
$GPRMC,142322.000,A,4308.4655,N,07726.9063,W,31.63,262.68,080925,,,A*44
$GPGGA,142322.250,4308.4652,N,07726.9093,W,1,06,1.41,152.4,M,-34.4,M,,*5E
$GPRMC,142322.500,A,4308.4649,N,07726.9123,W,31.58,262.05,080925,,,A*4A
$GPGGA,142322.750,4308.4646,N,07726.9154,W,1,06,1.50,152.1,M,-34.4,M,,*51
$GPRMC,142323.000,A,4308.4643,N,07726.9184,W,31.58,261.66,080925,,,A*4F
$GPGGA,142323.250,4308.4639,N,07726.9215,W,1,06,1.41,151.8,M,-34.4,M,,*51
$GPRMC,142323.500,A,4308.4636,N,07726.9245,W,31.59,261.51,080925,,,A*43
$GPGGA,142323.750,4308.4633,N,07726.9276,W,1,06,1.50,151.5,M,-34.4,M,,*56
$GPRMC,142324.000,A,4308.4631,N,07726.9306,W,31.58,262.13,080925,,,A*44
$GPGGA,142324.250,4308.4628,N,07726.9336,W,1,06,1.41,151.2,M,-34.4,M,,*5C
$GPRMC,142324.500,A,4308.4626,N,07726.9366,W,31.64,262.67,080925,,,A*4D
$GPGGA,142324.750,4308.4623,N,07726.9396,W,1,06,1.50,150.9,M,-34.4,M,,*52
$GPRMC,142325.000,A,4308.4621,N,07726.9426,W,31.68,263.48,080925,,,A*4D
$GPGGA,142325.250,4308.4619,N,07726.9457,W,1,06,1.41,150.6,M,-34.4,M,,*5A
$GPRMC,142325.500,A,4308.4617,N,07726.9487,W,31.73,264.39,080925,,,A*4D
$GPGGA,142325.750,4308.4616,N,07726.9518,W,1,06,1.50,150.4,M,-34.4,M,,*58
$GPRMC,142326.000,A,4308.4613,N,07726.9548,W,31.97,264.59,080925,,,A*41
$GPGGA,142326.250,4308.4612,N,07726.9579,W,1,06,1.41,150.2,M,-34.4,M,,*5B
$GPRMC,142326.500,A,4308.4609,N,07726.9609,W,32.01,264.35,080925,,,A*4F
$GPGGA,142326.750,4308.4607,N,07726.9640,W,1,06,1.50,149.9,M,-34.4,M,,*50
$GPRMC,142327.000,A,4308.4605,N,07726.9670,W,31.98,264.33,080925,,,A*4C
$GPGGA,142327.250,4308.4603,N,07726.9701,W,1,06,1.41,149.6,M,-34.4,M,,*5B
$GPRMC,142327.500,A,4308.4601,N,07726.9731,W,32.19,264.32,080925,,,A*42
$GPGGA,142327.750,4308.4599,N,07726.9762,W,1,06,1.50,149.4,M,-34.4,M,,*59
$GPRMC,142328.000,A,4308.4597,N,07726.9793,W,32.25,264.76,080925,,,A*43
$GPGGA,142328.250,4308.4596,N,07726.9824,W,1,06,1.41,149.1,M,-34.4,M,,*54
$GPRMC,142328.500,A,4308.4594,N,07726.9855,W,32.27,264.55,080925,,,A*43
$GPGGA,142328.750,4308.4592,N,07726.9886,W,1,06,1.50,148.8,M,-34.4,M,,*55
$GPRMC,142329.000,A,4308.4590,N,07726.9918,W,32.30,264.46,080925,,,A*4F
$GPGGA,142329.250,4308.4588,N,07726.9949,W,1,06,1.41,148.6,M,-34.4,M,,*56
$GPRMC,142329.500,A,4308.4585,N,07726.9980,W,32.11,263.55,080925,,,A*49
$GPGGA,142329.750,4308.4583,N,07727.0011,W,1,06,1.50,148.3,M,-34.4,M,,*51
$GPRMC,142330.000,A,4308.4581,N,07727.0043,W,32.21,264.04,080925,,,A*4E
$GPGGA,142330.250,4308.4579,N,07727.0074,W,1,06,1.41,148.0,M,-34.4,M,,*59
$GPRMC,142330.500,A,4308.4577,N,07727.0105,W,32.33,263.84,080925,,,A*4D
$GPGGA,142330.750,4308.4576,N,07727.0137,W,1,06,1.50,147.7,M,-34.4,M,,*5D
$GPRMC,142331.000,A,4308.4574,N,07727.0168,W,32.15,264.00,080925,,,A*4E
$GPGGA,142331.250,4308.4571,N,07727.0199,W,1,06,1.41,147.4,M,-34.4,M,,*59
$GPRMC,142331.500,A,4308.4569,N,07727.0229,W,32.13,263.84,080925,,,A*4C
$GPGGA,142331.750,4308.4567,N,07727.0260,W,1,06,1.50,147.1,M,-34.4,M,,*5B
$GPRMC,142332.000,A,4308.4565,N,07727.0290,W,31.84,264.03,080925,,,A*41
$GPGGA,142332.250,4308.4563,N,07727.0321,W,1,06,1.41,146.7,M,-34.4,M,,*5A
$GPRMC,142332.500,A,4308.4564,N,07727.0351,W,31.72,265.55,080925,,,A*42
$GPGGA,142332.750,4308.4562,N,07727.0381,W,1,06,1.50,146.4,M,-34.4,M,,*57
$GPRMC,142333.000,A,4308.4562,N,07727.0411,W,31.46,266.55,080925,,,A*47
$GPGGA,142333.250,4308.4564,N,07727.0441,W,1,06,1.41,146.1,M,-34.4,M,,*5B
$GPRMC,142333.500,A,4308.4566,N,07727.0471,W,31.12,268.80,080925,,,A*47
$GPGGA,142333.750,4308.4568,N,07727.0501,W,1,06,1.50,145.8,M,-34.4,M,,*5D
$GPRMC,142334.000,A,4308.4568,N,07727.0530,W,30.94,269.82,080925,,,A*43
$GPGGA,142334.250,4308.4568,N,07727.0560,W,1,06,1.41,145.4,M,-34.4,M,,*54
$GPRMC,142334.500,A,4308.4568,N,07727.0588,W,30.45,270.18,080925,,,A*42
$GPGGA,142334.750,4308.4569,N,07727.0617,W,1,06,1.50,145.1,M,-34.4,M,,*56
$GPRMC,142335.000,A,4308.4569,N,07727.0645,W,29.60,270.18,080925,,,A*4A
$GPGGA,142335.250,4308.4569,N,07727.0672,W,1,06,1.41,144.8,M,-34.4,M,,*59
$GPRMC,142335.500,A,4308.4570,N,07727.0699,W,28.63,270.78,080925,,,A*42
$GPGGA,142335.750,4308.4571,N,07727.0725,W,1,06,1.41,144.4,M,-34.4,M,,*5A
$GPRMC,142336.000,A,4308.4572,N,07727.0749,W,27.92,272.24,080925,,,A*40
$GPGGA,142336.250,4308.4573,N,07727.0774,W,1,06,1.41,144.1,M,-34.4,M,,*5F
$GPRMC,142336.500,A,4308.4574,N,07727.0797,W,25.16,272.64,080925,,,A*4A
$GPGGA,142336.750,4308.4576,N,07727.0820,W,1,06,1.41,143.8,M,-34.4,M,,*5F
$GPRMC,142337.000,A,4308.4579,N,07727.0841,W,23.44,274.98,080925,,,A*43
$GPGGA,142337.250,4308.4580,N,07727.0863,W,1,06,1.41,143.4,M,-34.4,M,,*59
$GPRMC,142337.500,A,4308.4581,N,07727.0883,W,22.19,274.78,080925,,,A*48
$GPGGA,142337.750,4308.4582,N,07727.0903,W,1,06,1.51,143.2,M,-34.4,M,,*5E
$GPRMC,142338.000,A,4308.4583,N,07727.0921,W,20.30,274.64,080925,,,A*4D
$GPGGA,142338.250,4308.4584,N,07727.0939,W,1,06,1.41,142.9,M,-34.4,M,,*50
$GPRMC,142338.500,A,4308.4585,N,07727.0956,W,18.76,274.26,080925,,,A*41
$GPGGA,142338.750,4308.4586,N,07727.0973,W,1,06,1.50,142.9,M,-34.4,M,,*59
$GPRMC,142339.000,A,4308.4587,N,07727.0989,W,17.62,274.45,080925,,,A*4A
$GPGGA,142339.250,4308.4588,N,07727.1005,W,1,06,1.41,142.8,M,-34.4,M,,*5B
$GPRMC,142339.500,A,4308.4587,N,07727.1021,W,17.22,273.35,080925,,,A*41
$GPGGA,142339.750,4308.4587,N,07727.1037,W,1,06,1.51,142.6,M,-34.4,M,,*5F
$GPRMC,142340.000,A,4308.4587,N,07727.1053,W,16.94,271.80,080925,,,A*4F
$GPGGA,142340.250,4308.4588,N,07727.1069,W,1,06,1.51,142.5,M,-34.4,M,,*53
$GPRMC,142340.500,A,4308.4587,N,07727.1084,W,16.55,270.56,080925,,,A*47
$GPGGA,142340.750,4308.4585,N,07727.1100,W,1,06,1.51,142.5,M,-34.4,M,,*55
$GPRMC,142341.000,A,4308.4583,N,07727.1115,W,16.03,260.35,080925,,,A*49
$GPGGA,142341.250,4308.4581,N,07727.1129,W,1,06,1.41,142.4,M,-34.4,M,,*5E
$GPRMC,142341.500,A,4308.4578,N,07727.1142,W,15.29,252.98,080925,,,A*47
$GPGGA,142341.750,4308.4574,N,07727.1155,W,1,06,1.51,142.3,M,-34.4,M,,*5C
$GPRMC,142342.000,A,4308.4570,N,07727.1168,W,15.29,240.96,080925,,,A*4C
$GPGGA,142342.250,4308.4566,N,07727.1180,W,1,06,1.41,142.3,M,-34.4,M,,*50
$GPRMC,142342.500,A,4308.4560,N,07727.1190,W,15.27,229.92,080925,,,A*4A
$GPGGA,142342.750,4308.4555,N,07727.1199,W,1,06,1.41,142.2,M,-34.4,M,,*5C
$GPRMC,142343.000,A,4308.4548,N,07727.1207,W,15.52,216.80,080925,,,A*44
$GPGGA,142343.250,4308.4540,N,07727.1214,W,1,06,1.41,142.2,M,-34.4,M,,*5A
$GPRMC,142343.500,A,4308.4531,N,07727.1220,W,16.06,206.87,080925,,,A*4E
$GPGGA,142343.750,4308.4522,N,07727.1227,W,1,06,1.41,142.1,M,-34.4,M,,*58
$GPRMC,142344.000,A,4308.4512,N,07727.1229,W,17.26,197.17,080925,,,A*45
$GPGGA,142344.250,4308.4501,N,07727.1232,W,1,06,1.41,142.1,M,-34.4,M,,*5F
$GPRMC,142344.500,A,4308.4490,N,07727.1234,W,17.78,191.11,080925,,,A*4C
$GPGGA,142344.750,4308.4477,N,07727.1236,W,1,06,1.51,142.0,M,-34.4,M,,*5E
$GPRMC,142345.000,A,4308.4465,N,07727.1237,W,18.79,186.39,080925,,,A*43
$GPGGA,142345.250,4308.4452,N,07727.1238,W,1,06,1.41,141.9,M,-34.4,M,,*58
$GPRMC,142345.500,A,4308.4438,N,07727.1240,W,19.69,184.10,080925,,,A*47
$GPGGA,142345.750,4308.4425,N,07727.1241,W,1,06,1.51,141.8,M,-34.4,M,,*53
$GPRMC,142346.000,A,4308.4411,N,07727.1242,W,20.23,183.31,080925,,,A*48
$GPGGA,142346.250,4308.4398,N,07727.1244,W,1,06,1.41,141.6,M,-34.4,M,,*5E
$GPRMC,142346.500,A,4308.4384,N,07727.1245,W,20.49,183.54,080925,,,A*4E
$GPGGA,142346.750,4308.4370,N,07727.1247,W,1,06,1.41,141.4,M,-34.4,M,,*5C
$GPRMC,142347.000,A,4308.4357,N,07727.1250,W,21.00,184.65,080925,,,A*49
$GPGGA,142347.250,4308.4342,N,07727.1252,W,1,06,1.41,141.2,M,-34.4,M,,*5B
$GPRMC,142347.500,A,4308.4328,N,07727.1255,W,21.74,187.02,080925,,,A*40
$GPGGA,142347.750,4308.4313,N,07727.1258,W,1,06,1.51,141.1,M,-34.4,M,,*52
$GPRMC,142348.000,A,4308.4298,N,07727.1262,W,22.53,188.77,080925,,,A*4F
$GPGGA,142348.250,4308.4283,N,07727.1265,W,1,06,1.41,140.9,M,-34.4,M,,*56
$GPRMC,142348.500,A,4308.4268,N,07727.1270,W,22.92,190.75,080925,,,A*40
$GPGGA,142348.750,4308.4252,N,07727.1276,W,1,06,1.51,140.7,M,-34.4,M,,*52
$GPRMC,142349.000,A,4308.4236,N,07727.1281,W,23.26,190.90,080925,,,A*44
$GPGGA,142349.250,4308.4220,N,07727.1287,W,1,06,1.41,140.7,M,-34.4,M,,*5C
$GPRMC,142349.500,A,4308.4204,N,07727.1292,W,23.63,190.76,080925,,,A*4B
$GPGGA,142349.750,4308.4187,N,07727.1298,W,1,06,1.51,140.7,M,-34.4,M,,*58
$GPRMC,142350.000,A,4308.4171,N,07727.1303,W,23.72,190.41,080925,,,A*4A
$GPGGA,142350.250,4308.4155,N,07727.1308,W,1,06,1.41,140.6,M,-34.4,M,,*52
$GPRMC,142350.500,A,4308.4139,N,07727.1313,W,23.47,189.95,080925,,,A*45
$GPGGA,142350.750,4308.4123,N,07727.1317,W,1,06,1.51,140.6,M,-34.4,M,,*59
$GPRMC,142351.000,A,4308.4108,N,07727.1321,W,23.08,188.96,080925,,,A*4B
$GPGGA,142351.250,4308.4092,N,07727.1324,W,1,06,1.41,140.4,M,-34.4,M,,*55
$GPRMC,142351.500,A,4308.4077,N,07727.1327,W,22.58,188.82,080925,,,A*40
$GPGGA,142351.750,4308.4062,N,07727.1331,W,1,06,1.51,140.2,M,-34.4,M,,*5C
$GPRMC,142352.000,A,4308.4047,N,07727.1334,W,22.21,188.80,080925,,,A*4B
$GPGGA,142352.250,4308.4032,N,07727.1338,W,1,06,1.41,140.1,M,-34.4,M,,*54
$GPRMC,142352.500,A,4308.4017,N,07727.1342,W,21.83,188.67,080925,,,A*48
$GPGGA,142352.750,4308.4003,N,07727.1346,W,1,06,1.51,140.0,M,-34.4,M,,*5A
$GPRMC,142353.000,A,4308.3988,N,07727.1349,W,21.26,188.08,080925,,,A*49
$GPGGA,142353.250,4308.3974,N,07727.1352,W,1,06,1.41,139.9,M,-34.4,M,,*53
$GPRMC,142353.500,A,4308.3960,N,07727.1355,W,21.01,187.53,080925,,,A*43
$GPGGA,142353.750,4308.3946,N,07727.1358,W,1,06,1.51,139.8,M,-34.4,M,,*5D
$GPRMC,142354.000,A,4308.3931,N,07727.1361,W,20.76,187.24,080925,,,A*43
$GPGGA,142354.250,4308.3917,N,07727.1363,W,1,06,1.41,139.7,M,-34.4,M,,*5D
$GPRMC,142354.500,A,4308.3903,N,07727.1367,W,20.70,188.14,080925,,,A*4B
$GPGGA,142354.750,4308.3889,N,07727.1370,W,1,06,1.51,139.5,M,-34.4,M,,*5F
$GPRMC,142355.000,A,4308.3875,N,07727.1373,W,20.61,188.14,080925,,,A*4A
$GPGGA,142355.250,4308.3861,N,07727.1376,W,1,06,1.41,139.3,M,-34.4,M,,*5C
$GPRMC,142355.500,A,4308.3847,N,07727.1379,W,20.41,187.92,080925,,,A*47
$GPGGA,142355.750,4308.3834,N,07727.1381,W,1,06,1.41,139.1,M,-34.4,M,,*53
$GPRMC,142356.000,A,4308.3822,N,07727.1383,W,19.18,187.05,080925,,,A*4F
$GPGGA,142356.250,4308.3809,N,07727.1385,W,1,06,1.41,138.9,M,-34.4,M,,*56
$GPRMC,142356.500,A,4308.3796,N,07727.1387,W,19.07,186.85,080925,,,A*49
$GPGGA,142356.750,4308.3783,N,07727.1390,W,1,06,1.51,138.7,M,-34.4,M,,*55
$GPRMC,142357.000,A,4308.3771,N,07727.1392,W,18.88,186.77,080925,,,A*4B
$GPGGA,142357.250,4308.3758,N,07727.1394,W,1,06,1.41,138.5,M,-34.4,M,,*50
$GPRMC,142357.500,A,4308.3745,N,07727.1396,W,18.76,187.72,080925,,,A*48
$GPGGA,142357.750,4308.3733,N,07727.1398,W,1,06,1.51,138.3,M,-34.4,M,,*53
$GPRMC,142358.000,A,4308.3721,N,07727.1400,W,18.45,187.77,080925,,,A*4D
$GPGGA,142358.250,4308.3708,N,07727.1403,W,1,06,1.41,138.1,M,-34.4,M,,*57
$GPRMC,142358.500,A,4308.3696,N,07727.1406,W,18.18,188.73,080925,,,A*40
$GPGGA,142358.750,4308.3684,N,07727.1408,W,1,06,1.51,137.9,M,-34.4,M,,*5A
$GPRMC,142359.000,A,4308.3672,N,07727.1410,W,17.80,187.32,080925,,,A*4D
$GPGGA,142359.250,4308.3661,N,07727.1412,W,1,06,1.41,137.8,M,-34.4,M,,*5E
$GPRMC,142359.500,A,4308.3649,N,07727.1413,W,17.15,185.48,080925,,,A*40
$GPGGA,142359.750,4308.3638,N,07727.1415,W,1,06,1.51,137.6,M,-34.4,M,,*5F
$GPRMC,142400.000,A,4308.3626,N,07727.1416,W,16.74,184.38,080925,,,A*42
$GPGGA,142400.250,4308.3615,N,07727.1418,W,1,06,1.41,137.5,M,-34.4,M,,*51
$GPRMC,142400.500,A,4308.3604,N,07727.1419,W,16.32,183.89,080925,,,A*47
$GPGGA,142400.750,4308.3593,N,07727.1420,W,1,06,1.51,137.3,M,-34.4,M,,*55
$GPRMC,142401.000,A,4308.3582,N,07727.1421,W,15.88,183.18,080925,,,A*4F
$GPGGA,142401.250,4308.3572,N,07727.1422,W,1,06,1.41,137.1,M,-34.4,M,,*5F
$GPRMC,142401.500,A,4308.3562,N,07727.1423,W,14.97,183.50,080925,,,A*45
$GPGGA,142401.750,4308.3553,N,07727.1424,W,1,06,1.51,136.9,M,-34.4,M,,*57
$GPRMC,142402.000,A,4308.3543,N,07727.1425,W,14.00,183.93,080925,,,A*47
$GPGGA,142402.250,4308.3534,N,07727.1426,W,1,06,1.41,136.8,M,-34.4,M,,*52
$GPRMC,142402.500,A,4308.3526,N,07727.1427,W,13.08,184.07,080925,,,A*46
$GPGGA,142402.750,4308.3518,N,07727.1427,W,1,06,1.51,136.6,M,-34.4,M,,*57
$GPRMC,142403.000,A,4308.3510,N,07727.1428,W,11.51,184.20,080925,,,A*43
$GPGGA,142403.250,4308.3503,N,07727.1428,W,1,06,1.41,136.5,M,-34.4,M,,*54
$GPRMC,142403.500,A,4308.3496,N,07727.1429,W,9.77,182.96,080925,,,A*7E
$GPGGA,142403.750,4308.3490,N,07727.1431,W,1,06,1.51,136.5,M,-34.4,M,,*53
$GPRMC,142404.000,A,4308.3484,N,07727.1433,W,8.63,184.02,080925,,,A*7B
$GPGGA,142404.250,4308.3478,N,07727.1434,W,1,06,1.41,136.6,M,-34.4,M,,*50
$GPRMC,142404.500,A,4308.3473,N,07727.1436,W,7.62,185.15,080925,,,A*7A
$GPGGA,142404.750,4308.3469,N,07727.1437,W,1,06,1.51,136.8,M,-34.4,M,,*59
$GPRMC,142405.000,A,4308.3465,N,07727.1439,W,6.00,185.87,080925,,,A*78
$GPGGA,142405.250,4308.3461,N,07727.1441,W,1,06,1.51,136.9,M,-34.4,M,,*55
$GPRMC,142405.500,A,4308.3458,N,07727.1442,W,4.76,186.41,080925,,,A*75
$GPGGA,142405.750,4308.3455,N,07727.1444,W,1,06,1.51,137.1,M,-34.4,M,,*5B
$GPRMC,142406.000,A,4308.3451,N,07727.1445,W,4.57,184.17,080925,,,A*7F
$GPGGA,142406.250,4308.3447,N,07727.1445,W,1,06,1.41,137.1,M,-34.4,M,,*5E
$GPRMC,142406.500,A,4308.3443,N,07727.1445,W,5.38,176.28,080925,,,A*70
$GPGGA,142406.750,4308.3439,N,07727.1444,W,1,06,1.51,137.0,M,-34.4,M,,*53
$GPRMC,142407.000,A,4308.3434,N,07727.1444,W,6.12,166.81,080925,,,A*7C
$GPGGA,142407.250,4308.3429,N,07727.1443,W,1,06,1.41,137.1,M,-34.4,M,,*51
$GPRMC,142407.500,A,4308.3422,N,07727.1441,W,7.67,159.98,080925,,,A*7C
$GPGGA,142407.750,4308.3415,N,07727.1437,W,1,06,1.51,137.3,M,-34.4,M,,*5B
$GPRMC,142408.000,A,4308.3409,N,07727.1433,W,9.33,147.67,080925,,,A*7A
$GPGGA,142408.250,4308.3404,N,07727.1428,W,1,06,1.41,137.4,M,-34.4,M,,*59
$GPRMC,142408.500,A,4308.3400,N,07727.1424,W,8.76,137.02,080925,,,A*74
$GPGGA,142408.750,4308.3395,N,07727.1418,W,1,06,1.41,137.5,M,-34.4,M,,*51
$GPRMC,142409.000,A,4308.3391,N,07727.1411,W,9.43,132.46,080925,,,A*7B
$GPGGA,142409.250,4308.3387,N,07727.1404,W,1,06,1.41,137.4,M,-34.4,M,,*5A
$GPRMC,142409.500,A,4308.3387,N,07727.1395,W,9.72,110.06,080925,,,A*74
$GPGGA,142409.750,4308.3388,N,07727.1386,W,1,06,1.51,137.4,M,-34.4,M,,*5C
$GPRMC,142410.000,A,4308.3386,N,07727.1376,W,10.69,99.95,080925,,,A*7D
$GPGGA,142410.250,4308.3384,N,07727.1365,W,1,06,1.41,137.3,M,-34.4,M,,*56
$GPRMC,142410.500,A,4308.3383,N,07727.1353,W,11.75,96.30,080925,,,A*76
$GPGGA,142410.750,4308.3382,N,07727.1340,W,1,06,1.51,137.2,M,-34.4,M,,*52
$GPRMC,142411.000,A,4308.3380,N,07727.1326,W,13.12,94.60,080925,,,A*77
$GPGGA,142411.250,4308.3379,N,07727.1313,W,1,05,1.77,136.9,M,-34.4,M,,*59
$GPRMC,142411.500,A,4308.3379,N,07727.1298,W,14.37,92.25,080925,,,A*77
$GPGGA,142411.750,4308.3378,N,07727.1282,W,1,05,2.20,136.6,M,-34.4,M,,*5A
$GPRMC,142412.000,A,4308.3381,N,07727.1266,W,15.71,87.73,080925,,,A*73
$GPGGA,142412.250,4308.3383,N,07727.1250,W,1,05,1.77,136.3,M,-34.4,M,,*53
$GPRMC,142412.500,A,4308.3384,N,07727.1232,W,17.21,84.70,080925,,,A*75
$GPGGA,142412.750,4308.3384,N,07727.1214,W,1,05,2.20,135.9,M,-34.4,M,,*59
$GPRMC,142413.000,A,4308.3383,N,07727.1195,W,18.84,86.19,080925,,,A*75
$GPGGA,142413.250,4308.3383,N,07727.1175,W,1,06,1.41,136.0,M,-34.4,M,,*53
$GPRMC,142413.500,A,4308.3382,N,07727.1155,W,19.79,87.96,080925,,,A*78
$GPGGA,142413.750,4308.3380,N,07727.1134,W,1,06,1.51,135.7,M,-34.4,M,,*55
$GPRMC,142414.000,A,4308.3378,N,07727.1111,W,20.97,90.01,080925,,,A*7D
$GPGGA,142414.250,4308.3378,N,07727.1090,W,1,06,1.41,135.5,M,-34.4,M,,*5C
$GPRMC,142414.500,A,4308.3377,N,07727.1067,W,21.63,90.42,080925,,,A*7A
$GPGGA,142414.750,4308.3377,N,07727.1044,W,1,06,1.51,135.2,M,-34.4,M,,*59
$GPRMC,142415.000,A,4308.3376,N,07727.1020,W,22.51,90.76,080925,,,A*79
$GPGGA,142415.250,4308.3375,N,07727.0997,W,1,06,1.41,135.4,M,-34.4,M,,*5E
$GPRMC,142415.500,A,4308.3374,N,07727.0973,W,23.01,91.53,080925,,,A*72
$GPGGA,142415.750,4308.3371,N,07727.0949,W,1,06,1.51,135.1,M,-34.4,M,,*58
$GPRMC,142416.000,A,4308.3369,N,07727.0925,W,24.06,93.14,080925,,,A*7A
$GPGGA,142416.250,4308.3367,N,07727.0900,W,1,06,1.41,134.8,M,-34.4,M,,*5D
$GPRMC,142416.500,A,4308.3365,N,07727.0876,W,24.82,93.82,080925,,,A*77
$GPGGA,142416.750,4308.3364,N,07727.0852,W,1,06,1.51,134.5,M,-34.4,M,,*51
$GPRMC,142417.000,A,4308.3362,N,07727.0828,W,24.80,94.69,080925,,,A*7F
$GPGGA,142417.250,4308.3361,N,07727.0804,W,1,06,1.51,134.3,M,-34.4,M,,*55
$GPRMC,142417.500,A,4308.3361,N,07727.0780,W,24.61,94.16,080925,,,A*73
$GPGGA,142417.750,4308.3359,N,07727.0755,W,1,06,1.51,134.0,M,-34.4,M,,*53
$GPRMC,142418.000,A,4308.3356,N,07727.0729,W,24.52,95.02,080925,,,A*7A
$GPGGA,142418.250,4308.3354,N,07727.0706,W,1,06,1.51,133.8,M,-34.4,M,,*5D
$GPRMC,142418.500,A,4308.3352,N,07727.0683,W,24.15,95.89,080925,,,A*7A
$GPGGA,142418.750,4308.3350,N,07727.0660,W,1,06,1.51,133.7,M,-34.4,M,,*52
$GPRMC,142419.000,A,4308.3348,N,07727.0637,W,23.42,96.76,080925,,,A*7C
$GPGGA,142419.250,4308.3346,N,07727.0615,W,1,06,1.51,133.4,M,-34.4,M,,*50
$GPRMC,142419.500,A,4308.3343,N,07727.0592,W,23.10,97.88,080925,,,A*79
$GPGGA,142419.750,4308.3342,N,07727.0570,W,1,06,1.51,133.1,M,-34.4,M,,*54
$GPRMC,142420.000,A,4308.3341,N,07727.0547,W,22.87,97.75,080925,,,A*71
$GPGGA,142420.250,4308.3340,N,07727.0525,W,1,06,1.51,133.0,M,-34.4,M,,*58
$GPRMC,142420.500,A,4308.3338,N,07727.0502,W,22.52,97.55,080925,,,A*71
$GPGGA,142420.750,4308.3336,N,07727.0480,W,1,06,1.51,132.8,M,-34.4,M,,*5B
$GPRMC,142421.000,A,4308.3334,N,07727.0458,W,22.09,97.73,080925,,,A*7D
$GPGGA,142421.250,4308.3332,N,07727.0437,W,1,06,1.51,132.5,M,-34.4,M,,*5A
$GPRMC,142421.500,A,4308.3330,N,07727.0417,W,21.41,98.51,080925,,,A*77
$GPGGA,142421.750,4308.3327,N,07727.0397,W,1,06,1.51,132.2,M,-34.4,M,,*51
$GPRMC,142422.000,A,4308.3325,N,07727.0377,W,20.82,99.46,080925,,,A*7D
$GPGGA,142422.250,4308.3323,N,07727.0358,W,1,05,1.77,132.0,M,-34.4,M,,*55
$GPRMC,142422.500,A,4308.3320,N,07727.0339,W,20.18,100.59,080925,,,A*4B
$GPGGA,142422.750,4308.3318,N,07727.0320,W,1,05,2.21,131.8,M,-34.4,M,,*5C
$GPRMC,142423.000,A,4308.3320,N,07727.0302,W,18.94,98.59,080925,,,A*78
$GPGGA,142423.250,4308.3320,N,07727.0284,W,1,06,1.51,131.7,M,-34.4,M,,*54
$GPRMC,142423.500,A,4308.3320,N,07727.0266,W,18.57,97.08,080925,,,A*7A
$GPGGA,142423.750,4308.3320,N,07727.0247,W,1,06,1.51,131.6,M,-34.4,M,,*5F
$GPRMC,142424.000,A,4308.3314,N,07727.0225,W,18.87,98.73,080925,,,A*76
$GPGGA,142424.250,4308.3309,N,07727.0203,W,1,06,1.41,131.7,M,-34.4,M,,*56
$GPRMC,142424.500,A,4308.3305,N,07727.0183,W,19.36,101.79,080925,,,A*4C
$GPGGA,142424.750,4308.3301,N,07727.0164,W,1,06,1.51,131.6,M,-34.4,M,,*59
$GPRMC,142425.000,A,4308.3297,N,07727.0145,W,19.27,104.04,080925,,,A*47
$GPGGA,142425.250,4308.3293,N,07727.0128,W,1,06,1.41,131.3,M,-34.4,M,,*5B
$GPRMC,142425.500,A,4308.3290,N,07727.0111,W,18.47,105.56,080925,,,A*45
$GPGGA,142425.750,4308.3287,N,07727.0097,W,1,06,1.41,131.9,M,-34.4,M,,*54
$GPRMC,142426.000,A,4308.3284,N,07727.0083,W,16.97,108.28,080925,,,A*4B
$GPGGA,142426.250,4308.3279,N,07727.0070,W,1,06,1.41,131.8,M,-34.4,M,,*5B
$GPRMC,142426.500,A,4308.3275,N,07727.0054,W,16.50,110.72,080925,,,A*47
$GPGGA,142426.750,4308.3271,N,07727.0040,W,1,06,1.41,131.6,M,-34.4,M,,*5B
$GPRMC,142427.000,A,4308.3266,N,07727.0026,W,15.98,112.53,080925,,,A*42
$GPGGA,142427.250,4308.3259,N,07727.0013,W,1,06,1.41,131.8,M,-34.4,M,,*5D
$GPRMC,142427.500,A,4308.3252,N,07727.0001,W,15.68,118.20,080925,,,A*44
$GPGGA,142427.750,4308.3244,N,07726.9989,W,1,06,1.41,131.6,M,-34.4,M,,*58
$GPRMC,142428.000,A,4308.3237,N,07726.9977,W,15.47,122.31,080925,,,A*49
$GPGGA,142428.250,4308.3230,N,07726.9966,W,1,06,1.41,131.4,M,-34.4,M,,*52
$GPRMC,142428.500,A,4308.3221,N,07726.9955,W,15.35,126.13,080925,,,A*4A
$GPGGA,142428.750,4308.3213,N,07726.9946,W,1,06,1.41,131.4,M,-34.4,M,,*54
$GPRMC,142429.000,A,4308.3201,N,07726.9940,W,14.84,134.44,080925,,,A*42
$GPGGA,142429.250,4308.3191,N,07726.9934,W,1,06,1.41,131.2,M,-34.4,M,,*5A
$GPRMC,142429.500,A,4308.3181,N,07726.9927,W,14.63,140.06,080925,,,A*41
$GPGGA,142429.750,4308.3172,N,07726.9921,W,1,06,1.41,131.0,M,-34.4,M,,*54
$GPRMC,142430.000,A,4308.3150,N,07726.9922,W,15.35,153.41,080925,,,A*46
$GPGGA,142430.250,4308.3141,N,07726.9920,W,1,06,1.41,130.8,M,-34.4,M,,*51
$GPRMC,142430.500,A,4308.3126,N,07726.9916,W,14.31,162.98,080925,,,A*46
$GPGGA,142430.750,4308.3106,N,07726.9909,W,1,06,1.51,131.1,M,-34.4,M,,*55
$GPRMC,142431.000,A,4308.3088,N,07726.9904,W,15.55,172.31,080925,,,A*45
$GPGGA,142431.250,4308.3072,N,07726.9899,W,1,06,1.41,131.3,M,-34.4,M,,*58
$GPRMC,142431.500,A,4308.3058,N,07726.9896,W,16.15,175.25,080925,,,A*42
$GPGGA,142431.750,4308.3042,N,07726.9895,W,1,06,1.41,131.2,M,-34.4,M,,*53
$GPRMC,142432.000,A,4308.3026,N,07726.9895,W,17.96,177.88,080925,,,A*41
$GPGGA,142432.250,4308.3011,N,07726.9894,W,1,06,1.41,131.0,M,-34.4,M,,*50
$GPRMC,142432.500,A,4308.2997,N,07726.9893,W,18.71,178.42,080925,,,A*4F
$GPGGA,142432.750,4308.2982,N,07726.9892,W,1,06,1.51,130.9,M,-34.4,M,,*58
$GPRMC,142433.000,A,4308.2968,N,07726.9891,W,19.19,178.81,080925,,,A*49
$GPGGA,142433.250,4308.2954,N,07726.9890,W,1,06,1.41,130.8,M,-34.4,M,,*55
$GPRMC,142433.500,A,4308.2939,N,07726.9889,W,19.79,179.67,080925,,,A*4E
$GPGGA,142433.750,4308.2924,N,07726.9888,W,1,06,1.41,130.6,M,-34.4,M,,*50
$GPRMC,142434.000,A,4308.2908,N,07726.9887,W,20.07,179.50,080925,,,A*47
$GPGGA,142434.250,4308.2894,N,07726.9886,W,1,06,1.41,130.5,M,-34.4,M,,*55
$GPRMC,142434.500,A,4308.2878,N,07726.9886,W,20.06,179.65,080925,,,A*42
$GPGGA,142434.750,4308.2863,N,07726.9886,W,1,06,1.51,130.3,M,-34.4,M,,*5F
$GPRMC,142435.000,A,4308.2847,N,07726.9885,W,20.21,178.05,080925,,,A*4B
$GPGGA,142435.250,4308.2832,N,07726.9885,W,1,06,1.51,130.1,M,-34.4,M,,*5E
$GPRMC,142435.500,A,4308.2817,N,07726.9884,W,20.30,177.79,080925,,,A*4E
$GPGGA,142435.750,4308.2801,N,07726.9884,W,1,06,1.51,129.9,M,-34.4,M,,*5A
$GPRMC,142436.000,A,4308.2786,N,07726.9884,W,20.62,177.03,080925,,,A*45
$GPGGA,142436.250,4308.2770,N,07726.9884,W,1,06,1.41,129.8,M,-34.4,M,,*55
$GPRMC,142436.500,A,4308.2755,N,07726.9885,W,20.71,177.69,080925,,,A*41
$GPGGA,142436.750,4308.2740,N,07726.9885,W,1,06,1.51,129.6,M,-34.4,M,,*5D
$GPRMC,142437.000,A,4308.2724,N,07726.9885,W,20.66,178.50,080925,,,A*40
$GPGGA,142437.250,4308.2709,N,07726.9885,W,1,06,1.41,129.7,M,-34.4,M,,*54
$GPRMC,142437.500,A,4308.2694,N,07726.9886,W,20.68,178.74,080925,,,A*44
$GPGGA,142437.750,4308.2680,N,07726.9886,W,1,06,1.41,129.6,M,-34.4,M,,*53
$GPRMC,142438.000,A,4308.2666,N,07726.9887,W,20.64,179.12,080925,,,A*4F
$GPGGA,142438.250,4308.2651,N,07726.9887,W,1,06,1.41,129.6,M,-34.4,M,,*54
$GPRMC,142438.500,A,4308.2638,N,07726.9889,W,20.18,180.11,080925,,,A*41
$GPGGA,142438.750,4308.2624,N,07726.9891,W,1,06,1.41,129.7,M,-34.4,M,,*55
$GPRMC,142439.000,A,4308.2611,N,07726.9892,W,19.43,181.05,080925,,,A*44
$GPGGA,142439.250,4308.2599,N,07726.9893,W,1,06,1.41,129.6,M,-34.4,M,,*57
$GPRMC,142439.500,A,4308.2585,N,07726.9893,W,19.02,179.60,080925,,,A*4F
$GPGGA,142439.750,4308.2573,N,07726.9891,W,1,06,1.41,129.6,M,-34.4,M,,*54
$GPRMC,142440.000,A,4308.2560,N,07726.9890,W,18.50,176.13,080925,,,A*41
$GPGGA,142440.250,4308.2546,N,07726.9888,W,1,06,1.41,129.5,M,-34.4,M,,*52
$GPRMC,142440.500,A,4308.2533,N,07726.9885,W,18.45,173.05,080925,,,A*40
$GPGGA,142440.750,4308.2519,N,07726.9882,W,1,06,1.51,129.4,M,-34.4,M,,*57
$GPRMC,142441.000,A,4308.2506,N,07726.9879,W,18.72,170.69,080925,,,A*4C
$GPGGA,142441.250,4308.2492,N,07726.9876,W,1,06,1.41,129.2,M,-34.4,M,,*5D
$GPRMC,142441.500,A,4308.2478,N,07726.9874,W,18.81,169.89,080925,,,A*46
$GPGGA,142441.750,4308.2462,N,07726.9875,W,1,06,1.51,129.4,M,-34.4,M,,*53
$GPRMC,142442.000,A,4308.2447,N,07726.9874,W,19.37,168.95,080925,,,A*4C
$GPGGA,142442.250,4308.2433,N,07726.9872,W,1,06,1.41,129.4,M,-34.4,M,,*57
$GPRMC,142442.500,A,4308.2420,N,07726.9869,W,18.94,166.89,080925,,,A*4F
$GPGGA,142442.750,4308.2408,N,07726.9864,W,1,06,1.51,129.3,M,-34.4,M,,*5B
$GPRMC,142443.000,A,4308.2395,N,07726.9859,W,18.68,164.67,080925,,,A*40
$GPGGA,142443.250,4308.2383,N,07726.9854,W,1,06,1.41,129.2,M,-34.4,M,,*58
$GPRMC,142443.500,A,4308.2373,N,07726.9847,W,17.79,160.74,080925,,,A*4B
$GPGGA,142443.750,4308.2357,N,07726.9838,W,1,06,1.51,129.2,M,-34.4,M,,*5F
$GPRMC,142444.000,A,4308.2343,N,07726.9830,W,19.23,154.22,080925,,,A*4F
$GPGGA,142444.250,4308.2330,N,07726.9822,W,1,06,1.41,129.3,M,-34.4,M,,*57
$GPRMC,142444.500,A,4308.2317,N,07726.9814,W,19.44,152.76,080925,,,A*4B
$GPGGA,142444.750,4308.2305,N,07726.9805,W,1,06,1.51,129.3,M,-34.4,M,,*50
$GPRMC,142445.000,A,4308.2292,N,07726.9795,W,19.74,149.35,080925,,,A*4B
$GPGGA,142445.250,4308.2279,N,07726.9785,W,1,06,1.51,129.3,M,-34.4,M,,*59
$GPRMC,142445.500,A,4308.2267,N,07726.9776,W,19.79,147.53,080925,,,A*4A
$GPGGA,142445.750,4308.2256,N,07726.9765,W,1,06,1.51,129.3,M,-34.4,M,,*5F
$GPRMC,142446.000,A,4308.2245,N,07726.9755,W,19.66,145.39,080925,,,A*4D
$GPGGA,142446.250,4308.2233,N,07726.9743,W,1,06,1.51,129.3,M,-34.4,M,,*5E
$GPRMC,142446.500,A,4308.2223,N,07726.9732,W,19.61,142.99,080925,,,A*43
$GPGGA,142446.750,4308.2212,N,07726.9719,W,1,06,1.51,129.3,M,-34.4,M,,*57
$GPRMC,142447.000,A,4308.2204,N,07726.9707,W,19.27,139.24,080925,,,A*4C
$GPGGA,142447.250,4308.2196,N,07726.9694,W,1,06,1.41,129.3,M,-34.4,M,,*59
$GPRMC,142447.500,A,4308.2188,N,07726.9681,W,19.02,135.34,080925,,,A*4B
$GPGGA,142447.750,4308.2178,N,07726.9668,W,1,06,1.51,129.3,M,-34.4,M,,*5E
$GPRMC,142448.000,A,4308.2170,N,07726.9655,W,18.72,134.12,080925,,,A*4C
$GPGGA,142448.250,4308.2163,N,07726.9642,W,1,06,1.41,129.3,M,-34.4,M,,*57
$GPRMC,142448.500,A,4308.2155,N,07726.9629,W,18.31,132.04,080925,,,A*43
$GPGGA,142448.750,4308.2148,N,07726.9616,W,1,06,1.51,129.3,M,-34.4,M,,*5B
$GPRMC,142449.000,A,4308.2141,N,07726.9604,W,17.65,131.72,080925,,,A*41
$GPGGA,142449.250,4308.2133,N,07726.9593,W,1,06,1.41,129.3,M,-34.4,M,,*5C
$GPRMC,142449.500,A,4308.2125,N,07726.9582,W,17.11,133.13,080925,,,A*4D
$GPGGA,142449.750,4308.2117,N,07726.9577,W,1,06,1.51,129.6,M,-34.4,M,,*51
$GPRMC,142450.000,A,4308.2109,N,07726.9570,W,16.30,136.33,080925,,,A*46
$GPGGA,142450.250,4308.2100,N,07726.9565,W,1,06,1.41,130.1,M,-34.4,M,,*57
$GPRMC,142450.500,A,4308.2092,N,07726.9558,W,16.05,136.82,080925,,,A*46
$GPGGA,142450.750,4308.2084,N,07726.9551,W,1,06,1.52,130.4,M,-34.4,M,,*5F
$GPRMC,142451.000,A,4308.2076,N,07726.9544,W,15.50,139.54,080925,,,A*42
$GPGGA,142451.250,4308.2067,N,07726.9537,W,1,06,1.51,130.5,M,-34.4,M,,*54
$GPRMC,142451.500,A,4308.2059,N,07726.9533,W,14.57,144.97,080925,,,A*49
$GPGGA,142451.750,4308.2050,N,07726.9533,W,1,06,1.51,130.8,M,-34.4,M,,*5C
$GPRMC,142452.000,A,4308.2042,N,07726.9528,W,14.11,153.40,080925,,,A*41
$GPGGA,142452.250,4308.2033,N,07726.9524,W,1,06,1.41,130.9,M,-34.4,M,,*59
$GPRMC,142452.500,A,4308.2024,N,07726.9520,W,14.09,158.37,080925,,,A*4E
$GPGGA,142452.750,4308.2015,N,07726.9520,W,1,06,1.41,131.0,M,-34.4,M,,*54
$GPRMC,142453.000,A,4308.2008,N,07726.9521,W,13.39,166.89,080925,,,A*49
$GPGGA,142453.250,4308.2001,N,07726.9528,W,1,06,1.41,131.0,M,-34.4,M,,*5D
$GPRMC,142453.500,A,4308.1992,N,07726.9531,W,12.75,183.05,080925,,,A*42
$GPGGA,142453.750,4308.1982,N,07726.9534,W,1,06,1.52,131.1,M,-34.4,M,,*57
$GPRMC,142454.000,A,4308.1972,N,07726.9540,W,12.70,193.18,080925,,,A*40
$GPGGA,142454.250,4308.1963,N,07726.9545,W,1,06,1.41,131.1,M,-34.4,M,,*5E
$GPRMC,142454.500,A,4308.1954,N,07726.9551,W,12.39,200.52,080925,,,A*4B
$GPGGA,142454.750,4308.1946,N,07726.9558,W,1,06,1.52,130.9,M,-34.4,M,,*5B
$GPRMC,142455.000,A,4308.1938,N,07726.9566,W,12.65,209.34,080925,,,A*41
$GPGGA,142455.250,4308.1929,N,07726.9574,W,1,06,1.41,130.7,M,-34.4,M,,*54
$GPRMC,142455.500,A,4308.1921,N,07726.9585,W,13.41,216.51,080925,,,A*4B
$GPGGA,142455.750,4308.1913,N,07726.9596,W,1,06,1.52,130.5,M,-34.4,M,,*54
$GPRMC,142456.000,A,4308.1905,N,07726.9607,W,14.60,221.42,080925,,,A*40
$GPGGA,142456.250,4308.1897,N,07726.9619,W,1,06,1.52,130.2,M,-34.4,M,,*5C
$GPRMC,142456.500,A,4308.1889,N,07726.9630,W,15.59,225.30,080925,,,A*4E
$GPGGA,142456.750,4308.1881,N,07726.9642,W,1,06,1.52,129.8,M,-34.4,M,,*52
$GPRMC,142457.000,A,4308.1872,N,07726.9655,W,16.37,226.59,080925,,,A*4A
$GPGGA,142457.250,4308.1864,N,07726.9669,W,1,06,1.52,129.7,M,-34.4,M,,*5B
$GPRMC,142457.500,A,4308.1855,N,07726.9682,W,17.23,227.30,080925,,,A*4A
$GPGGA,142457.750,4308.1847,N,07726.9696,W,1,06,1.52,129.5,M,-34.4,M,,*5D
$GPRMC,142458.000,A,4308.1839,N,07726.9709,W,17.72,227.90,080925,,,A*46
$GPGGA,142458.250,4308.1829,N,07726.9723,W,1,06,1.41,130.0,M,-34.4,M,,*5F
$GPRMC,142458.500,A,4308.1821,N,07726.9736,W,17.82,228.70,080925,,,A*48
$GPGGA,142458.750,4308.1813,N,07726.9749,W,1,06,1.52,129.7,M,-34.4,M,,*52
$GPRMC,142459.000,A,4308.1804,N,07726.9763,W,17.90,228.95,080925,,,A*43
$GPGGA,142459.250,4308.1797,N,07726.9778,W,1,06,1.52,129.5,M,-34.4,M,,*55
$GPRMC,142459.500,A,4308.1790,N,07726.9794,W,18.35,232.69,080925,,,A*44
$GPGGA,142459.750,4308.1783,N,07726.9810,W,1,06,1.52,129.4,M,-34.4,M,,*55
$GPRMC,142500.000,A,4308.1776,N,07726.9825,W,18.33,235.58,080925,,,A*42
$GPGGA,142500.250,4308.1769,N,07726.9843,W,1,06,1.52,129.3,M,-34.4,M,,*58
$GPRMC,142500.500,A,4308.1763,N,07726.9861,W,19.04,239.32,080925,,,A*46
$GPGGA,142500.750,4308.1758,N,07726.9877,W,1,06,1.52,129.2,M,-34.4,M,,*59
$GPRMC,142501.000,A,4308.1753,N,07726.9895,W,19.03,247.01,080925,,,A*44
$GPGGA,142501.250,4308.1748,N,07726.9913,W,1,06,1.52,129.1,M,-34.4,M,,*5C
$GPRMC,142501.500,A,4308.1744,N,07726.9931,W,19.35,252.39,080925,,,A*42
$GPGGA,142501.750,4308.1741,N,07726.9950,W,1,06,1.52,128.9,M,-34.4,M,,*5E
$GPRMC,142502.000,A,4308.1738,N,07726.9972,W,20.22,258.33,080925,,,A*44
$GPGGA,142502.250,4308.1735,N,07726.9995,W,1,06,1.52,129.2,M,-34.4,M,,*58
$GPRMC,142502.500,A,4308.1734,N,07727.0017,W,20.53,264.15,080925,,,A*42
$GPGGA,142502.750,4308.1733,N,07727.0038,W,1,06,1.52,129.2,M,-34.4,M,,*5D
$GPRMC,142503.000,A,4308.1732,N,07727.0058,W,20.78,265.97,080925,,,A*49
$GPGGA,142503.250,4308.1732,N,07727.0079,W,1,06,1.52,129.0,M,-34.4,M,,*5F
$GPRMC,142503.500,A,4308.1733,N,07727.0100,W,21.01,270.06,080925,,,A*42
$GPGGA,142503.750,4308.1734,N,07727.0121,W,1,06,1.52,128.9,M,-34.4,M,,*58
$GPRMC,142504.000,A,4308.1734,N,07727.0142,W,21.11,271.55,080925,,,A*47
$GPGGA,142504.250,4308.1735,N,07727.0162,W,1,06,1.41,128.9,M,-34.4,M,,*5E
$GPRMC,142504.500,A,4308.1736,N,07727.0182,W,21.21,273.52,080925,,,A*4A
$GPGGA,142504.750,4308.1738,N,07727.0202,W,1,06,1.52,128.8,M,-34.4,M,,*50
$GPRMC,142505.000,A,4308.1739,N,07727.0223,W,21.31,275.15,080925,,,A*4D
$GPGGA,142505.250,4308.1741,N,07727.0243,W,1,06,1.52,128.8,M,-34.4,M,,*5F
$GPRMC,142505.500,A,4308.1742,N,07727.0263,W,20.98,275.64,080925,,,A*44
$GPGGA,142505.750,4308.1743,N,07727.0283,W,1,06,1.52,128.7,M,-34.4,M,,*5B
$GPRMC,142506.000,A,4308.1745,N,07727.0302,W,20.36,275.42,080925,,,A*43
$GPGGA,142506.250,4308.1746,N,07727.0321,W,1,06,1.52,128.8,M,-34.4,M,,*5E
$GPRMC,142506.500,A,4308.1747,N,07727.0341,W,19.89,275.04,080925,,,A*4F
$GPGGA,142506.750,4308.1748,N,07727.0360,W,1,06,1.52,128.8,M,-34.4,M,,*50
$GPRMC,142507.000,A,4308.1748,N,07727.0378,W,19.33,274.33,080925,,,A*4A
$GPGGA,142507.250,4308.1749,N,07727.0396,W,1,06,1.52,128.7,M,-34.4,M,,*53
$GPRMC,142507.500,A,4308.1750,N,07727.0415,W,18.82,273.56,080925,,,A*45
$GPGGA,142507.750,4308.1750,N,07727.0433,W,1,06,1.52,128.7,M,-34.4,M,,*56
$GPRMC,142508.000,A,4308.1750,N,07727.0451,W,18.35,272.44,080925,,,A*41
$GPGGA,142508.250,4308.1750,N,07727.0468,W,1,06,1.52,128.8,M,-34.4,M,,*5D
$GPRMC,142508.500,A,4308.1750,N,07727.0486,W,18.00,272.39,080925,,,A*42
$GPGGA,142508.750,4308.1751,N,07727.0503,W,1,06,1.52,128.9,M,-34.4,M,,*54
$GPRMC,142509.000,A,4308.1751,N,07727.0520,W,17.61,272.68,080925,,,A*46
$GPGGA,142509.250,4308.1751,N,07727.0538,W,1,06,1.52,128.9,M,-34.4,M,,*58
$GPRMC,142509.500,A,4308.1752,N,07727.0555,W,17.55,272.97,080925,,,A*45
$GPGGA,142509.750,4308.1752,N,07727.0572,W,1,06,1.52,128.8,M,-34.4,M,,*51
$GPRMC,142510.000,A,4308.1753,N,07727.0589,W,17.50,273.21,080925,,,A*41
$GPGGA,142510.250,4308.1753,N,07727.0606,W,1,06,1.52,128.7,M,-34.4,M,,*52
$GPRMC,142510.500,A,4308.1754,N,07727.0623,W,17.39,272.83,080925,,,A*46
$GPGGA,142510.750,4308.1753,N,07727.0642,W,1,06,1.52,129.0,M,-34.4,M,,*51
$GPRMC,142511.000,A,4308.1752,N,07727.0660,W,17.14,271.20,080925,,,A*46
$GPGGA,142511.250,4308.1752,N,07727.0679,W,1,06,1.52,129.7,M,-34.4,M,,*5B
$GPRMC,142511.500,A,4308.1751,N,07727.0696,W,16.89,269.62,080925,,,A*43
$GPGGA,142511.750,4308.1750,N,07727.0712,W,1,06,1.52,130.0,M,-34.4,M,,*5F
$GPRMC,142512.000,A,4308.1748,N,07727.0727,W,16.56,265.96,080925,,,A*43
$GPGGA,142512.250,4308.1745,N,07727.0743,W,1,06,1.52,130.3,M,-34.4,M,,*5A
$GPRMC,142512.500,A,4308.1742,N,07727.0758,W,16.25,260.69,080925,,,A*45
$GPGGA,142512.750,4308.1739,N,07727.0773,W,1,06,1.52,130.6,M,-34.4,M,,*52
$GPRMC,142513.000,A,4308.1736,N,07727.0787,W,15.30,254.67,080925,,,A*4E
$GPGGA,142513.250,4308.1732,N,07727.0800,W,1,06,1.52,131.0,M,-34.4,M,,*51
$GPRMC,142513.500,A,4308.1728,N,07727.0813,W,14.38,248.41,080925,,,A*46
$GPGGA,142513.750,4308.1723,N,07727.0825,W,1,06,1.52,131.2,M,-34.4,M,,*51
$GPRMC,142514.000,A,4308.1717,N,07727.0838,W,14.21,237.87,080925,,,A*4B
$GPGGA,142514.250,4308.1711,N,07727.0849,W,1,06,1.41,131.6,M,-34.4,M,,*5E
$GPRMC,142514.500,A,4308.1704,N,07727.0859,W,14.30,228.15,080925,,,A*4E
$GPGGA,142514.750,4308.1696,N,07727.0868,W,1,06,1.52,132.0,M,-34.4,M,,*51
$GPRMC,142515.000,A,4308.1688,N,07727.0876,W,14.64,216.43,080925,,,A*4D
$GPGGA,142515.250,4308.1679,N,07727.0884,W,1,06,1.52,132.4,M,-34.4,M,,*52
$GPRMC,142515.500,A,4308.1670,N,07727.0893,W,15.46,212.53,080925,,,A*40
$GPGGA,142515.750,4308.1660,N,07727.0900,W,1,06,1.52,133.1,M,-34.4,M,,*56
$GPRMC,142516.000,A,4308.1649,N,07727.0905,W,16.32,204.59,080925,,,A*4F
$GPGGA,142516.250,4308.1637,N,07727.0910,W,1,06,1.52,133.8,M,-34.4,M,,*5A
$GPRMC,142516.500,A,4308.1626,N,07727.0914,W,16.71,197.28,080925,,,A*4B
$GPGGA,142516.750,4308.1614,N,07727.0918,W,1,06,1.52,134.4,M,-34.4,M,,*5D
$GPRMC,142517.000,A,4308.1602,N,07727.0920,W,16.95,191.65,080925,,,A*4B
$GPGGA,142517.250,4308.1590,N,07727.0922,W,1,06,1.52,134.9,M,-34.4,M,,*52
$GPRMC,142517.500,A,4308.1578,N,07727.0923,W,17.03,186.86,080925,,,A*46
$GPGGA,142517.750,4308.1566,N,07727.0923,W,1,06,1.52,135.4,M,-34.4,M,,*53
$GPRMC,142518.000,A,4308.1555,N,07727.0923,W,16.87,183.73,080925,,,A*41
$GPGGA,142518.250,4308.1543,N,07727.0924,W,1,06,1.52,135.9,M,-34.4,M,,*54
$GPRMC,142518.500,A,4308.1531,N,07727.0924,W,16.49,182.54,080925,,,A*47
$GPGGA,142518.750,4308.1520,N,07727.0925,W,1,06,1.52,136.6,M,-34.4,M,,*59
$GPRMC,142519.000,A,4308.1508,N,07727.0924,W,16.23,181.40,080925,,,A*43
$GPGGA,142519.250,4308.1497,N,07727.0924,W,1,06,1.52,137.3,M,-34.4,M,,*55
$GPRMC,142519.500,A,4308.1486,N,07727.0924,W,15.68,181.96,080925,,,A*46
$GPGGA,142519.750,4308.1475,N,07727.0924,W,1,06,1.52,137.9,M,-34.4,M,,*56
$GPRMC,142520.000,A,4308.1464,N,07727.0924,W,15.31,183.95,080925,,,A*48
$GPGGA,142520.250,4308.1453,N,07727.0926,W,1,06,1.52,138.6,M,-34.4,M,,*5F
$GPRMC,142520.500,A,4308.1443,N,07727.0927,W,14.94,184.56,080925,,,A*4D
$GPGGA,142520.750,4308.1432,N,07727.0929,W,1,06,1.52,139.3,M,-34.4,M,,*56
$GPRMC,142521.000,A,4308.1421,N,07727.0931,W,14.95,186.22,080925,,,A*4A
$GPGGA,142521.250,4308.1410,N,07727.0933,W,1,06,1.52,139.9,M,-34.4,M,,*53
$GPRMC,142521.500,A,4308.1399,N,07727.0935,W,15.42,186.81,080925,,,A*4D
$GPGGA,142521.750,4308.1387,N,07727.0936,W,1,06,1.52,140.4,M,-34.4,M,,*59
$GPRMC,142522.000,A,4308.1376,N,07727.0938,W,15.65,185.56,080925,,,A*4B
$GPGGA,142522.250,4308.1365,N,07727.0939,W,1,06,1.52,140.8,M,-34.4,M,,*50
$GPRMC,142522.500,A,4308.1354,N,07727.0940,W,15.74,184.15,080925,,,A*47
$GPGGA,142522.750,4308.1343,N,07727.0942,W,1,06,1.52,141.1,M,-34.4,M,,*55
$GPRMC,142523.000,A,4308.1331,N,07727.0943,W,16.08,183.57,080925,,,A*4A
$GPGGA,142523.250,4308.1320,N,07727.0944,W,1,06,1.52,141.5,M,-34.4,M,,*56
$GPRMC,142523.500,A,4308.1308,N,07727.0946,W,16.18,183.22,080925,,,A*43
$GPGGA,142523.750,4308.1297,N,07727.0947,W,1,06,1.52,142.0,M,-34.4,M,,*5B
$GPRMC,142524.000,A,4308.1285,N,07727.0948,W,16.23,182.14,080925,,,A*47
$GPGGA,142524.250,4308.1273,N,07727.0949,W,1,06,1.52,142.6,M,-34.4,M,,*5B
$GPRMC,142524.500,A,4308.1261,N,07727.0951,W,16.49,181.17,080925,,,A*4C
$GPGGA,142524.750,4308.1249,N,07727.0953,W,1,06,1.52,143.5,M,-34.4,M,,*5E
$GPRMC,142525.000,A,4308.1237,N,07727.0955,W,16.53,180.52,080925,,,A*44
$GPGGA,142525.250,4308.1226,N,07727.0957,W,1,06,1.41,144.4,M,-34.4,M,,*53
$GPRMC,142525.500,A,4308.1215,N,07727.0957,W,15.89,180.13,080925,,,A*42
$GPGGA,142525.750,4308.1204,N,07727.0958,W,1,06,1.52,144.8,M,-34.4,M,,*57
