Vers 72
USE_SERIAL_FEEDBACK=true
DEVELOPMENT_MODE=false
USE_RMC_ONLY=false

$GPRMC,174630.500,A,4305.2408,N,07740.5682,W,23.09,88.67,060525,,,A*72
$GPGGA,174630.750,4305.2409,N,07740.5657,W,1,04,3.86,181.3,M,-34.4,M,,*5F
$GPRMC,174631.000,A,4305.2410,N,07740.5633,W,22.87,88.59,060525,,,A*7F
$GPGGA,174631.250,4305.2410,N,07740.5611,W,1,04,3.86,180.2,M,-34.4,M,,*51
$GPRMC,174631.500,A,4305.2410,N,07740.5589,W,22.05,89.05,060525,,,A*7A
$GPGGA,174631.750,4305.2410,N,07740.5568,W,1,04,3.86,179.4,M,-34.4,M,,*59
$GPRMC,174632.000,A,4305.2411,N,07740.5546,W,21.78,89.74,060525,,,A*71
$GPGGA,174632.250,4305.2411,N,07740.5526,W,1,04,3.86,178.8,M,-34.4,M,,*59
$GPRMC,174632.500,A,4305.2413,N,07740.5504,W,21.63,89.39,060525,,,A*73
$GPGGA,174632.750,4305.2415,N,07740.5483,W,1,04,3.86,178.3,M,-34.4,M,,*5D
$GPRMC,174633.000,A,4305.2416,N,07740.5462,W,21.26,89.44,060525,,,A*78
$GPGGA,174633.250,4305.2417,N,07740.5442,W,1,04,3.85,178.0,M,-34.4,M,,*56
$GPRMC,174633.500,A,4305.2419,N,07740.5421,W,21.09,89.38,060525,,,A*73
$GPGGA,174633.750,4305.2420,N,07740.5401,W,1,04,3.85,177.7,M,-34.4,M,,*58
$GPRMC,174634.000,A,4305.2420,N,07740.5381,W,20.92,89.90,060525,,,A*77
$GPGGA,174634.250,4305.2421,N,07740.5362,W,1,04,3.85,177.5,M,-34.4,M,,*5B
$GPRMC,174634.500,A,4305.2422,N,07740.5343,W,20.05,89.59,060525,,,A*75
$GPGGA,174634.750,4305.2423,N,07740.5324,W,1,04,3.55,177.3,M,-34.4,M,,*55
$GPRMC,174635.000,A,4305.2424,N,07740.5306,W,19.24,89.37,060525,,,A*77
$GPGGA,174635.250,4305.2426,N,07740.5288,W,1,04,3.85,176.9,M,-34.4,M,,*55
$GPRMC,174635.500,A,4305.2428,N,07740.5272,W,18.72,89.97,060525,,,A*74
$GPGGA,174635.750,4305.2427,N,07740.5255,W,1,04,3.55,176.4,M,-34.4,M,,*51
$GPRMC,174636.000,A,4305.2428,N,07740.5239,W,18.10,90.99,060525,,,A*7F
$GPGGA,174636.250,4305.2429,N,07740.5223,W,1,04,3.85,175.9,M,-34.4,M,,*5B
$GPRMC,174636.500,A,4305.2430,N,07740.5206,W,17.58,91.58,060525,,,A*70
$GPGGA,174636.750,4305.2431,N,07740.5189,W,1,04,3.55,175.5,M,-34.4,M,,*55
$GPRMC,174637.000,A,4305.2433,N,07740.5172,W,17.50,91.77,060525,,,A*72
$GPGGA,174637.250,4305.2434,N,07740.5155,W,1,04,3.85,175.3,M,-34.4,M,,*5E
$GPRMC,174637.500,A,4305.2436,N,07740.5137,W,17.77,90.93,060525,,,A*7D
$GPGGA,174637.750,4305.2438,N,07740.5120,W,1,04,3.55,175.1,M,-34.4,M,,*5A
$GPRMC,174638.000,A,4305.2439,N,07740.5102,W,18.00,90.30,060525,,,A*78
$GPGGA,174638.250,4305.2441,N,07740.5085,W,1,04,3.85,174.8,M,-34.4,M,,*55
$GPRMC,174638.500,A,4305.2442,N,07740.5067,W,18.29,89.76,060525,,,A*72
$GPGGA,174638.750,4305.2444,N,07740.5049,W,1,04,3.55,174.6,M,-34.4,M,,*56
$GPRMC,174639.000,A,4305.2444,N,07740.5032,W,18.44,89.10,060525,,,A*7B
$GPGGA,174639.250,4305.2446,N,07740.5014,W,1,04,3.85,174.5,M,-34.4,M,,*56
$GPRMC,174639.500,A,4305.2447,N,07740.4997,W,18.45,88.44,060525,,,A*7B
$GPGGA,174639.750,4305.2449,N,07740.4980,W,1,04,3.55,174.2,M,-34.4,M,,*53
$GPRMC,174640.000,A,4305.2450,N,07740.4963,W,18.18,88.12,060525,,,A*76
$GPGGA,174640.250,4305.2451,N,07740.4945,W,1,04,3.85,174.1,M,-34.4,M,,*56
$GPRMC,174640.500,A,4305.2452,N,07740.4929,W,17.88,88.26,060525,,,A*7E
$GPGGA,174640.750,4305.2453,N,07740.4912,W,1,04,3.85,173.9,M,-34.4,M,,*5C
$GPRMC,174641.000,A,4305.2455,N,07740.4896,W,17.84,89.11,060525,,,A*71
$GPGGA,174641.250,4305.2455,N,07740.4880,W,1,04,3.85,173.5,M,-34.4,M,,*58
$GPRMC,174641.500,A,4305.2456,N,07740.4864,W,17.46,90.61,060525,,,A*7B
$GPGGA,174641.750,4305.2456,N,07740.4849,W,1,04,3.55,173.0,M,-34.4,M,,*53
$GPRMC,174642.000,A,4305.2458,N,07740.4834,W,17.05,91.70,060525,,,A*70
$GPGGA,174642.250,4305.2459,N,07740.4819,W,1,04,3.85,172.4,M,-34.4,M,,*57
$GPRMC,174642.500,A,4305.2461,N,07740.4804,W,16.98,92.07,060525,,,A*7A
$GPGGA,174642.750,4305.2462,N,07740.4790,W,1,04,3.55,171.7,M,-34.4,M,,*59
$GPRMC,174643.000,A,4305.2460,N,07740.4775,W,16.82,94.74,060525,,,A*7F
$GPGGA,174643.250,4305.2457,N,07740.4762,W,1,04,3.55,171.1,M,-34.4,M,,*50
$GPRMC,174643.500,A,4305.2455,N,07740.4748,W,16.95,98.86,060525,,,A*75
$GPGGA,174643.750,4305.2454,N,07740.4733,W,1,04,3.55,170.4,M,-34.4,M,,*56
$GPRMC,174644.000,A,4305.2453,N,07740.4718,W,17.01,100.16,060525,,,A*41
$GPGGA,174644.250,4305.2452,N,07740.4704,W,1,04,3.55,170.1,M,-34.4,M,,*53
$GPRMC,174644.500,A,4305.2452,N,07740.4687,W,17.26,99.95,060525,,,A*7D
$GPGGA,174644.750,4305.2452,N,07740.4672,W,1,04,3.55,169.7,M,-34.4,M,,*58
$GPRMC,174645.000,A,4305.2452,N,07740.4655,W,17.44,99.13,060525,,,A*7C
$GPGGA,174645.250,4305.2451,N,07740.4639,W,1,04,3.55,169.5,M,-34.4,M,,*52
$GPRMC,174645.500,A,4305.2450,N,07740.4623,W,17.25,98.45,060525,,,A*7F
$GPGGA,174645.750,4305.2450,N,07740.4607,W,1,04,3.55,169.3,M,-34.4,M,,*5D
$GPRMC,174646.000,A,4305.2451,N,07740.4591,W,16.87,97.24,060525,,,A*73
$GPGGA,174646.250,4305.2453,N,07740.4576,W,1,04,3.55,169.2,M,-34.4,M,,*5C
$GPRMC,174646.500,A,4305.2453,N,07740.4562,W,16.27,95.01,060525,,,A*77
$GPGGA,174646.750,4305.2453,N,07740.4548,W,1,04,3.54,169.2,M,-34.4,M,,*55
$GPRMC,174647.000,A,4305.2453,N,07740.4533,W,15.80,94.56,060525,,,A*7A
$GPGGA,174647.250,4305.2454,N,07740.4519,W,1,04,3.55,169.2,M,-34.4,M,,*53
$GPRMC,174647.500,A,4305.2455,N,07740.4504,W,15.48,92.97,060525,,,A*72
$GPGGA,174647.750,4305.2457,N,07740.4489,W,1,04,3.55,169.3,M,-34.4,M,,*5C
$GPRMC,174648.000,A,4305.2462,N,07740.4473,W,15.30,90.03,060525,,,A*7D
$GPGGA,174648.250,4305.2466,N,07740.4459,W,1,04,3.54,169.3,M,-34.4,M,,*58
$GPRMC,174648.500,A,4305.2470,N,07740.4444,W,15.24,87.46,060525,,,A*7D
$GPGGA,174648.750,4305.2472,N,07740.4429,W,1,04,3.55,169.2,M,-34.4,M,,*5F
$GPRMC,174649.000,A,4305.2475,N,07740.4414,W,15.46,86.07,060525,,,A*79
$GPGGA,174649.250,4305.2478,N,07740.4399,W,1,04,3.55,169.1,M,-34.4,M,,*5E
$GPRMC,174649.500,A,4305.2481,N,07740.4382,W,16.32,85.59,060525,,,A*77
$GPGGA,174649.750,4305.2484,N,07740.4364,W,1,04,3.54,169.0,M,-34.4,M,,*5A
$GPRMC,174650.000,A,4305.2487,N,07740.4345,W,17.59,84.98,060525,,,A*77
$GPGGA,174650.250,4305.2489,N,07740.4326,W,1,04,3.55,169.1,M,-34.4,M,,*5C
$GPRMC,174650.500,A,4305.2488,N,07740.4308,W,18.86,86.40,060525,,,A*7E
$GPGGA,174650.750,4305.2485,N,07740.4290,W,1,04,3.54,168.9,M,-34.4,M,,*51
$GPRMC,174651.000,A,4305.2485,N,07740.4271,W,19.95,88.50,060525,,,A*74
$GPGGA,174651.250,4305.2485,N,07740.4251,W,1,04,3.54,168.6,M,-34.4,M,,*57
$GPRMC,174651.500,A,4305.2486,N,07740.4230,W,21.43,88.89,060525,,,A*73
$GPGGA,174651.750,4305.2487,N,07740.4209,W,1,04,3.54,168.4,M,-34.4,M,,*5F
$GPRMC,174652.000,A,4305.2488,N,07740.4187,W,22.39,89.09,060525,,,A*73
$GPGGA,174652.250,4305.2488,N,07740.4165,W,1,04,3.54,168.2,M,-34.4,M,,*59
$GPRMC,174652.500,A,4305.2488,N,07740.4144,W,22.99,89.67,060525,,,A*7B
$GPGGA,174652.750,4305.2488,N,07740.4122,W,1,04,3.54,168.0,M,-34.4,M,,*5D
$GPRMC,174653.000,A,4305.2488,N,07740.4099,W,23.28,89.82,060525,,,A*7E
$GPGGA,174653.250,4305.2488,N,07740.4077,W,1,04,3.54,167.9,M,-34.4,M,,*5E
$GPRMC,174653.500,A,4305.2489,N,07740.4054,W,23.42,89.80,060525,,,A*75
$GPGGA,174653.750,4305.2490,N,07740.4031,W,1,04,3.54,167.7,M,-34.4,M,,*5E
$GPRMC,174654.000,A,4305.2491,N,07740.4009,W,23.30,89.32,060525,,,A*7A
$GPGGA,174654.250,4305.2492,N,07740.3986,W,1,04,3.54,167.5,M,-34.4,M,,*5E
$GPRMC,174654.500,A,4305.2492,N,07740.3965,W,22.96,89.04,060525,,,A*70
$GPGGA,174654.750,4305.2493,N,07740.3943,W,1,04,3.54,167.4,M,-34.4,M,,*52
$GPRMC,174655.000,A,4305.2494,N,07740.3921,W,22.45,89.12,060525,,,A*7B
$GPGGA,174655.250,4305.2493,N,07740.3900,W,1,04,3.54,167.2,M,-34.4,M,,*57
$GPRMC,174655.500,A,4305.2494,N,07740.3879,W,22.06,89.31,060525,,,A*74
$GPGGA,174655.750,4305.2494,N,07740.3858,W,1,04,3.54,167.1,M,-34.4,M,,*5A
$GPRMC,174656.000,A,4305.2494,N,07740.3837,W,21.64,89.59,060525,,,A*71
$GPGGA,174656.250,4305.2494,N,07740.3817,W,1,04,3.54,166.9,M,-34.4,M,,*5E
$GPRMC,174656.500,A,4305.2493,N,07740.3798,W,21.09,90.00,060525,,,A*76
$GPGGA,174656.750,4305.2493,N,07740.3779,W,1,04,3.54,166.7,M,-34.4,M,,*55
$GPRMC,174657.000,A,4305.2493,N,07740.3760,W,20.65,90.01,060525,,,A*7F
$GPGGA,174657.250,4305.2493,N,07740.3740,W,1,04,3.54,166.5,M,-34.4,M,,*59
$GPRMC,174657.500,A,4305.2494,N,07740.3720,W,20.97,90.00,060525,,,A*75
$GPGGA,174657.750,4305.2494,N,07740.3701,W,1,04,3.54,166.3,M,-34.4,M,,*58
$GPRMC,174658.000,A,4305.2494,N,07740.3681,W,21.47,90.02,060525,,,A*7B
$GPGGA,174658.250,4305.2494,N,07740.3660,W,1,04,3.54,166.2,M,-34.4,M,,*55
$GPRMC,174658.500,A,4305.2493,N,07740.3640,W,22.03,89.97,060525,,,A*73
$GPGGA,174658.750,4305.2493,N,07740.3619,W,1,04,3.54,166.1,M,-34.4,M,,*5A
$GPRMC,174659.000,A,4305.2494,N,07740.3597,W,22.95,89.73,060525,,,A*7C
$GPGGA,174659.250,4305.2494,N,07740.3575,W,1,04,3.54,166.0,M,-34.4,M,,*51
$GPRMC,174659.500,A,4305.2494,N,07740.3553,W,23.62,89.61,060525,,,A*7B
$GPGGA,174659.750,4305.2494,N,07740.3530,W,1,04,3.54,166.0,M,-34.4,M,,*55
$GPRMC,174700.000,A,4305.2495,N,07740.3507,W,24.20,89.66,060525,,,A*75
$GPGGA,174700.250,4305.2495,N,07740.3483,W,1,04,3.54,166.0,M,-34.4,M,,*55
$GPRMC,174700.500,A,4305.2495,N,07740.3459,W,24.77,89.69,060525,,,A*77
$GPGGA,174700.750,4305.2495,N,07740.3436,W,1,04,3.54,166.0,M,-34.4,M,,*5E
$GPRMC,174701.000,A,4305.2495,N,07740.3412,W,25.05,89.77,060525,,,A*77
$GPGGA,174701.250,4305.2495,N,07740.3387,W,1,04,3.54,166.0,M,-34.4,M,,*57
$GPRMC,174701.500,A,4305.2496,N,07740.3363,W,25.60,89.48,060525,,,A*7F
$GPGGA,174701.750,4305.2497,N,07740.3338,W,1,04,3.54,166.0,M,-34.4,M,,*54
$GPRMC,174702.000,A,4305.2498,N,07740.3313,W,25.84,89.26,060525,,,A*72
$GPGGA,174702.250,4305.2499,N,07740.3288,W,1,04,3.54,166.0,M,-34.4,M,,*56
$GPRMC,174702.500,A,4305.2500,N,07740.3263,W,26.05,88.94,060525,,,A*73
$GPGGA,174702.750,4305.2502,N,07740.3238,W,1,04,3.54,165.9,M,-34.4,M,,*51
$GPRMC,174703.000,A,4305.2503,N,07740.3213,W,26.13,88.60,060525,,,A*7F
$GPGGA,174703.250,4305.2504,N,07740.3188,W,1,04,3.54,165.9,M,-34.4,M,,*5B
$GPRMC,174703.500,A,4305.2506,N,07740.3163,W,26.27,88.22,060525,,,A*7A
$GPGGA,174703.750,4305.2508,N,07740.3137,W,1,04,3.54,165.9,M,-34.4,M,,*56
$GPRMC,174704.000,A,4305.2511,N,07740.3111,W,26.65,87.76,060525,,,A*73
$GPGGA,174704.250,4305.2516,N,07740.3085,W,1,04,3.54,165.8,M,-34.4,M,,*52
$GPRMC,174704.500,A,4305.2519,N,07740.3059,W,26.95,86.77,060525,,,A*7C
$GPGGA,174704.750,4305.2523,N,07740.3033,W,1,04,3.53,165.7,M,-34.4,M,,*54
$GPRMC,174705.000,A,4305.2526,N,07740.3007,W,27.17,86.20,060525,,,A*76
$GPGGA,174705.250,4305.2532,N,07740.2981,W,1,04,3.53,165.6,M,-34.4,M,,*50
$GPRMC,174705.500,A,4305.2536,N,07740.2955,W,27.37,85.23,060525,,,A*7F
$GPGGA,174705.750,4305.2539,N,07740.2928,W,1,04,3.54,165.5,M,-34.4,M,,*59
$GPRMC,174706.000,A,4305.2544,N,07740.2902,W,27.50,84.61,060525,,,A*78
$GPGGA,174706.250,4305.2548,N,07740.2875,W,1,04,3.53,165.5,M,-34.4,M,,*57
$GPRMC,174706.500,A,4305.2553,N,07740.2847,W,27.95,84.07,060525,,,A*72
$GPGGA,174706.750,4305.2557,N,07740.2819,W,1,04,3.54,165.4,M,-34.4,M,,*50
$GPRMC,174707.000,A,4305.2562,N,07740.2790,W,28.48,83.61,060525,,,A*79
$GPGGA,174707.250,4305.2567,N,07740.2762,W,1,04,3.53,165.4,M,-34.4,M,,*53
$GPRMC,174707.500,A,4305.2573,N,07740.2733,W,29.01,82.92,060525,,,A*74
$GPGGA,174707.750,4305.2579,N,07740.2705,W,1,04,3.53,165.3,M,-34.4,M,,*5F
$GPRMC,174708.000,A,4305.2585,N,07740.2677,W,29.32,82.21,060525,,,A*7E
$GPGGA,174708.250,4305.2592,N,07740.2649,W,1,04,3.53,165.3,M,-34.4,M,,*59
$GPRMC,174708.500,A,4305.2601,N,07740.2619,W,29.56,81.11,060525,,,A*7E
$GPGGA,174708.750,4305.2610,N,07740.2590,W,1,04,3.53,165.3,M,-34.4,M,,*52
$GPRMC,174709.000,A,4305.2618,N,07740.2560,W,30.23,79.98,060525,,,A*73
$GPGGA,174709.250,4305.2629,N,07740.2531,W,1,04,3.53,165.2,M,-34.4,M,,*56
$GPRMC,174709.500,A,4305.2639,N,07740.2501,W,30.69,78.68,060525,,,A*72
$GPGGA,174709.750,4305.2650,N,07740.2471,W,1,04,3.53,165.1,M,-34.4,M,,*5B
$GPRMC,174710.000,A,4305.2670,N,07740.2439,W,31.26,76.23,060525,,,A*73
$GPGGA,174710.250,4305.2688,N,07740.2407,W,1,04,3.53,165.2,M,-34.4,M,,*51
$GPRMC,174710.500,A,4305.2705,N,07740.2375,W,32.00,73.68,060525,,,A*77
$GPGGA,174710.750,4305.2721,N,07740.2344,W,1,04,3.53,165.2,M,-34.4,M,,*56
$GPRMC,174711.000,A,4305.2736,N,07740.2312,W,32.70,72.06,060525,,,A*7C
$GPGGA,174711.250,4305.2755,N,07740.2279,W,1,04,3.53,165.2,M,-34.4,M,,*5E
$GPRMC,174711.500,A,4305.2776,N,07740.2246,W,33.74,69.73,060525,,,A*70
$GPGGA,174711.750,4305.2793,N,07740.2214,W,1,04,3.53,165.3,M,-34.4,M,,*5B
$GPRMC,174712.000,A,4305.2808,N,07740.2181,W,34.43,68.33,060525,,,A*7E
$GPGGA,174712.250,4305.2828,N,07740.2147,W,1,04,3.53,165.3,M,-34.4,M,,*57
$GPRMC,174712.500,A,4305.2845,N,07740.2114,W,35.17,67.03,060525,,,A*72
$GPGGA,174712.750,4305.2863,N,07740.2080,W,1,04,3.53,165.4,M,-34.4,M,,*50
$GPRMC,174713.000,A,4305.2877,N,07740.2048,W,35.54,66.08,060525,,,A*72
$GPGGA,174713.250,4305.2892,N,07740.2016,W,1,04,3.53,165.4,M,-34.4,M,,*55
$GPRMC,174713.500,A,4305.2906,N,07740.1985,W,35.68,65.12,060525,,,A*7C
$GPGGA,174713.750,4305.2921,N,07740.1953,W,1,04,3.53,165.4,M,-34.4,M,,*52
$GPRMC,174714.000,A,4305.2936,N,07740.1921,W,35.97,64.24,060525,,,A*77
$GPGGA,174714.250,4305.2951,N,07740.1890,W,1,04,3.53,165.4,M,-34.4,M,,*59
$GPRMC,174714.500,A,4305.2966,N,07740.1859,W,36.14,63.40,060525,,,A*74
$GPGGA,174714.750,4305.2980,N,07740.1828,W,1,04,3.53,165.4,M,-34.4,M,,*53
$GPRMC,174715.000,A,4305.2993,N,07740.1798,W,36.09,62.90,060525,,,A*78
$GPGGA,174715.250,4305.3005,N,07740.1768,W,1,04,3.53,165.3,M,-34.4,M,,*5E
$GPRMC,174715.500,A,4305.3018,N,07740.1738,W,35.73,62.53,060525,,,A*7D
$GPGGA,174715.750,4305.3031,N,07740.1708,W,1,04,3.53,165.3,M,-34.4,M,,*5A
$GPRMC,174716.000,A,4305.3044,N,07740.1678,W,35.51,62.14,060525,,,A*74
$GPGGA,174716.250,4305.3058,N,07740.1648,W,1,04,3.53,165.3,M,-34.4,M,,*56
$GPRMC,174716.500,A,4305.3071,N,07740.1619,W,35.29,61.80,060525,,,A*71
$GPGGA,174716.750,4305.3084,N,07740.1589,W,1,04,3.53,165.3,M,-34.4,M,,*5C
$GPRMC,174717.000,A,4305.3096,N,07740.1560,W,35.02,61.65,060525,,,A*73
$GPGGA,174717.250,4305.3110,N,07740.1531,W,1,04,3.53,165.3,M,-34.4,M,,*57
$GPRMC,174717.500,A,4305.3123,N,07740.1502,W,34.91,61.29,060525,,,A*7E
$GPGGA,174717.750,4305.3137,N,07740.1473,W,1,04,3.53,165.3,M,-34.4,M,,*50
$GPRMC,174718.000,A,4305.3150,N,07740.1445,W,34.57,60.94,060525,,,A*7F
$GPGGA,174718.250,4305.3182,N,07740.1422,W,1,05,2.80,165.3,M,-34.4,M,,*5E
$GPRMC,174718.500,A,4305.3202,N,07740.1395,W,34.37,59.02,060525,,,A*77
$GPGGA,174718.750,4305.3220,N,07740.1368,W,1,05,2.80,165.3,M,-34.4,M,,*59
$GPRMC,174719.000,A,4305.3234,N,07740.1343,W,34.03,58.99,060525,,,A*79
$GPGGA,174719.250,4305.3247,N,07740.1317,W,1,05,2.80,165.3,M,-34.4,M,,*54
$GPRMC,174719.500,A,4305.3259,N,07740.1291,W,33.54,58.92,060525,,,A*77
$GPGGA,174719.750,4305.3271,N,07740.1265,W,1,05,2.80,165.2,M,-34.4,M,,*51
$GPRMC,174720.000,A,4305.3282,N,07740.1239,W,33.01,59.29,060525,,,A*7D
$GPGGA,174720.250,4305.3292,N,07740.1214,W,1,05,3.15,165.2,M,-34.4,M,,*58
$GPRMC,174720.500,A,4305.3301,N,07740.1189,W,32.66,59.98,060525,,,A*70
$GPGGA,174720.750,4305.3311,N,07740.1163,W,1,05,3.15,165.1,M,-34.4,M,,*57
$GPRMC,174721.000,A,4305.3321,N,07740.1138,W,32.34,60.91,060525,,,A*78
$GPGGA,174721.250,4305.3328,N,07740.1113,W,1,05,3.15,165.0,M,-34.4,M,,*5F
$GPRMC,174721.500,A,4305.3335,N,07740.1088,W,31.03,62.15,060525,,,A*7B
$GPGGA,174721.750,4305.3342,N,07740.1063,W,1,05,3.15,164.9,M,-34.4,M,,*58
$GPRMC,174722.000,A,4305.3350,N,07740.1039,W,30.10,62.64,060525,,,A*71
$GPGGA,174722.250,4305.3356,N,07740.1015,W,1,05,3.15,164.8,M,-34.4,M,,*5B
$GPRMC,174722.500,A,4305.3362,N,07740.0993,W,28.76,63.02,060525,,,A*75
$GPGGA,174722.750,4305.3369,N,07740.0971,W,1,05,2.80,164.7,M,-34.4,M,,*5A
$GPRMC,174723.000,A,4305.3376,N,07740.0951,W,27.74,62.77,060525,,,A*74
$GPGGA,174723.250,4305.3380,N,07740.0934,W,1,05,3.15,164.7,M,-34.4,M,,*55
$GPRMC,174723.500,A,4305.3379,N,07740.0920,W,25.23,64.02,060525,,,A*7C
$GPGGA,174723.750,4305.3379,N,07740.0907,W,1,05,2.80,164.6,M,-34.4,M,,*5A
$GPRMC,174724.000,A,4305.3377,N,07740.0896,W,21.96,66.09,060525,,,A*7F
$GPGGA,174724.250,4305.3370,N,07740.0888,W,1,05,3.15,164.5,M,-34.4,M,,*59
$GPRMC,174724.500,A,4305.3365,N,07740.0878,W,17.63,70.63,060525,,,A*7D
$GPGGA,174724.750,4305.3364,N,07740.0866,W,1,05,2.80,164.4,M,-34.4,M,,*55
$GPRMC,174725.000,A,4305.3364,N,07740.0856,W,15.03,70.91,060525,,,A*7D
$GPGGA,174725.250,4305.3361,N,07740.0848,W,1,05,3.15,164.3,M,-34.4,M,,*52
$GPRMC,174725.500,A,4305.3359,N,07740.0843,W,10.70,70.33,060525,,,A*7B
$GPGGA,174725.750,4305.3357,N,07740.0837,W,1,05,2.80,164.1,M,-34.4,M,,*55
$GPRMC,174726.000,A,4305.3357,N,07740.0831,W,8.10,69.54,060525,,,A*40
$GPGGA,174726.250,4305.3357,N,07740.0827,W,1,05,3.15,164.1,M,-34.4,M,,*5F
$GPRMC,174726.500,A,4305.3356,N,07740.0824,W,5.78,65.99,060525,,,A*4E
$GPGGA,174726.750,4305.3355,N,07740.0824,W,1,05,2.79,164.0,M,-34.4,M,,*51
$GPRMC,174727.000,A,4305.3354,N,07740.0826,W,2.59,60.94,060525,,,A*46
$GPGGA,174727.250,4305.3352,N,07740.0828,W,1,05,2.79,164.0,M,-34.4,M,,*5E
$GPRMC,174727.500,A,4305.3352,N,07740.0831,W,1.39,60.94,060525,,,A*46
$GPGGA,174727.750,4305.3351,N,07740.0833,W,1,05,3.15,164.0,M,-34.4,M,,*59
$GPGGA,174729.000,4305.3346,N,07740.0843,W,1,05,2.79,164.0,M,-34.4,M,,*5F
$GPRMC,174729.000,A,4305.3346,N,07740.0843,W,1.15,60.94,060525,,,A*43
$GPGGA,174729.250,4305.3345,N,07740.0844,W,1,05,2.79,164.0,M,-34.4,M,,*5C
$GPRMC,174729.250,A,4305.3345,N,07740.0844,W,1.10,60.94,060525,,,A*45
$GPRMC,174732.500,A,4305.3344,N,07740.0842,W,2.95,86.32,060525,,,A*40
$GPGGA,174732.750,4305.3345,N,07740.0836,W,1,05,2.79,164.2,M,-34.4,M,,*54
$GPRMC,174733.000,A,4305.3345,N,07740.0829,W,5.03,89.54,060525,,,A*4F
$GPGGA,174733.250,4305.3346,N,07740.0821,W,1,05,3.14,164.2,M,-34.4,M,,*5F
$GPRMC,174733.500,A,4305.3347,N,07740.0812,W,7.00,89.57,060525,,,A*42
$GPGGA,174733.750,4305.3348,N,07740.0803,W,1,05,2.79,164.2,M,-34.4,M,,*5E
$GPRMC,174734.000,A,4305.3350,N,07740.0792,W,8.79,88.00,060525,,,A*43
$GPGGA,174734.250,4305.3351,N,07740.0782,W,1,05,3.15,164.1,M,-34.4,M,,*5A
$GPRMC,174734.500,A,4305.3352,N,07740.0772,W,9.76,86.91,060525,,,A*42
$GPGGA,174734.750,4305.3351,N,07740.0763,W,1,05,2.79,164.2,M,-34.4,M,,*58
$GPRMC,174735.000,A,4305.3350,N,07740.0752,W,10.52,88.55,060525,,,A*7E
$GPGGA,174735.250,4305.3351,N,07740.0741,W,1,05,3.14,164.2,M,-34.4,M,,*56
$GPRMC,174735.500,A,4305.3352,N,07740.0729,W,11.26,87.59,060525,,,A*74
$GPGGA,174735.750,4305.3354,N,07740.0715,W,1,05,2.79,164.3,M,-34.4,M,,*5C
$GPRMC,174736.000,A,4305.3358,N,07740.0703,W,11.69,82.95,060525,,,A*7E
$GPGGA,174736.250,4305.3362,N,07740.0691,W,1,05,3.14,164.3,M,-34.4,M,,*58
$GPRMC,174736.500,A,4305.3367,N,07740.0679,W,12.17,77.86,060525,,,A*79
$GPGGA,174736.750,4305.3371,N,07740.0667,W,1,05,2.79,164.3,M,-34.4,M,,*5C
$GPRMC,174737.000,A,4305.3376,N,07740.0656,W,12.18,73.72,060525,,,A*70
$GPGGA,174737.250,4305.3397,N,07740.0645,W,1,05,3.14,164.3,M,-34.4,M,,*5A
$GPRMC,174737.500,A,4305.3423,N,07740.0634,W,14.27,42.60,060525,,,A*7D
$GPGGA,174737.750,4305.3433,N,07740.0624,W,1,05,2.79,164.2,M,-34.4,M,,*5A
$GPRMC,174738.000,A,4305.3445,N,07740.0613,W,15.60,38.82,060525,,,A*71
$GPGGA,174738.250,4305.3458,N,07740.0601,W,1,05,2.79,164.3,M,-34.4,M,,*5B
$GPRMC,174738.500,A,4305.3471,N,07740.0590,W,17.30,34.12,060525,,,A*79
$GPGGA,174738.750,4305.3484,N,07740.0581,W,1,05,2.79,164.2,M,-34.4,M,,*55
$GPRMC,174739.000,A,4305.3497,N,07740.0573,W,18.27,28.82,060525,,,A*75
$GPGGA,174739.250,4305.3513,N,07740.0564,W,1,05,3.14,164.2,M,-34.4,M,,*5F
$GPRMC,174739.500,A,4305.3527,N,07740.0556,W,19.91,23.93,060525,,,A*7A
$GPGGA,174739.750,4305.3542,N,07740.0547,W,1,05,2.79,164.2,M,-34.4,M,,*55
$GPRMC,174740.000,A,4305.3558,N,07740.0538,W,21.21,21.83,060525,,,A*72
$GPGGA,174740.250,4305.3575,N,07740.0529,W,1,05,3.14,164.2,M,-34.4,M,,*58
$GPRMC,174740.500,A,4305.3592,N,07740.0520,W,22.82,20.65,060525,,,A*7B
$GPGGA,174740.750,4305.3608,N,07740.0511,W,1,05,2.79,164.2,M,-34.4,M,,*55
$GPRMC,174741.000,A,4305.3625,N,07740.0501,W,23.73,20.96,060525,,,A*70
$GPGGA,174741.250,4305.3642,N,07740.0492,W,1,05,3.14,164.2,M,-34.4,M,,*5F
$GPRMC,174741.500,A,4305.3659,N,07740.0482,W,24.71,20.69,060525,,,A*71
$GPGGA,174741.750,4305.3677,N,07740.0473,W,1,05,3.14,164.2,M,-34.4,M,,*53
$GPRMC,174742.000,A,4305.3695,N,07740.0463,W,25.42,20.28,060525,,,A*7C
$GPGGA,174742.250,4305.3714,N,07740.0454,W,1,05,3.14,164.2,M,-34.4,M,,*54
$GPRMC,174742.500,A,4305.3733,N,07740.0444,W,26.52,20.02,060525,,,A*7B
$GPGGA,174742.750,4305.3752,N,07740.0435,W,1,05,3.14,164.2,M,-34.4,M,,*54
$GPRMC,174743.000,A,4305.3770,N,07740.0426,W,27.11,20.28,060525,,,A*72
$GPGGA,174743.250,4305.3789,N,07740.0417,W,1,05,3.14,164.3,M,-34.4,M,,*57
$GPRMC,174743.500,A,4305.3807,N,07740.0407,W,27.13,21.42,060525,,,A*74
$GPGGA,174743.750,4305.3824,N,07740.0397,W,1,05,2.78,164.3,M,-34.4,M,,*5E
$GPRMC,174744.000,A,4305.3842,N,07740.0388,W,27.01,21.93,060525,,,A*78
$GPGGA,174744.250,4305.3859,N,07740.0378,W,1,05,3.14,164.4,M,-34.4,M,,*5B
$GPRMC,174744.500,A,4305.3877,N,07740.0368,W,26.89,22.50,060525,,,A*78
$GPGGA,174744.750,4305.3894,N,07740.0358,W,1,05,3.14,164.5,M,-34.4,M,,*5C
$GPRMC,174745.000,A,4305.3911,N,07740.0349,W,26.76,22.13,060525,,,A*79
$GPGGA,174745.250,4305.3928,N,07740.0340,W,1,05,3.14,164.6,M,-34.4,M,,*54
$GPRMC,174745.500,A,4305.3946,N,07740.0330,W,26.90,21.74,060525,,,A*7A
$GPGGA,174745.750,4305.3963,N,07740.0321,W,1,05,2.78,164.7,M,-34.4,M,,*53
$GPRMC,174746.000,A,4305.3980,N,07740.0312,W,26.97,21.20,060525,,,A*70
$GPGGA,174746.250,4305.3997,N,07740.0303,W,1,05,3.14,164.8,M,-34.4,M,,*5A
$GPRMC,174746.500,A,4305.4015,N,07740.0293,W,27.05,20.81,060525,,,A*7F
$GPGGA,174746.750,4305.4032,N,07740.0284,W,1,05,2.78,164.9,M,-34.4,M,,*5A
$GPRMC,174747.000,A,4305.4050,N,07740.0274,W,27.45,20.89,060525,,,A*7F
$GPGGA,174747.250,4305.4068,N,07740.0265,W,1,05,3.14,165.0,M,-34.4,M,,*5D
$GPRMC,174747.500,A,4305.4085,N,07740.0255,W,27.39,21.45,060525,,,A*7B
$GPGGA,174747.750,4305.4103,N,07740.0246,W,1,05,2.78,165.1,M,-34.4,M,,*5F
$GPRMC,174748.000,A,4305.4120,N,07740.0236,W,27.00,22.03,060525,,,A*71
$GPGGA,174748.250,4305.4136,N,07740.0226,W,1,05,3.14,165.3,M,-34.4,M,,*5C
$GPRMC,174748.500,A,4305.4153,N,07740.0216,W,26.71,22.96,060525,,,A*79
$GPGGA,174748.750,4305.4169,N,07740.0206,W,1,05,3.14,165.4,M,-34.4,M,,*56
$GPRMC,174749.000,A,4305.4186,N,07740.0196,W,26.31,22.74,060525,,,A*76
$GPGGA,174749.250,4305.4202,N,07740.0187,W,1,05,3.14,165.5,M,-34.4,M,,*57
$GPRMC,174749.500,A,4305.4220,N,07740.0176,W,26.39,22.60,060525,,,A*7F
$GPGGA,174749.750,4305.4236,N,07740.0167,W,1,05,2.78,165.5,M,-34.4,M,,*50
$GPRMC,174750.000,A,4305.4253,N,07740.0157,W,26.37,23.22,060525,,,A*7C
$GPGGA,174750.250,4305.4270,N,07740.0147,W,1,05,3.13,165.6,M,-34.4,M,,*52
$GPRMC,174750.500,A,4305.4287,N,07740.0138,W,26.43,21.72,060525,,,A*7D
$GPGGA,174750.750,4305.4304,N,07740.0129,W,1,05,3.14,165.6,M,-34.4,M,,*5A
$GPRMC,174751.000,A,4305.4320,N,07740.0120,W,26.05,21.84,060525,,,A*77
$GPGGA,174751.250,4305.4336,N,07740.0112,W,1,05,3.13,165.6,M,-34.4,M,,*50
$GPRMC,174751.500,A,4305.4351,N,07740.0104,W,25.31,21.89,060525,,,A*7B
$GPGGA,174751.750,4305.4366,N,07740.0096,W,1,05,2.78,165.7,M,-34.4,M,,*50
$GPRMC,174752.000,A,4305.4381,N,07740.0087,W,24.68,21.95,060525,,,A*7A
$GPGGA,174752.250,4305.4396,N,07740.0079,W,1,05,3.13,165.7,M,-34.4,M,,*54
$GPRMC,174752.500,A,4305.4411,N,07740.0071,W,24.46,21.61,060525,,,A*7F
$GPGGA,174752.750,4305.4426,N,07740.0064,W,1,05,2.78,165.7,M,-34.4,M,,*5D
$GPRMC,174753.000,A,4305.4440,N,07740.0057,W,24.08,21.45,060525,,,A*77
$GPGGA,174753.250,4305.4454,N,07740.0049,W,1,05,3.13,165.8,M,-34.4,M,,*50
$GPRMC,174753.500,A,4305.4469,N,07740.0042,W,23.61,21.68,060525,,,A*7A
$GPGGA,174753.750,4305.4483,N,07740.0034,W,1,05,2.78,165.9,M,-34.4,M,,*58
$GPRMC,174754.000,A,4305.4497,N,07740.0026,W,23.21,21.65,060525,,,A*72
$GPGGA,174754.250,4305.4512,N,07740.0018,W,1,06,2.31,166.0,M,-34.4,M,,*59
$GPRMC,174754.500,A,4305.4527,N,07740.0010,W,22.92,21.87,060525,,,A*7D
$GPGGA,174754.750,4305.4543,N,07740.0001,W,1,06,1.48,166.1,M,-34.4,M,,*5C
$GPRMC,174755.000,A,4305.4558,N,07739.9993,W,22.74,21.86,060525,,,A*7D
$GPGGA,174755.250,4305.4573,N,07739.9985,W,1,06,2.31,166.2,M,-34.4,M,,*57
$GPRMC,174755.500,A,4305.4588,N,07739.9977,W,22.39,21.81,060525,,,A*71
$GPGGA,174755.750,4305.4603,N,07739.9969,W,1,06,1.48,166.3,M,-34.4,M,,*58
$GPRMC,174756.000,A,4305.4617,N,07739.9961,W,21.98,21.81,060525,,,A*7D
$GPGGA,174756.250,4305.4631,N,07739.9954,W,1,06,2.31,166.3,M,-34.4,M,,*5C
$GPRMC,174756.500,A,4305.4645,N,07739.9947,W,21.20,21.74,060525,,,A*72
$GPGGA,174756.750,4305.4658,N,07739.9940,W,1,06,2.31,166.4,M,-34.4,M,,*54
$GPRMC,174757.000,A,4305.4672,N,07739.9932,W,20.70,21.70,060525,,,A*70
$GPGGA,174757.250,4305.4685,N,07739.9925,W,1,06,2.31,166.4,M,-34.4,M,,*53
$GPRMC,174757.500,A,4305.4698,N,07739.9918,W,20.43,21.23,060525,,,A*7F
$GPGGA,174757.750,4305.4711,N,07739.9911,W,1,06,2.31,166.4,M,-34.4,M,,*5D
$GPRMC,174758.000,A,4305.4724,N,07739.9904,W,19.85,21.35,060525,,,A*79
$GPGGA,174758.250,4305.4736,N,07739.9898,W,1,06,2.31,166.4,M,-34.4,M,,*52
$GPRMC,174758.500,A,4305.4748,N,07739.9892,W,19.09,20.95,060525,,,A*77
$GPGGA,174758.750,4305.4761,N,07739.9886,W,1,06,2.31,166.2,M,-34.4,M,,*5C
$GPRMC,174759.000,A,4305.4772,N,07739.9880,W,18.27,21.20,060525,,,A*7B
$GPGGA,174759.250,4305.4783,N,07739.9874,W,1,06,2.31,166.1,M,-34.4,M,,*5A
$GPRMC,174759.500,A,4305.4793,N,07739.9868,W,16.83,21.82,060525,,,A*7F
$GPGGA,174759.750,4305.4803,N,07739.9862,W,1,06,2.31,166.0,M,-34.4,M,,*5E
$GPRMC,174800.000,A,4305.4811,N,07739.9855,W,15.63,24.76,060525,,,A*71
$GPGGA,174800.250,4305.4819,N,07739.9848,W,1,06,2.31,166.0,M,-34.4,M,,*5B
$GPRMC,174800.500,A,4305.4827,N,07739.9841,W,13.99,29.26,060525,,,A*7F
$GPGGA,174800.750,4305.4834,N,07739.9834,W,1,06,2.31,165.9,M,-34.4,M,,*50
$GPRMC,174801.000,A,4305.4842,N,07739.9826,W,13.59,33.79,060525,,,A*74
$GPGGA,174801.250,4305.4849,N,07739.9816,W,1,06,2.31,165.8,M,-34.4,M,,*5F
$GPRMC,174801.500,A,4305.4854,N,07739.9805,W,14.17,47.14,060525,,,A*72
$GPGGA,174801.750,4305.4859,N,07739.9793,W,1,06,2.31,166.0,M,-34.4,M,,*52
$GPRMC,174802.000,A,4305.4864,N,07739.9782,W,14.76,53.63,060525,,,A*75
$GPGGA,174802.250,4305.4869,N,07739.9770,W,1,06,2.31,166.0,M,-34.4,M,,*5A
$GPRMC,174802.500,A,4305.4873,N,07739.9758,W,14.76,58.36,060525,,,A*7A
$GPGGA,174802.750,4305.4877,N,07739.9746,W,1,06,1.48,166.2,M,-34.4,M,,*5A
$GPRMC,174803.000,A,4305.4878,N,07739.9733,W,15.38,66.67,060525,,,A*7A
$GPGGA,174803.250,4305.4878,N,07739.9720,W,1,06,2.31,166.3,M,-34.4,M,,*5D
$GPRMC,174803.500,A,4305.4877,N,07739.9708,W,15.56,75.69,060525,,,A*7C
$GPGGA,174803.750,4305.4877,N,07739.9695,W,1,06,2.31,166.1,M,-34.4,M,,*5A
$GPRMC,174804.000,A,4305.4876,N,07739.9682,W,15.71,81.36,060525,,,A*78
$GPGGA,174804.250,4305.4875,N,07739.9668,W,1,06,2.31,166.2,M,-34.4,M,,*5B
$GPRMC,174804.500,A,4305.4873,N,07739.9653,W,16.62,87.80,060525,,,A*7E
$GPGGA,174804.750,4305.4870,N,07739.9638,W,1,06,2.31,166.2,M,-34.4,M,,*5E
$GPRMC,174805.000,A,4305.4867,N,07739.9623,W,16.84,93.15,060525,,,A*79
$GPGGA,174805.250,4305.4862,N,07739.9609,W,1,06,2.31,166.6,M,-34.4,M,,*5F
$GPRMC,174805.500,A,4305.4857,N,07739.9595,W,17.36,98.49,060525,,,A*7B
$GPGGA,174805.750,4305.4855,N,07739.9580,W,1,06,2.31,167.0,M,-34.4,M,,*5B
$GPRMC,174806.000,A,4305.4853,N,07739.9569,W,17.35,98.75,060525,,,A*76
$GPGGA,174806.250,4305.4853,N,07739.9557,W,1,06,2.31,166.7,M,-34.4,M,,*57
$GPRMC,174806.500,A,4305.4852,N,07739.9540,W,17.53,97.82,060525,,,A*7E
$GPGGA,174806.750,4305.4851,N,07739.9524,W,1,06,2.31,166.8,M,-34.4,M,,*5B
$GPRMC,174807.000,A,4305.4850,N,07739.9507,W,17.80,96.82,060525,,,A*74
$GPGGA,174807.250,4305.4850,N,07739.9490,W,1,06,2.31,167.1,M,-34.4,M,,*58
$GPRMC,174807.500,A,4305.4850,N,07739.9474,W,17.58,94.82,060525,,,A*73
$GPGGA,174807.750,4305.4850,N,07739.9457,W,1,06,2.31,167.5,M,-34.4,M,,*52
$GPRMC,174808.000,A,4305.4852,N,07739.9443,W,16.70,90.40,060525,,,A*7E
$GPGGA,174808.250,4305.4854,N,07739.9434,W,1,06,2.31,167.6,M,-34.4,M,,*5A
$GPRMC,174808.500,A,4305.4855,N,07739.9424,W,14.95,87.35,060525,,,A*70
$GPGGA,174808.750,4305.4857,N,07739.9412,W,1,06,2.31,167.6,M,-34.4,M,,*58
$GPRMC,174809.000,A,4305.4866,N,07739.9398,W,15.04,79.85,060525,,,A*77
$GPGGA,174809.250,4305.4875,N,07739.9382,W,1,06,2.31,167.7,M,-34.4,M,,*53
$GPRMC,174809.500,A,4305.4883,N,07739.9367,W,16.32,71.87,060525,,,A*75
$GPGGA,174809.750,4305.4892,N,07739.9354,W,1,06,1.48,167.8,M,-34.4,M,,*56
$GPRMC,174810.000,A,4305.4904,N,07739.9339,W,17.32,62.42,060525,,,A*77
$GPGGA,174810.250,4305.4913,N,07739.9325,W,1,06,2.31,168.0,M,-34.4,M,,*5F
$GPRMC,174810.500,A,4305.4921,N,07739.9312,W,17.69,58.04,060525,,,A*79
$GPGGA,174810.750,4305.4928,N,07739.9298,W,1,06,1.48,168.3,M,-34.4,M,,*5B
$GPRMC,174811.000,A,4305.4936,N,07739.9286,W,17.71,55.51,060525,,,A*73
$GPGGA,174811.250,4305.4943,N,07739.9272,W,1,06,1.48,168.6,M,-34.4,M,,*53
$GPRMC,174811.500,A,4305.4952,N,07739.9260,W,17.02,45.37,060525,,,A*79
$GPGGA,174811.750,4305.4960,N,07739.9249,W,1,06,1.48,168.6,M,-34.4,M,,*5F
$GPRMC,174812.000,A,4305.4969,N,07739.9238,W,17.02,45.73,060525,,,A*7A
$GPGGA,174812.250,4305.4977,N,07739.9226,W,1,06,2.31,168.7,M,-34.4,M,,*5A
$GPRMC,174812.500,A,4305.4985,N,07739.9214,W,17.14,46.87,060525,,,A*7C
$GPGGA,174812.750,4305.4993,N,07739.9202,W,1,06,1.48,168.7,M,-34.4,M,,*5E
$GPRMC,174813.000,A,4305.5000,N,07739.9190,W,17.15,49.36,060525,,,A*76
$GPGGA,174813.250,4305.5007,N,07739.9178,W,1,06,2.31,168.7,M,-34.4,M,,*5C
$GPRMC,174813.500,A,4305.5014,N,07739.9166,W,17.08,51.52,060525,,,A*78
$GPGGA,174813.750,4305.5021,N,07739.9154,W,1,06,2.31,168.8,M,-34.4,M,,*5C
$GPRMC,174814.000,A,4305.5026,N,07739.9141,W,17.05,54.98,060525,,,A*70
$GPGGA,174814.250,4305.5031,N,07739.9127,W,1,06,2.31,168.8,M,-34.4,M,,*5B
$GPRMC,174814.500,A,4305.5036,N,07739.9114,W,17.22,59.77,060525,,,A*7D
$GPGGA,174814.750,4305.5041,N,07739.9100,W,1,06,2.31,168.9,M,-34.4,M,,*5D
$GPRMC,174815.000,A,4305.5045,N,07739.9085,W,17.30,62.78,060525,,,A*70
$GPGGA,174815.250,4305.5050,N,07739.9071,W,1,06,2.31,168.8,M,-34.4,M,,*5F
$GPRMC,174815.500,A,4305.5055,N,07739.9055,W,17.56,64.92,060525,,,A*7B
$GPGGA,174815.750,4305.5060,N,07739.9040,W,1,06,2.31,168.8,M,-34.4,M,,*5B
$GPRMC,174816.000,A,4305.5064,N,07739.9024,W,17.88,67.01,060525,,,A*73
$GPGGA,174816.250,4305.5069,N,07739.9008,W,1,06,2.31,168.7,M,-34.4,M,,*57
$GPRMC,174816.500,A,4305.5073,N,07739.8993,W,17.86,67.43,060525,,,A*7C
$GPGGA,174816.750,4305.5078,N,07739.8977,W,1,06,1.48,168.7,M,-34.4,M,,*5F
$GPRMC,174817.000,A,4305.5082,N,07739.8960,W,17.97,68.35,060525,,,A*74
$GPGGA,174817.250,4305.5085,N,07739.8944,W,1,06,2.31,168.6,M,-34.4,M,,*55
$GPRMC,174817.500,A,4305.5090,N,07739.8928,W,18.00,70.34,060525,,,A*77
$GPGGA,174817.750,4305.5091,N,07739.8912,W,1,06,1.48,168.7,M,-34.4,M,,*5A
$GPRMC,174818.000,A,4305.5093,N,07739.8897,W,17.30,73.65,060525,,,A*70
$GPGGA,174818.250,4305.5095,N,07739.8881,W,1,06,2.31,168.5,M,-34.4,M,,*50
$GPRMC,174818.500,A,4305.5098,N,07739.8865,W,16.59,75.28,060525,,,A*72
$GPGGA,174818.750,4305.5100,N,07739.8850,W,1,06,2.31,168.2,M,-34.4,M,,*53
$GPRMC,174819.000,A,4305.5103,N,07739.8835,W,16.22,75.87,060525,,,A*79
$GPGGA,174819.250,4305.5105,N,07739.8821,W,1,06,2.31,168.1,M,-34.4,M,,*57
$GPRMC,174819.500,A,4305.5106,N,07739.8807,W,15.88,77.91,060525,,,A*7E
$GPGGA,174819.750,4305.5108,N,07739.8792,W,1,06,2.31,168.1,M,-34.4,M,,*58
$GPRMC,174820.000,A,4305.5109,N,07739.8778,W,15.80,79.39,060525,,,A*7D
$GPGGA,174820.250,4305.5109,N,07739.8764,W,1,06,2.31,168.0,M,-34.4,M,,*5E
$GPRMC,174820.500,A,4305.5110,N,07739.8750,W,15.72,82.13,060525,,,A*7B
$GPGGA,174820.750,4305.5110,N,07739.8735,W,1,06,2.31,168.0,M,-34.4,M,,*57
$GPRMC,174821.000,A,4305.5111,N,07739.8721,W,15.66,82.81,060525,,,A*76
$GPGGA,174821.250,4305.5112,N,07739.8707,W,1,06,2.31,167.8,M,-34.4,M,,*57
$GPRMC,174821.500,A,4305.5113,N,07739.8693,W,15.43,83.05,060525,,,A*73
$GPGGA,174821.750,4305.5115,N,07739.8680,W,1,06,1.48,167.7,M,-34.4,M,,*59
$GPRMC,174822.000,A,4305.5116,N,07739.8666,W,15.07,82.61,060525,,,A*79
$GPGGA,174822.250,4305.5117,N,07739.8653,W,1,06,2.31,167.6,M,-34.4,M,,*5F
$GPRMC,174822.500,A,4305.5119,N,07739.8641,W,14.37,81.75,060525,,,A*72
$GPGGA,174822.750,4305.5120,N,07739.8629,W,1,06,2.31,167.4,M,-34.4,M,,*51
$GPRMC,174823.000,A,4305.5122,N,07739.8617,W,13.70,81.30,060525,,,A*78
$GPGGA,174823.250,4305.5124,N,07739.8604,W,1,06,2.31,167.1,M,-34.4,M,,*5B
$GPRMC,174823.500,A,4305.5125,N,07739.8592,W,13.11,81.26,060525,,,A*74
$GPGGA,174823.750,4305.5126,N,07739.8580,W,1,06,1.48,166.8,M,-34.4,M,,*56
$GPRMC,174824.000,A,4305.5127,N,07739.8568,W,12.61,81.28,060525,,,A*79
$GPGGA,174824.250,4305.5128,N,07739.8557,W,1,07,1.22,166.4,M,-34.4,M,,*51
$GPRMC,174824.500,A,4305.5128,N,07739.8546,W,12.11,85.48,060525,,,A*7A
$GPGGA,174824.750,4305.5137,N,07739.8538,W,1,07,1.20,165.7,M,-34.4,M,,*51
$GPRMC,174825.000,A,4305.5143,N,07739.8529,W,12.03,87.26,060525,,,A*73
$GPGGA,174825.250,4305.5145,N,07739.8517,W,1,07,1.22,165.1,M,-34.4,M,,*59
$GPRMC,174825.500,A,4305.5146,N,07739.8506,W,11.62,87.94,060525,,,A*73
$GPGGA,174825.750,4305.5147,N,07739.8496,W,1,07,1.22,164.7,M,-34.4,M,,*51
$GPRMC,174826.000,A,4305.5148,N,07739.8486,W,11.35,89.25,060525,,,A*74
$GPGGA,174826.250,4305.5150,N,07739.8476,W,1,07,1.22,164.4,M,-34.4,M,,*5C
$GPRMC,174826.500,A,4305.5152,N,07739.8466,W,11.01,88.86,060525,,,A*7B
$GPGGA,174826.750,4305.5153,N,07739.8457,W,1,07,1.22,164.1,M,-34.4,M,,*5C
$GPRMC,174827.000,A,4305.5155,N,07739.8448,W,10.69,88.37,060525,,,A*71
$GPGGA,174827.250,4305.5156,N,07739.8439,W,1,07,1.22,163.8,M,-34.4,M,,*5B
$GPRMC,174827.500,A,4305.5158,N,07739.8429,W,10.50,88.59,060525,,,A*7C
$GPGGA,174827.750,4305.5159,N,07739.8420,W,1,07,1.22,163.6,M,-34.4,M,,*57
$GPRMC,174828.000,A,4305.5159,N,07739.8410,W,10.28,89.25,060525,,,A*78
$GPGGA,174828.250,4305.5159,N,07739.8401,W,1,07,1.22,163.3,M,-34.4,M,,*5B
$GPRMC,174828.500,A,4305.5160,N,07739.8392,W,9.77,91.78,060525,,,A*49
$GPGGA,174828.750,4305.5159,N,07739.8384,W,1,07,1.22,163.1,M,-34.4,M,,*56
$GPRMC,174829.000,A,4305.5159,N,07739.8376,W,8.88,92.82,060525,,,A*4A
$GPGGA,174829.250,4305.5159,N,07739.8369,W,1,07,1.22,163.0,M,-34.4,M,,*50
$GPRMC,174829.500,A,4305.5160,N,07739.8363,W,7.74,91.09,060525,,,A*4D
$GPGGA,174829.750,4305.5162,N,07739.8357,W,1,07,1.22,162.8,M,-34.4,M,,*59
$GPRMC,174830.000,A,4305.5163,N,07739.8350,W,7.10,86.32,060525,,,A*4F
$GPGGA,174830.250,4305.5163,N,07739.8344,W,1,07,1.22,162.6,M,-34.4,M,,*59
$GPRMC,174830.500,A,4305.5163,N,07739.8338,W,7.02,85.08,060525,,,A*4D
$GPGGA,174830.750,4305.5164,N,07739.8332,W,1,07,1.22,162.3,M,-34.4,M,,*5F
$GPRMC,174831.000,A,4305.5165,N,07739.8327,W,6.05,75.95,060525,,,A*4C
$GPGGA,174831.250,4305.5168,N,07739.8323,W,1,07,1.22,162.2,M,-34.4,M,,*56
$GPRMC,174831.500,A,4305.5173,N,07739.8318,W,5.84,57.95,060525,,,A*48
$GPGGA,174831.750,4305.5176,N,07739.8313,W,1,07,1.20,162.1,M,-34.4,M,,*5E
$GPRMC,174832.000,A,4305.5179,N,07739.8309,W,6.04,48.53,060525,,,A*4B
$GPGGA,174832.250,4305.5183,N,07739.8306,W,1,07,1.22,161.8,M,-34.4,M,,*5E
$GPRMC,174832.500,A,4305.5187,N,07739.8303,W,6.07,34.03,060525,,,A*48
$GPGGA,174832.750,4305.5190,N,07739.8303,W,1,07,1.22,161.1,M,-34.4,M,,*55
$GPRMC,174833.000,A,4305.5190,N,07739.8305,W,5.53,27.84,060525,,,A*43
$GPGGA,174833.250,4305.5188,N,07739.8308,W,1,07,1.22,160.5,M,-34.4,M,,*56
$GPRMC,174833.500,A,4305.5189,N,07739.8310,W,4.95,17.90,060525,,,A*47
$GPGGA,174833.750,4305.5193,N,07739.8312,W,1,07,1.22,159.8,M,-34.4,M,,*55
$GPRMC,174834.000,A,4305.5197,N,07739.8314,W,4.88,7.83,060525,,,A*71
$GPGGA,174834.250,4305.5200,N,07739.8315,W,1,07,1.22,159.2,M,-34.4,M,,*53
$GPRMC,174834.500,A,4305.5204,N,07739.8316,W,4.48,8.14,060525,,,A*72
$GPGGA,174834.750,4305.5207,N,07739.8316,W,1,07,1.22,158.9,M,-34.4,M,,*58
$GPRMC,174835.000,A,4305.5210,N,07739.8316,W,3.66,15.61,060525,,,A*46
$GPGGA,174835.250,4305.5211,N,07739.8317,W,1,07,1.20,158.7,M,-34.4,M,,*56
$GPRMC,174835.500,A,4305.5213,N,07739.8317,W,2.88,19.24,060525,,,A*4D
$GPGGA,174835.750,4305.5215,N,07739.8317,W,1,07,1.20,158.5,M,-34.4,M,,*55
$GPRMC,174836.000,A,4305.5216,N,07739.8317,W,2.36,19.24,060525,,,A*4B
$GPGGA,174836.250,4305.5217,N,07739.8318,W,1,07,1.20,158.3,M,-34.4,M,,*58
$GPGGA,174839.500,4305.5228,N,07739.8322,W,1,07,1.20,156.8,M,-34.4,M,,*55
$GPRMC,174839.500,A,4305.5228,N,07739.8322,W,2.59,19.24,060525,,,A*43
$GPGGA,174839.750,4305.5229,N,07739.8321,W,1,07,1.20,156.7,M,-34.4,M,,*5F
$GPRMC,174839.750,A,4305.5229,N,07739.8321,W,2.61,19.24,060525,,,A*4D
$GPGGA,174840.000,4305.5230,N,07739.8321,W,1,07,1.20,156.6,M,-34.4,M,,*5A
$GPRMC,174840.000,A,4305.5230,N,07739.8321,W,2.81,19.24,060525,,,A*47
$GPGGA,174840.250,4305.5233,N,07739.8322,W,1,07,1.20,156.4,M,-34.4,M,,*5F
$GPRMC,174840.250,A,4305.5233,N,07739.8322,W,3.08,27.98,060525,,,A*4A
$GPGGA,174840.500,4305.5235,N,07739.8323,W,1,07,1.20,156.3,M,-34.4,M,,*5D
$GPRMC,174840.500,A,4305.5235,N,07739.8323,W,3.29,25.19,060525,,,A*47
$GPGGA,174840.750,4305.5236,N,07739.8325,W,1,07,1.20,156.2,M,-34.4,M,,*5E
$GPRMC,174840.750,A,4305.5236,N,07739.8325,W,3.32,24.09,060525,,,A*4F
$GPGGA,174841.000,4305.5235,N,07739.8329,W,1,07,1.20,156.1,M,-34.4,M,,*51
$GPRMC,174841.000,A,4305.5235,N,07739.8329,W,3.28,21.18,060525,,,A*4D
$GPGGA,174841.250,4305.5233,N,07739.8332,W,1,07,1.20,156.1,M,-34.4,M,,*5A
$GPRMC,174841.250,A,4305.5233,N,07739.8332,W,3.21,17.18,060525,,,A*4A
$GPGGA,174841.500,4305.5235,N,07739.8333,W,1,07,1.20,156.0,M,-34.4,M,,*5E
$GPRMC,174841.500,A,4305.5235,N,07739.8333,W,3.23,16.08,060525,,,A*4D
$GPGGA,174841.750,4305.5237,N,07739.8333,W,1,07,1.20,155.9,M,-34.4,M,,*51
$GPRMC,174841.750,A,4305.5237,N,07739.8333,W,3.27,13.62,060525,,,A*45
$GPGGA,174842.000,4305.5239,N,07739.8331,W,1,07,1.22,155.8,M,-34.4,M,,*5F
$GPRMC,174842.000,A,4305.5239,N,07739.8331,W,3.61,16.58,060525,,,A*46
$GPGGA,174842.250,4305.5239,N,07739.8333,W,1,07,1.20,155.7,M,-34.4,M,,*57
$GPRMC,174842.250,A,4305.5239,N,07739.8333,W,3.58,12.93,060525,$GPGGA,174842.500,4305.5240,N,07739.8334,W,1,07,1.22,155.6,M,-34.4,M,,*5F
$GPRMC,174842.750,A,4305.5242,N,07739.8335,W,3.54,10.79,060525,,,A*4F
$GPGGA,174843.000,4305.5239,N,07739.8338,W,1,07,1.22,155.4,M,-34.4,M,,*5B
$GPRMC,174843.250,A,4305.5236,N,07739.8340,W,3.26,9.87,060525,,,A*76
$GPGGA,174843.500,4305.5236,N,07739.8340,W,1,07,1.22,155.2,M,-34.4,M,,*58
$GPRMC,174843.750,A,4305.5234,N,07739.8339,W,2.99,15.25,060525,,,A*4F
$GPGGA,174844.000,4305.5234,N,07739.8337,W,1,07,1.20,154.9,M,-34.4,M,,*50
$GPRMC,174844.250,A,4305.5234,N,07739.8334,W,3.44,25.42,060525,,,A*43
$GPGGA,174844.500,4305.5235,N,07739.8332,W,1,07,1.20,154.6,M,-34.4,M,,*5E
$GPRMC,174844.750,A,4305.5236,N,07739.8330,W,3.71,29.83,060525,,,A*47
$GPGGA,174845.000,4305.5237,N,07739.8327,W,1,07,1.20,154.4,M,-34.4,M,,*5E
$GPRMC,174845.250,A,4305.5239,N,07739.8325,W,3.92,33.81,060525,,,A*4C
$GPGGA,174845.500,4305.5238,N,07739.8323,W,1,07,1.22,154.3,M,-34.4,M,,*55
$GPRMC,174845.750,A,4305.5238,N,07739.8322,W,3.75,34.23,060525,,,A*49
$GPGGA,174846.000,4305.5239,N,07739.8320,W,1,07,1.20,154.2,M,-34.4,M,,*52
$GPRMC,174846.250,A,4305.5238,N,07739.8319,W,3.72,35.41,060525,,,A*45
$GPGGA,174846.500,4305.5240,N,07739.8317,W,1,07,1.20,154.0,M,-34.4,M,,*5F
$GPRMC,174846.750,A,4305.5241,N,07739.8316,W,3.89,33.41,060525,,,A*43
$GPGGA,174847.000,4305.5242,N,07739.8316,W,1,07,1.22,154.0,M,-34.4,M,,*5A
$GPRMC,174847.250,A,4305.5243,N,07739.8316,W,3.55,26.24,060525,,,A*43
$GPGGA,174847.500,4305.5244,N,07739.8315,W,1,06,1.24,154.0,M,-34.4,M,,*5D
$GPRMC,174847.750,A,4305.5246,N,07739.8315,W,3.52,22.97,060525,,,A*4B
$GPGGA,174848.000,4305.5247,N,07739.8314,W,1,06,1.24,154.0,M,-34.4,M,,*55
$GPRMC,174848.250,A,4305.5247,N,07739.8315,W,3.29,21.85,060525,,,A*4C
$GPGGA,174848.500,4305.5247,N,07739.8317,W,1,07,1.20,154.0,M,-34.4,M,,*56
$GPRMC,174848.750,A,4305.5246,N,07739.8318,W,3.17,24.47,060525,,,A*43
$GPGGA,174849.000,4305.5244,N,07739.8321,W,1,06,1.24,154.0,M,-34.4,M,,*51
$GPRMC,174849.250,A,4305.5243,N,07739.8323,W,2.61,26.26,060525,,,A*4F
$GPGGA,174849.500,4305.5242,N,07739.8324,W,1,06,1.24,154.0,M,-34.4,M,,*57
$GPRMC,174849.750,A,4305.5242,N,07739.8325,W,2.25,26.26,060525,,,A*4D
$GPGGA,174850.000,4305.5242,N,07739.8325,W,1,06,1.24,154.0,M,-34.4,M,,*5B
$GPGGA,174851.500,4305.5238,N,07739.8333,W,1,06,1.24,154.1,M,-34.4,M,,*54
$GPRMC,174851.500,A,4305.5238,N,07739.8333,W,2.39,26.26,060525,,,A*44
$GPGGA,174851.750,4305.5239,N,07739.8334,W,1,06,1.24,154.1,M,-34.4,M,,*55
$GPRMC,174851.750,A,4305.5239,N,07739.8334,W,2.34,26.26,060525,,,A*48
$GPGGA,174854.250,4305.5228,N,07739.8350,W,1,07,1.20,154.1,M,-34.4,M,,*52
$GPRMC,174854.250,A,4305.5228,N,07739.8350,W,2.02,26.26,060525,,,A*4F
$GPGGA,174854.500,4305.5225,N,07739.8353,W,1,07,1.20,154.1,M,-34.4,M,,*5E
$GPRMC,174854.500,A,4305.5225,N,07739.8353,W,1.83,26.26,060525,,,A*49
$GPGGA,174857.500,4305.5218,N,07739.8367,W,1,07,1.21,154.4,M,-34.4,M,,*50
$GPRMC,174857.500,A,4305.5218,N,07739.8367,W,1.41,26.26,060525,,,A*4D
$GPGGA,174857.750,4305.5218,N,07739.8367,W,1,07,1.21,154.4,M,-34.4,M,,*57
$GPRMC,174857.750,A,4305.5218,N,07739.8367,W,1.40,26.26,060525,,,A*4B
$GPGGA,175110.000,4305.5211,N,07739.8355,W,1,09,0.96,155.7,M,-34.4,M,,*57
$GPRMC,175110.000,A,4305.5211,N,07739.8355,W,3.17,101.63,060525,,,A*7F
$GPGGA,175110.250,4305.5211,N,07739.8350,W,1,09,0.96,155.7,M,-34.4,M,,*55
$GPRMC,175110.250,A,4305.5211,N,07739.8350,W,4.28,99.66,060525,,,A*43
$GPGGA,175110.500,4305.5208,N,07739.8340,W,1,09,0.98,155.7,M,-34.4,M,,*50
$GPRMC,175110.500,A,4305.5208,N,07739.8340,W,5.41,95.38,060525,,,A*41
$GPGGA,175110.750,4305.5206,N,07739.8330,W,1,09,0.98,155.7,M,-34.4,M,,*5E
$GPRMC,175110.750,A,4305.5206,N,07739.8330,W,5.77,94.38,060525,,,A*4B
$GPGGA,175111.000,4305.5204,N,07739.8321,W,1,09,0.98,155.7,M,-34.4,M,,*5F
$GPRMC,175111.000,A,4305.5204,N,07739.8321,W,6.09,93.46,060525,,,A*4E
$GPGGA,175111.250,4305.5202,N,07739.8312,W,1,09,0.98,155.7,M,-34.4,M,,*5E
$GPRMC,175111.250,A,4305.5202,N,07739.8312,W,6.27,90.99,060525,,,A*42
$GPGGA,175111.500,4305.5202,N,07739.8304,W,1,09,0.98,155.7,M,-34.4,M,,*5B
$GPRMC,175111.500,A,4305.5202,N,07739.8304,W,6.27,86.95,060525,,,A*4C
$GPGGA,175111.750,4305.5201,N,07739.8296,W,1,09,0.96,155.7,M,-34.4,M,,*5B
$GPRMC,175111.750,A,4305.5201,N,07739.8296,W,6.31,86.22,060525,,,A*49
$GPGGA,175112.000,4305.5200,N,07739.8288,W,1,09,0.98,155.7,M,-34.4,M,,*5A
$GPRMC,175112.000,A,4305.5200,N,07739.8288,W,6.47,86.41,060525,,,A*42
$GPGGA,175112.250,4305.5200,N,07739.8279,W,1,09,0.98,155.7,M,-34.4,M,,*53
$GPRMC,175112.250,A,4305.5200,N,07739.8279,W,7.04,86.91,060525,,,A*40
$GPGGA,175112.500,4305.5200,N,07739.8266,W,1,09,0.98,155.6,M,-34.4,M,,*5E
$GPRMC,175112.500,A,4305.5200,N,07739.8266,W,7.95,86.55,060525,,,A*4C
$GPGGA,175112.750,4305.5200,N,07739.8254,W,1,09,0.98,155.6,M,-34.4,M,,*58
$GPRMC,175112.750,A,4305.5200,N,07739.8254,W,8.63,86.28,060525,$GPGGA,175113.000,4305.5201,N,07739.8243,W,1,09,0.98,155.5,M,-34.4,M,,*5F
$GPRMC,175113.250,A,4305.5201,N,07739.8230,W,9.39,83.54,060525,,,A*41
$GPGGA,175113.500,4305.5202,N,07739.8218,W,1,09,0.98,155.6,M,-34.4,M,,*54
$GPRMC,175113.750,A,4305.5203,N,07739.8206,W,9.76,80.28,060525,,,A*40
$GPGGA,175114.000,4305.5203,N,07739.8195,W,1,09,0.98,155.6,M,-34.4,M,,*51
$GPRMC,175114.250,A,4305.5204,N,07739.8183,W,10.02,81.55,060525,,,A*7B
$GPGGA,175114.500,4305.5203,N,07739.8171,W,1,09,0.98,155.6,M,-34.4,M,,*5E
$GPRMC,175114.750,A,4305.5200,N,07739.8159,W,10.01,85.78,060525,,,A*75
$GPGGA,175115.000,4305.5198,N,07739.8148,W,1,09,0.98,155.4,M,-34.4,M,,*53
$GPRMC,175115.250,A,4305.5196,N,07739.8135,W,10.24,88.21,060525,,,A*71
$GPGGA,175115.500,4305.5194,N,07739.8123,W,1,09,0.98,155.2,M,-34.4,M,,*51
$GPRMC,175115.750,A,4305.5193,N,07739.8111,W,10.62,90.26,060525,,,A*7B
$GPGGA,175116.000,4305.5193,N,07739.8098,W,1,09,0.98,155.0,M,-34.4,M,,*53
$GPRMC,175116.250,A,4305.5193,N,07739.8086,W,11.21,89.85,060525,,,A*75
$GPGGA,175116.500,4305.5192,N,07739.8073,W,1,09,0.98,154.9,M,-34.4,M,,*5A
$GPRMC,175116.750,A,4305.5192,N,07739.8062,W,11.43,89.47,060525,,,A*71
$GPGGA,175117.000,4305.5192,N,07739.8049,W,1,09,0.98,154.9,M,-34.4,M,,*57
$GPRMC,175117.250,A,4305.5191,N,07739.8037,W,11.69,89.81,060525,,,A*74
$GPGGA,175117.500,4305.5191,N,07739.8025,W,1,09,0.98,154.9,M,-34.4,M,,*5B
$GPRMC,175117.750,A,4305.5190,N,07739.8013,W,11.68,90.12,060525,,,A*75
$GPGGA,175118.000,4305.5189,N,07739.8001,W,1,09,0.98,154.9,M,-34.4,M,,*5E
$GPRMC,175118.250,A,4305.5185,N,07739.7985,W,11.68,90.92,060525,,,A*7A
$GPGGA,175118.500,4305.5180,N,07739.7970,W,1,09,0.98,154.8,M,-34.4,M,,*53
$GPRMC,175118.750,A,4305.5177,N,07739.7957,W,11.63,92.23,060525,,,A*7E
$GPGGA,175119.000,4305.5173,N,07739.7944,W,1,09,0.98,154.8,M,-34.4,M,,*5C
$GPRMC,175119.250,A,4305.5170,N,07739.7932,W,11.63,94.09,060525,,,A*70
$GPGGA,175119.500,4305.5168,N,07739.7920,W,1,09,0.98,154.7,M,-34.4,M,,*5E
$GPRMC,175119.750,A,4305.5166,N,07739.7909,W,11.65,95.22,060525,,,A*74
$GPGGA,175120.000,4305.5165,N,07739.7897,W,1,09,0.98,154.6,M,-34.4,M,,*50
$GPRMC,175120.250,A,4305.5164,N,07739.7885,W,11.62,93.89,060525,,,A*7C
$GPGGA,175120.500,4305.5160,N,07739.7874,W,1,09,0.98,154.4,M,-34.4,M,,*5F
$GPRMC,175120.750,A,4305.5159,N,07739.7862,W,11.68,91.78,060525,,,A*78
$GPGGA,175121.000,4305.5156,N,07739.7851,W,1,09,0.98,154.1,M,-34.4,M,,*5C
$GPRMC,175121.250,A,4305.5154,N,07739.7839,W,11.87,90.57,060525,,,A*72
$GPGGA,175121.500,4305.5152,N,07739.7828,W,1,09,0.98,153.9,M,-34.4,M,,*5C
$GPRMC,175121.750,A,4305.5150,N,07739.7817,W,11.82,88.88,060525,,,A*71
$GPGGA,175122.000,4305.5151,N,07739.7806,W,1,09,0.98,153.8,M,-34.4,M,,*54
$GPRMC,175122.250,A,4305.5151,N,07739.7795,W,11.55,86.97,060525,,,A*79
$GPGGA,175122.500,4305.5152,N,07739.7784,W,1,09,0.98,153.7,M,-34.4,M,,*58
$GPRMC,175122.750,A,4305.5153,N,07739.7773,W,11.26,85.69,060525,,,A*70
$GPGGA,175123.000,4305.5154,N,07739.7763,W,1,09,0.98,153.5,M,-34.4,M,,*51
$GPRMC,175123.250,A,4305.5155,N,07739.7754,W,11.14,84.46,060525,,,A*7A
$GPGGA,175123.500,4305.5156,N,07739.7744,W,1,09,0.98,153.3,M,-34.4,M,,*55
$GPRMC,175123.750,A,4305.5157,N,07739.7733,W,11.00,83.82,060525,,,A*76
$GPGGA,175124.000,4305.5159,N,07739.7723,W,1,09,0.98,153.1,M,-34.4,M,,*5B
$GPRMC,175124.250,A,4305.5162,N,07739.7712,W,11.06,79.32,060525,,,A*79
$GPGGA,175124.500,4305.5166,N,07739.7701,W,1,09,0.98,152.8,M,-34.4,M,,*5A
$GPRMC,175124.750,A,4305.5171,N,07739.7691,W,11.05,70.65,060525,,,A*7C
$GPGGA,175125.000,4305.5178,N,07739.7679,W,1,09,0.98,152.7,M,-34.4,M,,*50
$GPRMC,175125.250,A,4305.5186,N,07739.7668,W,11.62,60.43,060525,,,A*72
$GPGGA,175125.500,4305.5193,N,07739.7659,W,1,09,0.98,152.8,M,-34.4,M,,*5D
$GPRMC,175125.750,A,4305.5201,N,07739.7649,W,12.24,49.17,060525,,,A*73
$GPGGA,175126.000,4305.5210,N,07739.7641,W,1,09,0.98,152.8,M,-34.4,M,,*5A
$GPRMC,175126.250,A,4305.5217,N,07739.7633,W,12.76,42.40,060525,,,A*71
$GPGGA,175126.500,4305.5227,N,07739.7633,W,1,09,0.98,152.7,M,-34.4,M,,*51
$GPRMC,175126.750,A,4305.5234,N,07739.7629,W,12.64,35.16,060525,,,A*7E
$GPGGA,175127.000,4305.5245,N,07739.7626,W,1,09,0.96,152.6,M,-34.4,M,,*5A
$GPRMC,175127.250,A,4305.5260,N,07739.7631,W,13.77,10.86,060525,,,A*7F
$GPGGA,175127.500,4305.5275,N,07739.7630,W,1,09,0.98,152.2,M,-34.4,M,,*51
$GPRMC,175127.750,A,4305.5288,N,07739.7630,W,14.88,4.42,060525,,,A*47
$GPGGA,175128.000,4305.5302,N,07739.7630,W,1,09,0.98,152.2,M,-34.4,M,,*5A
$GPRMC,175128.250,A,4305.5315,N,07739.7630,W,15.51,0.06,060525,,,A*49
$GPGGA,175128.500,4305.5328,N,07739.7630,W,1,09,0.98,152.2,M,-34.4,M,,*57
$GPRMC,175128.750,A,4305.5339,N,07739.7630,W,15.64,358.15,060525,,,A*48
$GPGGA,175129.000,4305.5350,N,07739.7631,W,1,09,0.98,152.1,M,-34.4,M,,*5E
$GPRMC,175129.250,A,4305.5361,N,07739.7633,W,15.72,356.46,060525,,,A*4D
$GPGGA,175129.500,4305.5372,N,07739.7633,W,1,09,0.98,152.0,M,-34.4,M,,*58
$GPRMC,175129.750,A,4305.5382,N,07739.7633,W,15.51,356.68,060525,,,A*48
$GPGGA,175130.000,4305.5392,N,07739.7633,W,1,09,0.98,151.9,M,-34.4,M,,*51
$GPRMC,175130.250,A,4305.5402,N,07739.7634,W,14.87,356.13,060525,,,A*4B
$GPGGA,175130.500,4305.5412,N,07739.7635,W,1,09,0.98,151.7,M,-34.4,M,,*53
$GPRMC,175130.750,A,4305.5422,N,07739.7636,W,14.48,355.67,060525,,,A*4D
$GPGGA,175131.000,4305.5432,N,07739.7637,W,1,08,1.11,151.5,M,-34.4,M,,*54
$GPRMC,175131.250,A,4305.5441,N,07739.7639,W,14.14,356.71,060525,,,A*4E
$GPGGA,175131.500,4305.5450,N,07739.7641,W,1,09,0.98,151.3,M,-34.4,M,,*53
$GPRMC,175131.750,A,4305.5460,N,07739.7641,W,14.08,357.85,060525,,,A*40
$GPGGA,175132.000,4305.5469,N,07739.7642,W,1,09,0.98,151.2,M,-34.4,M,,*5D
$GPRMC,175132.250,A,4305.5479,N,07739.7643,W,14.04,358.11,060525,,,A*42
$GPGGA,175132.500,4305.5488,N,07739.7644,W,1,09,0.98,151.1,M,-34.4,M,,*52
$GPRMC,175132.750,A,4305.5497,N,07739.7644,W,13.31,358.12,060525,,,A*42
$GPGGA,175133.000,4305.5505,N,07739.7645,W,1,08,1.11,151.1,M,-34.4,M,,*52
$GPRMC,175133.250,A,4305.5514,N,07739.7645,W,11.99,358.82,060525,,,A*44
$GPGGA,175133.500,4305.5522,N,07739.7644,W,1,09,0.98,151.1,M,-34.4,M,,*52
$GPRMC,175133.750,A,4305.5534,N,07739.7644,W,10.63,1.21,060525,,,A*40
$GPGGA,175134.000,4305.5545,N,07739.7642,W,1,09,0.98,151.1,M,-34.4,M,,*57
$GPRMC,175134.250,A,4305.5552,N,07739.7641,W,9.26,5.36,060525,,,A*7C
$GPGGA,175134.500,4305.5558,N,07739.7640,W,1,09,0.98,151.2,M,-34.4,M,,*5F
$GPRMC,175134.750,A,4305.5562,N,07739.7641,W,8.07,8.94,060525,,,A*7D
$GPGGA,175135.000,4305.5565,N,07739.7642,W,1,09,0.98,151.2,M,-34.4,M,,*57
$GPRMC,175135.250,A,4305.5568,N,07739.7642,W,6.64,13.84,060525,,,A*40
$GPGGA,175135.500,4305.5570,N,07739.7642,W,1,09,0.98,151.2,M,-34.4,M,,*56
$GPRMC,175135.750,A,4305.5573,N,07739.7641,W,4.93,17.54,060525,,,A*4F
$GPGGA,175136.000,4305.5575,N,07739.7639,W,1,09,0.98,151.2,M,-34.4,M,,*59
$GPRMC,175136.250,A,4305.5576,N,07739.7639,W,3.28,22.26,060525,,,A*47
$GPGGA,175136.500,4305.5577,N,07739.7638,W,1,09,0.96,151.2,M,-34.4,M,,*51
$GPRMC,175136.750,A,4305.5578,N,07739.7637,W,2.13,22.26,060525,,,A*4B
$GPGGA,175137.000,4305.5578,N,07739.7637,W,1,09,0.96,151.2,M,-34.4,M,,*55
$GPRMC,175142.000,A,4305.5587,N,07739.7639,W,3.16,29.97,060525,,,A*41
$GPGGA,175142.250,4305.5590,N,07739.7637,W,1,09,0.96,151.1,M,-34.4,M,,*55
$GPRMC,175142.500,A,4305.5595,N,07739.7633,W,4.34,39.45,060525,,,A*44
$GPGGA,175142.750,4305.5598,N,07739.7626,W,1,09,0.98,151.1,M,-34.4,M,,*56
$GPRMC,175143.000,A,4305.5602,N,07739.7614,W,7.74,63.62,060525,,,A*45
$GPGGA,175143.250,4305.5604,N,07739.7606,W,1,09,0.98,151.2,M,-34.4,M,,*55
$GPRMC,175143.500,A,4305.5607,N,07739.7596,W,9.67,71.53,060525,,,A*41
$GPGGA,175143.750,4305.5610,N,07739.7584,W,1,09,0.98,151.4,M,-34.4,M,,*5A
$GPRMC,175144.000,A,4305.5611,N,07739.7571,W,10.81,75.72,060525,,,A*7A
$GPGGA,175144.250,4305.5612,N,07739.7556,W,1,09,0.98,151.5,M,-34.4,M,,*54
$GPRMC,175144.500,A,4305.5612,N,07739.7539,W,13.94,83.97,060525,,,A*75
$GPGGA,175144.750,4305.5612,N,07739.7521,W,1,09,0.98,151.6,M,-34.4,M,,*52
$GPRMC,175145.000,A,4305.5612,N,07739.7502,W,15.77,86.59,060525,,,A*75
$GPGGA,175145.250,4305.5613,N,07739.7476,W,1,09,0.98,151.8,M,-34.4,M,,*5A
$GPRMC,175145.500,A,4305.5612,N,07739.7453,W,20.12,89.05,060525,,,A*76
$GPGGA,175145.750,4305.5612,N,07739.7431,W,1,09,0.98,152.0,M,-34.4,M,,*56
$GPRMC,175146.000,A,4305.5614,N,07739.7401,W,24.04,89.38,060525,,,A*7C
$GPGGA,175146.250,4305.5615,N,07739.7375,W,1,09,0.98,152.2,M,-34.4,M,,*52
$GPRMC,175146.500,A,4305.5615,N,07739.7349,W,24.79,89.57,060525,,,A*70
$GPGGA,175146.750,4305.5616,N,07739.7323,W,1,09,0.96,152.4,M,-34.4,M,,*5F
$GPRMC,175147.000,A,4305.5618,N,07739.7295,W,25.64,89.82,060525,,,A*7C
$GPGGA,175147.250,4305.5620,N,07739.7266,W,1,09,0.98,152.5,M,-34.4,M,,*51
$GPRMC,175147.500,A,4305.5622,N,07739.7235,W,26.38,88.45,060525,,,A*7A
$GPGGA,175147.750,4305.5623,N,07739.7205,W,1,09,0.96,152.6,M,-34.4,M,,*5F
$GPRMC,175148.000,A,4305.5626,N,07739.7172,W,29.93,87.18,060525,,,A*7D
$GPGGA,175148.250,4305.5628,N,07739.7137,W,1,09,0.98,152.7,M,-34.4,M,,*53
$GPRMC,175148.500,A,4305.5630,N,07739.7101,W,32.43,86.77,060525,,,A*74
$GPGGA,175148.750,4305.5632,N,07739.7066,W,1,09,0.96,152.9,M,-34.4,M,,*58
$GPRMC,175149.000,A,4305.5634,N,07739.7028,W,34.31,86.67,060525,,,A*7C
$GPGGA,175149.250,4305.5636,N,07739.6991,W,1,09,0.98,153.0,M,-34.4,M,,*5E
$GPRMC,175149.500,A,4305.5638,N,07739.6953,W,36.40,86.65,060525,,,A*77
$GPGGA,175149.750,4305.5640,N,07739.6914,W,1,09,0.96,153.2,M,-34.4,M,,*5B
$GPRMC,175150.000,A,4305.5642,N,07739.6872,W,38.64,86.61,060525,,,A*79
$GPGGA,175150.250,4305.5645,N,07739.6826,W,1,09,0.96,153.5,M,-34.4,M,,*54
$GPRMC,175150.500,A,4305.5647,N,07739.6781,W,42.73,86.90,060525,,,A*7F
$GPGGA,175150.750,4305.5650,N,07739.6736,W,1,09,0.96,153.8,M,-34.4,M,,*56
$GPRMC,175151.000,A,4305.5653,N,07739.6691,W,44.78,86.59,060525,,,A*76
$GPGGA,175151.250,4305.5657,N,07739.6642,W,1,09,0.98,154.0,M,-34.4,M,,*56
$GPRMC,175151.500,A,4305.5659,N,07739.6595,W,47.71,86.70,060525,,,A*7F
$GPGGA,175151.750,4305.5662,N,07739.6549,W,1,09,0.98,154.3,M,-34.4,M,,*5E
$GPRMC,175152.000,A,4305.5663,N,07739.6501,W,48.69,86.85,060525,,,A*71
$GPGGA,175152.250,4305.5665,N,07739.6454,W,1,09,0.98,154.5,M,-34.4,M,,*54
$GPRMC,175152.500,A,4305.5667,N,07739.6406,W,49.46,86.81,060525,,,A*7E
$GPGGA,175152.750,4305.5670,N,07739.6357,W,1,09,0.98,154.7,M,-34.4,M,,*53
$GPRMC,175153.000,A,4305.5672,N,07739.6309,W,49.71,86.63,060525,,,A*7E
$GPGGA,175153.250,4305.5673,N,07739.6261,W,1,09,0.98,154.9,M,-34.4,M,,*5E
$GPRMC,175153.500,A,4305.5675,N,07739.6214,W,49.54,86.98,060525,,,A*72
$GPGGA,175153.750,4305.5677,N,07739.6166,W,1,09,0.98,155.1,M,-34.4,M,,*52
$GPRMC,175154.000,A,4305.5678,N,07739.6119,W,48.90,87.20,060525,,,A*78
$GPGGA,175154.250,4305.5680,N,07739.6072,W,1,09,0.98,155.2,M,-34.4,M,,*5F
$GPRMC,175154.500,A,4305.5682,N,07739.6026,W,48.06,86.80,060525,,,A*71
$GPGGA,175154.750,4305.5684,N,07739.5980,W,1,09,0.98,155.2,M,-34.4,M,,*59
$GPRMC,175155.000,A,4305.5685,N,07739.5935,W,47.10,86.62,060525,,,A*7E
$GPGGA,175155.250,4305.5688,N,07739.5890,W,1,09,0.98,155.3,M,-34.4,M,,*50
$GPRMC,175155.500,A,4305.5690,N,07739.5845,W,46.24,86.20,060525,,,A*79
$GPGGA,175155.750,4305.5692,N,07739.5801,W,1,09,0.98,155.4,M,-34.4,M,,*51
$GPRMC,175156.000,A,4305.5695,N,07739.5757,W,45.52,85.84,060525,,,A*79
$GPGGA,175156.250,4305.5697,N,07739.5714,W,1,09,0.98,155.5,M,-34.4,M,,*58
$GPRMC,175156.500,A,4305.5698,N,07739.5672,W,44.73,85.96,060525,,,A*76
$GPGGA,175156.750,4305.5700,N,07739.5629,W,1,09,0.98,155.6,M,-34.4,M,,*5E
$GPRMC,175157.000,A,4305.5702,N,07739.5587,W,44.20,85.73,060525,,,A*74
$GPGGA,175157.250,4305.5704,N,07739.5545,W,1,09,0.98,155.7,M,-34.4,M,,*56
$GPRMC,175157.500,A,4305.5706,N,07739.5503,W,43.77,85.71,060525,,,A*7E
$GPGGA,175157.750,4305.5707,N,07739.5462,W,1,09,0.96,155.8,M,-34.4,M,,*55
$GPRMC,175158.000,A,4305.5709,N,07739.5421,W,43.15,85.74,060525,,,A*7B
$GPGGA,175158.250,4305.5711,N,07739.5380,W,1,09,0.98,155.8,M,-34.4,M,,*5D
$GPRMC,175158.500,A,4305.5712,N,07739.5339,W,42.97,85.90,060525,,,A*7B
$GPGGA,175158.750,4305.5714,N,07739.5299,W,1,09,0.98,155.8,M,-34.4,M,,*54
$GPRMC,175159.000,A,4305.5715,N,07739.5259,W,42.36,85.84,060525,,,A*71
$GPGGA,175159.250,4305.5716,N,07739.5219,W,1,09,0.98,155.8,M,-34.4,M,,*5A
$GPRMC,175159.500,A,4305.5718,N,07739.5179,W,41.38,85.94,060525,,,A*74
$GPGGA,175159.750,4305.5719,N,07739.5139,W,1,09,0.98,155.9,M,-34.4,M,,*50
$GPRMC,175200.000,A,4305.5721,N,07739.5100,W,41.05,85.99,060525,,,A*79
$GPGGA,175200.250,4305.5722,N,07739.5061,W,1,09,0.98,155.9,M,-34.4,M,,*5E
$GPRMC,175200.500,A,4305.5723,N,07739.5021,W,40.96,85.99,060525,,,A*77
$GPGGA,175200.750,4305.5725,N,07739.4982,W,1,09,0.98,155.7,M,-34.4,M,,*57
$GPRMC,175201.000,A,4305.5725,N,07739.4943,W,40.92,86.14,060525,,,A*7B
$GPGGA,175201.250,4305.5726,N,07739.4904,W,1,09,0.98,155.5,M,-34.4,M,,*5C
$GPRMC,175201.500,A,4305.5727,N,07739.4864,W,41.21,86.43,060525,,,A*73
$GPGGA,175201.750,4305.5728,N,07739.4825,W,1,09,0.98,155.3,M,-34.4,M,,*53
$GPRMC,175202.000,A,4305.5730,N,07739.4785,W,41.62,86.62,060525,,,A*77
$GPGGA,175202.250,4305.5731,N,07739.4745,W,1,09,0.98,155.1,M,-34.4,M,,*56
$GPRMC,175202.500,A,4305.5732,N,07739.4705,W,41.87,86.26,060525,,,A*73
$GPGGA,175202.750,4305.5733,N,07739.4665,W,1,09,0.98,154.9,M,-34.4,M,,*5B
$GPRMC,175203.000,A,4305.5734,N,07739.4625,W,41.97,86.47,060525,,,A*74
$GPGGA,175203.250,4305.5736,N,07739.4584,W,1,09,0.98,154.7,M,-34.4,M,,*58
$GPRMC,175203.500,A,4305.5737,N,07739.4544,W,42.20,86.53,060525,,,A*7C
$GPGGA,175203.750,4305.5738,N,07739.4504,W,1,09,0.98,154.5,M,-34.4,M,,*59
$GPRMC,175204.000,A,4305.5740,N,07739.4463,W,42.17,86.25,060525,,,A*7F
$GPGGA,175204.250,4305.5741,N,07739.4422,W,1,09,0.98,154.3,M,-34.4,M,,*56
$GPRMC,175204.500,A,4305.5743,N,07739.4382,W,42.12,86.23,060525,,,A*72
$GPGGA,175204.750,4305.5744,N,07739.4341,W,1,09,0.98,154.1,M,-34.4,M,,*56
$GPRMC,175205.000,A,4305.5747,N,07739.4301,W,42.10,85.89,060525,,,A*78
$GPGGA,175205.250,4305.5748,N,07739.4260,W,1,09,0.98,153.8,M,-34.4,M,,*52
$GPRMC,175205.500,A,4305.5750,N,07739.4220,W,42.16,86.13,060525,,,A*7F
$GPGGA,175205.750,4305.5751,N,07739.4179,W,1,09,0.98,153.5,M,-34.4,M,,*59
$GPRMC,175206.000,A,4305.5753,N,07739.4139,W,42.03,86.46,060525,,,A*75
$GPGGA,175206.250,4305.5754,N,07739.4099,W,1,09,0.98,153.3,M,-34.4,M,,*53
$GPRMC,175206.500,A,4305.5756,N,07739.4058,W,42.03,86.59,060525,,,A*7D
$GPGGA,175206.750,4305.5758,N,07739.4018,W,1,09,0.98,153.0,M,-34.4,M,,*50
$GPRMC,175207.000,A,4305.5759,N,07739.3978,W,41.99,87.00,060525,,,A*77
$GPGGA,175207.250,4305.5760,N,07739.3938,W,1,09,0.98,152.8,M,-34.4,M,,*5A
$GPRMC,175207.500,A,4305.5762,N,07739.3898,W,41.95,87.37,060525,,,A*7D
$GPGGA,175207.750,4305.5763,N,07739.3859,W,1,09,0.98,152.6,M,-34.4,M,,*54
$GPRMC,175208.000,A,4305.5764,N,07739.3819,W,41.73,87.65,060525,,,A*77
$GPGGA,175208.250,4305.5764,N,07739.3779,W,1,09,0.98,152.2,M,-34.4,M,,*50
$GPRMC,175208.500,A,4305.5765,N,07739.3740,W,41.72,88.00,060525,,,A*7D
$GPGGA,175208.750,4305.5766,N,07739.3700,W,1,09,0.98,151.9,M,-34.4,M,,*51
$GPRMC,175209.000,A,4305.5766,N,07739.3660,W,41.36,87.93,060525,,,A*7C
$GPGGA,175209.250,4305.5767,N,07739.3620,W,1,09,0.98,151.6,M,-34.4,M,,*58
$GPRMC,175209.500,A,4305.5768,N,07739.3581,W,40.94,88.02,060525,,,A*75
$GPGGA,175209.750,4305.5768,N,07739.3542,W,1,09,0.98,151.4,M,-34.4,M,,*57
$GPRMC,175210.000,A,4305.5769,N,07739.3503,W,40.42,88.21,060525,,,A*79
$GPGGA,175210.250,4305.5769,N,07739.3465,W,1,09,0.98,151.2,M,-34.4,M,,*59
$GPRMC,175210.500,A,4305.5769,N,07739.3427,W,39.78,88.35,060525,,,A*79
$GPGGA,175210.750,4305.5769,N,07739.3389,W,1,09,0.98,150.9,M,-34.4,M,,*53
$GPRMC,175211.000,A,4305.5769,N,07739.3351,W,39.27,88.42,060525,,,A*71
$GPGGA,175211.250,4305.5770,N,07739.3313,W,1,09,0.98,150.7,M,-34.4,M,,*52
$GPRMC,175211.500,A,4305.5770,N,07739.3276,W,39.19,88.05,060525,,,A*76
$GPGGA,175211.750,4305.5770,N,07739.3239,W,1,09,0.98,150.5,M,-34.4,M,,*5C
$GPRMC,175212.000,A,4305.5770,N,07739.3201,W,38.79,88.13,060525,,,A*70
$GPGGA,175212.250,4305.5770,N,07739.3164,W,1,09,0.98,150.3,M,-34.4,M,,*57
$GPRMC,175212.500,A,4305.5769,N,07739.3125,W,38.49,88.43,060525,,,A*7E
$GPGGA,175212.750,4305.5769,N,07739.3088,W,1,09,0.98,150.3,M,-34.4,M,,*59
$GPRMC,175213.000,A,4305.5768,N,07739.3052,W,37.62,89.10,060525,,,A*7B
$GPGGA,175213.250,4305.5767,N,07739.3017,W,1,09,0.98,150.3,M,-34.4,M,,*55
$GPRMC,175213.500,A,4305.5766,N,07739.2982,W,36.26,90.40,060525,,,A*79
$GPGGA,175213.750,4305.5765,N,07739.2949,W,1,09,0.98,150.6,M,-34.4,M,,*54
$GPRMC,175214.000,A,4305.5763,N,07739.2916,W,34.37,92.83,060525,,,A*7C
$GPGGA,175214.250,4305.5761,N,07739.2884,W,1,09,0.98,150.8,M,-34.4,M,,*5C
$GPRMC,175214.500,A,4305.5758,N,07739.2854,W,32.24,94.68,060525,,,A*71
$GPGGA,175214.750,4305.5756,N,07739.2824,W,1,09,0.98,150.9,M,-34.4,M,,*56
$GPRMC,175215.000,A,4305.5753,N,07739.2796,W,29.63,95.85,060525,,,A*74
$GPGGA,175215.250,4305.5751,N,07739.2770,W,1,09,0.98,151.2,M,-34.4,M,,*51
$GPRMC,175215.500,A,4305.5749,N,07739.2744,W,27.24,96.65,060525,,,A*75
$GPGGA,175215.750,4305.5746,N,07739.2719,W,1,09,0.98,151.3,M,-34.4,M,,*5C
$GPRMC,175216.000,A,4305.5744,N,07739.2695,W,25.01,97.76,060525,,,A*75
$GPGGA,175216.250,4305.5741,N,07739.2673,W,1,09,0.98,151.7,M,-34.4,M,,*54
$GPRMC,175216.500,A,4305.5738,N,07739.2651,W,23.58,98.85,060525,,,A*7A
$GPGGA,175216.750,4305.5735,N,07739.2630,W,1,09,0.98,152.1,M,-34.4,M,,*50
$GPRMC,175217.000,A,4305.5733,N,07739.2610,W,22.22,99.43,060525,,,A*77
$GPGGA,175217.250,4305.5730,N,07739.2590,W,1,09,0.98,152.3,M,-34.4,M,,*5A
$GPRMC,175217.500,A,4305.5728,N,07739.2570,W,21.16,99.45,060525,,,A*7F
$GPGGA,175217.750,4305.5726,N,07739.2551,W,1,09,0.98,152.6,M,-34.4,M,,*50
$GPRMC,175218.000,A,4305.5723,N,07739.2532,W,20.49,99.71,060525,,,A*74
$GPGGA,175218.250,4305.5720,N,07739.2514,W,1,09,0.98,152.8,M,-34.4,M,,*53
$GPRMC,175218.500,A,4305.5717,N,07739.2495,W,20.50,101.05,060525,,,A*41
$GPGGA,175218.750,4305.5714,N,07739.2476,W,1,09,0.98,153.0,M,-34.4,M,,*5D
$GPRMC,175219.000,A,4305.5711,N,07739.2456,W,21.02,101.71,060525,,,A*49
