Vers 72
USE_SERIAL_FEEDBACK=true
DEVELOPMENT_MODE=false
USE_RMC_ONLY=false

$GPRMC,144137.250,A,4305.1474,N,07740.8518,W,3.92,251.20,270825,,,A*7D
$GPGGA,144137.500,4305.1473,N,07740.8523,W,1,05,1.72,177.5,M,-34.4,M,,*5F
$GPRMC,144137.750,A,4305.1472,N,07740.8529,W,5.73,257.45,270825,,,A*70
$GPGGA,144138.000,4305.1471,N,07740.8534,W,1,05,1.61,177.4,M,-34.4,M,,*52
$GPRMC,144138.250,A,4305.1470,N,07740.8540,W,5.84,260.17,270825,,,A*7C
$GPGGA,144138.500,4305.1470,N,07740.8546,W,1,05,1.72,177.4,M,-34.4,M,,*51
$GPRMC,144138.750,A,4305.1469,N,07740.8553,W,6.80,262.33,270825,,,A*70
$GPGGA,144139.000,4305.1468,N,07740.8559,W,1,05,1.72,177.4,M,-34.4,M,,*52
$GPRMC,144139.250,A,4305.1468,N,07740.8566,W,7.08,263.70,270825,,,A*74
$GPGGA,144139.500,4305.1467,N,07740.8572,W,1,05,1.72,177.3,M,-34.4,M,,*56
$GPRMC,144139.750,A,4305.1467,N,07740.8579,W,7.18,264.80,270825,,,A*79
$GPGGA,144140.000,4305.1466,N,07740.8586,W,1,05,1.72,177.2,M,-34.4,M,,*56
$GPRMC,144140.250,A,4305.1466,N,07740.8592,W,7.08,263.88,270825,,,A*78
$GPGGA,144140.500,4305.1465,N,07740.8599,W,1,05,1.72,177.1,M,-34.4,M,,*5D
$GPRMC,144140.750,A,4305.1465,N,07740.8605,W,7.17,267.31,270825,,,A*7B
$GPGGA,144141.000,4305.1465,N,07740.8612,W,1,05,1.72,177.0,M,-34.4,M,,*58
$GPRMC,144141.250,A,4305.1465,N,07740.8618,W,6.87,267.18,270825,,,A*70
$GPGGA,144141.500,4305.1465,N,07740.8625,W,1,05,1.72,176.9,M,-34.4,M,,*51
$GPRMC,144141.750,A,4305.1464,N,07740.8631,W,6.92,268.23,270825,,,A*7C
$GPGGA,144142.000,4305.1464,N,07740.8637,W,1,05,1.62,176.6,M,-34.4,M,,*5B
$GPRMC,144142.250,A,4305.1464,N,07740.8644,W,6.83,267.29,270825,,,A*7D
$GPGGA,144142.500,4305.1464,N,07740.8650,W,1,05,1.72,176.3,M,-34.4,M,,*5B
$GPRMC,144142.750,A,4305.1463,N,07740.8656,W,6.67,268.05,270825,,,A*77
$GPGGA,144143.000,4305.1463,N,07740.8662,W,1,05,1.72,176.1,M,-34.4,M,,*5B
$GPRMC,144143.250,A,4305.1463,N,07740.8668,W,6.69,270.44,270825,,,A*7C
$GPGGA,144143.500,4305.1463,N,07740.8674,W,1,05,1.72,175.9,M,-34.4,M,,*52
$GPRMC,144143.750,A,4305.1463,N,07740.8680,W,6.55,273.38,270825,,,A*78
$GPGGA,144144.000,4305.1463,N,07740.8687,W,1,05,1.61,175.7,M,-34.4,M,,*50
$GPRMC,144144.250,A,4305.1464,N,07740.8693,W,6.65,272.11,270825,,,A*76
$GPGGA,144144.500,4305.1464,N,07740.8699,W,1,05,1.72,175.5,M,-34.4,M,,*5D
$GPRMC,144144.750,A,4305.1464,N,07740.8705,W,6.48,271.57,270825,,,A*73
$GPGGA,144145.000,4305.1464,N,07740.8711,W,1,05,1.61,175.3,M,-34.4,M,,*5C
$GPRMC,144145.250,A,4305.1463,N,07740.8717,W,6.38,271.67,270825,,,A*77
$GPGGA,144145.500,4305.1463,N,07740.8723,W,1,05,1.72,175.1,M,-34.4,M,,*5F
$GPRMC,144145.750,A,4305.1463,N,07740.8729,W,6.51,271.74,270825,,,A*72
$GPGGA,144146.000,4305.1463,N,07740.8735,W,1,05,1.72,174.7,M,-34.4,M,,*59
$GPRMC,144146.250,A,4305.1463,N,07740.8741,W,6.29,270.79,270825,,,A*79
$GPGGA,144146.500,4305.1463,N,07740.8747,W,1,05,1.72,174.4,M,-34.4,M,,*5A
$GPRMC,144146.750,A,4305.1463,N,07740.8753,W,6.38,273.29,270825,,,A*79
$GPGGA,144147.000,4305.1463,N,07740.8758,W,1,05,1.72,174.2,M,-34.4,M,,*56
$GPRMC,144147.250,A,4305.1463,N,07740.8764,W,6.22,274.43,270825,,,A*79
$GPGGA,144147.500,4305.1463,N,07740.8770,W,1,05,1.72,173.8,M,-34.4,M,,*54
$GPRMC,144147.750,A,4305.1464,N,07740.8776,W,6.19,274.99,270825,,,A*77
$GPGGA,144148.000,4305.1464,N,07740.8782,W,1,05,1.72,173.6,M,-34.4,M,,*5A
$GPRMC,144148.250,A,4305.1464,N,07740.8787,W,6.12,278.37,270825,,,A*70
$GPGGA,144148.500,4305.1465,N,07740.8793,W,1,05,1.72,173.4,M,-34.4,M,,*5C
$GPRMC,144148.750,A,4305.1466,N,07740.8798,W,6.09,280.80,270825,,,A*78
$GPGGA,144149.000,4305.1467,N,07740.8804,W,1,05,1.61,173.1,M,-34.4,M,,*5C
$GPRMC,144149.250,A,4305.1468,N,07740.8810,W,6.24,288.94,270825,,,A*7F
$GPGGA,144149.500,4305.1469,N,07740.8815,W,1,05,1.72,172.9,M,-34.4,M,,*5C
$GPRMC,144149.750,A,4305.1471,N,07740.8821,W,6.53,292.62,270825,,,A*72
$GPGGA,144150.000,4305.1473,N,07740.8826,W,1,05,1.72,172.7,M,-34.4,M,,*54
$GPRMC,144150.250,A,4305.1475,N,07740.8831,W,6.42,299.18,270825,,,A*7C
$GPGGA,144150.500,4305.1477,N,07740.8836,W,1,05,1.72,172.4,M,-34.4,M,,*57
$GPRMC,144150.750,A,4305.1480,N,07740.8841,W,6.47,306.69,270825,,,A*70
$GPGGA,144151.000,4305.1483,N,07740.8845,W,1,05,1.72,172.2,M,-34.4,M,,*5A
$GPRMC,144151.250,A,4305.1486,N,07740.8849,W,6.72,315.48,270825,,,A*7D
$GPGGA,144151.500,4305.1490,N,07740.8853,W,1,05,1.72,172.2,M,-34.4,M,,*5A
$GPRMC,144151.750,A,4305.1494,N,07740.8856,W,6.69,331.62,270825,,,A*71
$GPGGA,144152.000,4305.1498,N,07740.8858,W,1,05,1.62,172.2,M,-34.4,M,,*5E
$GPRMC,144152.250,A,4305.1503,N,07740.8860,W,6.94,341.45,270825,,,A*7D
$GPGGA,144152.500,4305.1508,N,07740.8862,W,1,05,1.72,172.1,M,-34.4,M,,*58
$GPRMC,144152.750,A,4305.1513,N,07740.8862,W,7.37,353.02,270825,,,A*73
$GPGGA,144153.000,4305.1518,N,07740.8863,W,1,05,1.72,172.0,M,-34.4,M,,*5D
$GPRMC,144153.250,A,4305.1523,N,07740.8862,W,7.37,0.03,270825,,,A*70
$GPGGA,144153.500,4305.1528,N,07740.8862,W,1,05,1.72,171.9,M,-34.4,M,,*50
$GPRMC,144153.750,A,4305.1533,N,07740.8861,W,7.55,3.43,270825,,,A*74
$GPGGA,144154.000,4305.1539,N,07740.8860,W,1,05,1.72,171.8,M,-34.4,M,,*51
$GPRMC,144154.250,A,4305.1544,N,07740.8859,W,7.95,6.75,270825,,,A*71
$GPGGA,144154.500,4305.1550,N,07740.8858,W,1,05,1.72,171.8,M,-34.4,M,,*50
$GPRMC,144154.750,A,4305.1556,N,07740.8857,W,8.11,9.96,270825,,,A*78
$GPGGA,144155.000,4305.1562,N,07740.8856,W,1,05,1.72,171.8,M,-34.4,M,,*5B
$GPRMC,144155.250,A,4305.1568,N,07740.8854,W,8.45,9.83,270825,,,A*77
$GPGGA,144155.500,4305.1573,N,07740.8853,W,1,05,1.72,171.8,M,-34.4,M,,*5B
$GPRMC,144155.750,A,4305.1580,N,07740.8852,W,8.59,8.18,270825,,,A*7C
$GPGGA,144156.000,4305.1586,N,07740.8850,W,1,05,1.72,171.8,M,-34.4,M,,*54
$GPRMC,144156.250,A,4305.1592,N,07740.8849,W,8.75,6.59,270825,,,A*76
$GPGGA,144156.500,4305.1598,N,07740.8849,W,1,05,1.72,171.8,M,-34.4,M,,*56
$GPRMC,144156.750,A,4305.1603,N,07740.8848,W,8.10,3.59,270825,,,A*7F
$GPGGA,144157.000,4305.1609,N,07740.8848,W,1,05,1.71,171.7,M,-34.4,M,,*54
$GPRMC,144157.250,A,4305.1614,N,07740.8848,W,7.72,0.39,270825,,,A*73
$GPGGA,144157.500,4305.1620,N,07740.8848,W,1,05,1.72,171.6,M,-34.4,M,,*58
$GPRMC,144157.750,A,4305.1625,N,07740.8848,W,8.07,359.62,270825,,,A*78
$GPGGA,144158.000,4305.1631,N,07740.8848,W,1,05,1.72,171.6,M,-34.4,M,,*52
$GPRMC,144158.250,A,4305.1637,N,07740.8848,W,8.28,359.76,270825,,,A*79
$GPGGA,144158.500,4305.1642,N,07740.8848,W,1,05,1.71,171.5,M,-34.4,M,,*53
$GPRMC,144158.750,A,4305.1648,N,07740.8848,W,8.23,359.66,270825,,,A*7E
$GPGGA,144159.000,4305.1654,N,07740.8848,W,1,05,1.72,171.4,M,-34.4,M,,*52
$GPRMC,144159.250,A,4305.1660,N,07740.8848,W,8.14,357.92,270825,,,A*71
$GPGGA,144159.500,4305.1665,N,07740.8848,W,1,05,1.71,171.3,M,-34.4,M,,*51
$GPRMC,144159.750,A,4305.1670,N,07740.8849,W,7.51,357.32,270825,,,A*70
$GPGGA,144200.000,4305.1675,N,07740.8848,W,1,05,1.71,171.1,M,-34.4,M,,*58
$GPRMC,144200.250,A,4305.1679,N,07740.8848,W,6.50,358.09,270825,,,A*75
$GPGGA,144200.500,4305.1684,N,07740.8849,W,1,06,1.70,170.9,M,-34.4,M,,*59
$GPRMC,144200.750,A,4305.1688,N,07740.8849,W,5.77,358.26,270825,,,A*74
$GPGGA,144201.000,4305.1691,N,07740.8849,W,1,06,1.70,170.8,M,-34.4,M,,*58
$GPRMC,144201.250,A,4305.1695,N,07740.8849,W,4.89,358.72,270825,,,A*7D
$GPGGA,144201.500,4305.1698,N,07740.8849,W,1,06,1.70,170.8,M,-34.4,M,,*54
$GPRMC,144201.750,A,4305.1702,N,07740.8849,W,4.26,358.55,270825,,,A*77
$GPGGA,144202.000,4305.1705,N,07740.8849,W,1,06,1.70,170.8,M,-34.4,M,,*57
$GPRMC,144202.250,A,4305.1708,N,07740.8849,W,3.95,2.44,270825,,,A*78
$GPGGA,144202.500,4305.1710,N,07740.8849,W,1,06,1.70,170.9,M,-34.4,M,,*57
$GPRMC,144202.750,A,4305.1713,N,07740.8849,W,3.72,3.27,270825,,,A*7A
$GPGGA,144203.000,4305.1716,N,07740.8849,W,1,06,1.70,170.8,M,-34.4,M,,*54
$GPRMC,144203.250,A,4305.1719,N,07740.8848,W,3.85,2.58,270825,,,A*74
$GPGGA,144203.500,4305.1722,N,07740.8848,W,1,06,1.70,171.0,M,-34.4,M,,*5E
$GPRMC,144203.750,A,4305.1724,N,07740.8848,W,3.97,359.73,270825,,,A*78
$GPGGA,144204.000,4305.1727,N,07740.8848,W,1,06,1.70,171.0,M,-34.4,M,,*59
$GPRMC,144204.250,A,4305.1730,N,07740.8849,W,3.67,358.29,270825,,,A*7F
$GPGGA,144204.500,4305.1732,N,07740.8849,W,1,06,1.70,171.1,M,-34.4,M,,*58
$GPRMC,144204.750,A,4305.1734,N,07740.8849,W,2.81,358.79,270825,,,A*72
$GPGGA,144205.000,4305.1736,N,07740.8849,W,1,06,1.70,171.1,M,-34.4,M,,*58
$GPRMC,144205.250,A,4305.1738,N,07740.8849,W,2.17,359.03,270825,,,A*79
$GPGGA,144205.500,4305.1739,N,07740.8849,W,1,06,1.70,171.2,M,-34.4,M,,*51
$GPRMC,144220.250,A,4305.1742,N,07740.8847,W,2.73,27.46,270825,,,A*44
$GPGGA,144220.500,4305.1748,N,07740.8849,W,1,06,1.46,172.0,M,-34.4,M,,*54
$GPRMC,144220.750,A,4305.1752,N,07740.8849,W,5.31,358.78,270825,,,A*79
$GPGGA,144221.000,4305.1756,N,07740.8849,W,1,06,1.69,171.9,M,-34.4,M,,*58
$GPRMC,144221.250,A,4305.1760,N,07740.8849,W,6.45,357.93,270825,,,A*76
$GPGGA,144221.500,4305.1765,N,07740.8849,W,1,06,1.69,171.8,M,-34.4,M,,*5C
$GPRMC,144221.750,A,4305.1770,N,07740.8849,W,7.41,359.02,270825,,,A*71
$GPGGA,144222.000,4305.1775,N,07740.8849,W,1,06,1.69,171.6,M,-34.4,M,,*55
$GPRMC,144222.250,A,4305.1781,N,07740.8849,W,7.77,0.77,270825,,,A*71
$GPGGA,144222.500,4305.1787,N,07740.8849,W,1,06,1.69,171.5,M,-34.4,M,,*5E
$GPRMC,144222.750,A,4305.1793,N,07740.8849,W,8.76,1.94,270825,,,A*75
$GPGGA,144223.000,4305.1800,N,07740.8848,W,1,06,1.69,171.5,M,-34.4,M,,*5B
$GPRMC,144223.250,A,4305.1807,N,07740.8848,W,9.85,0.47,270825,,,A*70
$GPGGA,144223.500,4305.1815,N,07740.8849,W,1,06,1.69,171.4,M,-34.4,M,,*5A
$GPRMC,144223.750,A,4305.1823,N,07740.8849,W,11.02,358.49,270825,,,A*44
$GPGGA,144224.000,4305.1832,N,07740.8850,W,1,06,1.69,171.3,M,-34.4,M,,*52
$GPRMC,144224.250,A,4305.1842,N,07740.8851,W,12.42,357.05,270825,,,A*48
$GPGGA,144224.500,4305.1851,N,07740.8852,W,1,06,1.69,171.3,M,-34.4,M,,*50
$GPRMC,144224.750,A,4305.1861,N,07740.8853,W,13.71,357.33,270825,,,A*4A
$GPGGA,144225.000,4305.1871,N,07740.8854,W,1,06,1.69,171.2,M,-34.4,M,,*51
$GPRMC,144225.250,A,4305.1882,N,07740.8855,W,14.60,357.12,270825,,,A*41
$GPGGA,144225.500,4305.1893,N,07740.8855,W,1,06,1.69,171.2,M,-34.4,M,,*59
$GPRMC,144225.750,A,4305.1904,N,07740.8856,W,15.34,357.16,270825,,,A*4C
$GPGGA,144226.000,4305.1915,N,07740.8857,W,1,06,1.69,171.2,M,-34.4,M,,*52
$GPRMC,144226.250,A,4305.1926,N,07740.8858,W,15.39,357.72,270825,,,A*4B
$GPGGA,144226.500,4305.1937,N,07740.8858,W,1,06,1.69,171.1,M,-34.4,M,,*5B
$GPRMC,144226.750,A,4305.1948,N,07740.8859,W,15.91,358.01,270825,,,A*4E
$GPGGA,144227.000,4305.1959,N,07740.8859,W,1,06,1.69,171.0,M,-34.4,M,,*57
$GPRMC,144227.250,A,4305.1971,N,07740.8860,W,16.24,358.43,270825,,,A*41
$GPGGA,144227.500,4305.1983,N,07740.8860,W,1,06,1.69,171.0,M,-34.4,M,,*5F
$GPRMC,144227.750,A,4305.1994,N,07740.8861,W,16.45,358.58,270825,,,A*43
$GPGGA,144228.000,4305.2006,N,07740.8862,W,1,06,1.69,170.9,M,-34.4,M,,*58
$GPRMC,144228.250,A,4305.2018,N,07740.8862,W,16.69,358.17,270825,,,A*41
$GPGGA,144228.500,4305.2030,N,07740.8863,W,1,06,1.69,170.8,M,-34.4,M,,*58
$GPRMC,144228.750,A,4305.2041,N,07740.8863,W,16.53,358.04,270825,,,A*42
$GPGGA,144229.000,4305.2053,N,07740.8864,W,1,06,1.69,170.8,M,-34.4,M,,*5E
$GPRMC,144229.250,A,4305.2065,N,07740.8864,W,16.34,357.71,270825,,,A*4B
$GPGGA,144229.500,4305.2076,N,07740.8865,W,1,06,1.69,170.7,M,-34.4,M,,*52
$GPRMC,144229.750,A,4305.2088,N,07740.8867,W,16.33,356.88,270825,,,A*4E
$GPGGA,144230.000,4305.2100,N,07740.8868,W,1,06,1.69,170.7,M,-34.4,M,,*52
$GPRMC,144230.250,A,4305.2111,N,07740.8869,W,16.41,355.07,270825,,,A*4D
$GPGGA,144230.500,4305.2123,N,07740.8871,W,1,06,1.69,170.7,M,-34.4,M,,*5E
$GPRMC,144230.750,A,4305.2135,N,07740.8872,W,16.51,355.61,270825,,,A*45
$GPGGA,144231.000,4305.2146,N,07740.8873,W,1,06,1.69,170.6,M,-34.4,M,,*5A
$GPRMC,144231.250,A,4305.2158,N,07740.8875,W,16.52,354.30,270825,,,A*4B
$GPGGA,144231.500,4305.2169,N,07740.8876,W,1,06,1.69,170.6,M,-34.4,M,,*57
$GPRMC,144231.750,A,4305.2181,N,07740.8878,W,16.50,353.90,270825,,,A*48
$GPGGA,144232.000,4305.2192,N,07740.8880,W,1,06,1.69,170.5,M,-34.4,M,,*5F
$GPRMC,144232.250,A,4305.2204,N,07740.8882,W,16.32,352.64,270825,,,A*4B
$GPGGA,144232.500,4305.2215,N,07740.8884,W,1,06,1.69,170.5,M,-34.4,M,,*52
$GPRMC,144232.750,A,4305.2226,N,07740.8887,W,16.32,351.75,270825,,,A*48
$GPGGA,144233.000,4305.2238,N,07740.8889,W,1,06,1.69,170.5,M,-34.4,M,,*54
$GPRMC,144233.250,A,4305.2249,N,07740.8892,W,16.46,350.33,270825,,,A*41
$GPGGA,144233.500,4305.2260,N,07740.8895,W,1,06,1.68,170.6,M,-34.4,M,,*53
$GPRMC,144233.750,A,4305.2272,N,07740.8898,W,16.50,350.32,270825,,,A*40
$GPGGA,144234.000,4305.2283,N,07740.8900,W,1,06,1.68,170.6,M,-34.4,M,,*51
$GPRMC,144234.250,A,4305.2294,N,07740.8903,W,15.87,350.73,270825,,,A*45
$GPGGA,144234.500,4305.2305,N,07740.8905,W,1,06,1.68,170.6,M,-34.4,M,,*5E
$GPRMC,144234.750,A,4305.2315,N,07740.8908,W,15.39,350.87,270825,,,A*4D
$GPGGA,144235.000,4305.2325,N,07740.8910,W,1,06,1.68,170.4,M,-34.4,M,,*5E
$GPRMC,144235.250,A,4305.2333,N,07740.8912,W,13.46,352.37,270825,,,A*41
$GPGGA,144235.500,4305.2341,N,07740.8913,W,1,06,1.68,170.5,M,-34.4,M,,*5B
$GPRMC,144235.750,A,4305.2349,N,07740.8914,W,11.72,353.17,270825,,,A*49
$GPGGA,144236.000,4305.2356,N,07740.8915,W,1,06,1.68,170.5,M,-34.4,M,,*5D
$GPRMC,144236.250,A,4305.2363,N,07740.8916,W,10.18,355.97,270825,,,A*46
$GPGGA,144236.500,4305.2368,N,07740.8916,W,1,06,1.68,170.3,M,-34.4,M,,*50
$GPRMC,144236.750,A,4305.2373,N,07740.8915,W,8.01,1.04,270825,,,A*78
$GPGGA,144237.000,4305.2379,N,07740.8916,W,1,06,1.68,170.4,M,-34.4,M,,*53
$GPRMC,144237.250,A,4305.2384,N,07740.8915,W,6.69,5.90,270825,,,A*7D
$GPGGA,144237.500,4305.2388,N,07740.8914,W,1,06,1.68,170.3,M,-34.4,M,,*5D
$GPRMC,144237.750,A,4305.2393,N,07740.8913,W,5.84,11.80,270825,,,A*4C
$GPGGA,144238.000,4305.2397,N,07740.8912,W,1,06,1.68,170.5,M,-34.4,M,,*59
$GPRMC,144238.250,A,4305.2400,N,07740.8911,W,5.65,12.99,270825,,,A*4D
$GPGGA,144238.500,4305.2404,N,07740.8910,W,1,06,1.68,170.6,M,-34.4,M,,*50
$GPRMC,144238.750,A,4305.2408,N,07740.8908,W,6.15,20.40,270825,,,A*49
$GPGGA,144239.000,4305.2412,N,07740.8906,W,1,06,1.46,170.6,M,-34.4,M,,*58
$GPRMC,144239.250,A,4305.2416,N,07740.8903,W,6.83,26.08,270825,,,A*4C
$GPGGA,144239.500,4305.2421,N,07740.8900,W,1,06,1.68,170.6,M,-34.4,M,,*57
$GPRMC,144239.750,A,4305.2425,N,07740.8896,W,7.77,32.68,270825,,,A*4D
$GPGGA,144240.000,4305.2430,N,07740.8891,W,1,06,1.68,170.5,M,-34.4,M,,*56
$GPRMC,144240.250,A,4305.2433,N,07740.8885,W,8.79,42.72,270825,,,A*4E
$GPGGA,144240.500,4305.2438,N,07740.8880,W,1,06,1.68,170.5,M,-34.4,M,,*5B
$GPRMC,144240.750,A,4305.2443,N,07740.8873,W,9.90,46.40,270825,,,A*46
$GPGGA,144241.000,4305.2448,N,07740.8866,W,1,06,1.68,170.7,M,-34.4,M,,*52
$GPRMC,144241.250,A,4305.2452,N,07740.8858,W,10.94,53.16,270825,,,A*70
$GPGGA,144241.500,4305.2456,N,07740.8848,W,1,06,1.68,170.8,M,-34.4,M,,*5B
$GPRMC,144241.750,A,4305.2459,N,07740.8838,W,11.85,62.46,270825,,,A*7E
$GPGGA,144242.000,4305.2463,N,07740.8827,W,1,06,1.68,170.5,M,-34.4,M,,*5F
$GPRMC,144242.250,A,4305.2466,N,07740.8816,W,12.70,64.22,270825,,,A*75
$GPGGA,144242.500,4305.2470,N,07740.8804,W,1,06,1.68,170.2,M,-34.4,M,,*5E
$GPRMC,144242.750,A,4305.2473,N,07740.8792,W,13.86,69.16,270825,,,A*75
$GPGGA,144243.000,4305.2476,N,07740.8779,W,1,06,1.68,170.1,M,-34.4,M,,*5A
$GPRMC,144243.250,A,4305.2480,N,07740.8766,W,14.80,70.54,270825,,,A*79
$GPGGA,144243.500,4305.2483,N,07740.8752,W,1,06,1.68,169.9,M,-34.4,M,,*5C
$GPRMC,144243.750,A,4305.2487,N,07740.8738,W,15.75,71.86,270825,,,A*75
$GPGGA,144244.000,4305.2490,N,07740.8723,W,1,06,1.68,170.0,M,-34.4,M,,*5B
$GPRMC,144244.250,A,4305.2493,N,07740.8708,W,16.49,71.70,270825,,,A*74
$GPGGA,144244.500,4305.2497,N,07740.8693,W,1,06,1.68,169.9,M,-34.4,M,,*52
$GPRMC,144244.750,A,4305.2500,N,07740.8677,W,17.52,73.29,270825,,,A*76
$GPGGA,144245.000,4305.2503,N,07740.8660,W,1,06,1.68,169.7,M,-34.4,M,,*58
$GPRMC,144245.250,A,4305.2507,N,07740.8643,W,18.32,74.12,270825,,,A*74
$GPGGA,144245.500,4305.2510,N,07740.8626,W,1,06,1.68,169.7,M,-34.4,M,,*5D
$GPRMC,144245.750,A,4305.2514,N,07740.8609,W,18.67,74.45,270825,,,A*7F
$GPGGA,144246.000,4305.2517,N,07740.8592,W,1,06,1.46,169.7,M,-34.4,M,,*5C
$GPRMC,144246.250,A,4305.2521,N,07740.8574,W,19.01,74.59,270825,,,A*7A
$GPGGA,144246.500,4305.2524,N,07740.8557,W,1,06,1.68,169.6,M,-34.4,M,,*5D
$GPRMC,144246.750,A,4305.2528,N,07740.8539,W,19.58,74.69,270825,,,A*70
$GPGGA,144247.000,4305.2531,N,07740.8520,W,1,06,1.46,169.5,M,-34.4,M,,*52
$GPRMC,144247.250,A,4305.2535,N,07740.8502,W,20.04,74.99,270825,,,A*7C
$GPGGA,144247.500,4305.2538,N,07740.8483,W,1,06,1.68,169.4,M,-34.4,M,,*5B
$GPRMC,144247.750,A,4305.2541,N,07740.8464,W,20.15,75.89,270825,,,A*7B
$GPGGA,144248.000,4305.2544,N,07740.8445,W,1,06,1.46,169.3,M,-34.4,M,,*5B
$GPRMC,144248.250,A,4305.2546,N,07740.8426,W,20.14,77.27,270825,,,A*77
$GPGGA,144248.500,4305.2549,N,07740.8407,W,1,06,1.68,169.2,M,-34.4,M,,*58
$GPRMC,144248.750,A,4305.2551,N,07740.8387,W,20.08,79.47,270825,,,A*7D
$GPGGA,144249.000,4305.2553,N,07740.8368,W,1,06,1.46,169.1,M,-34.4,M,,*56
$GPRMC,144249.250,A,4305.2555,N,07740.8349,W,19.76,80.68,270825,,,A*77
$GPGGA,144249.500,4305.2557,N,07740.8330,W,1,06,1.68,169.0,M,-34.4,M,,*57
$GPRMC,144249.750,A,4305.2558,N,07740.8312,W,19.37,82.18,270825,,,A*71
$GPGGA,144250.000,4305.2560,N,07740.8293,W,1,06,1.46,168.9,M,-34.4,M,,*52
$GPRMC,144250.250,A,4305.2561,N,07740.8275,W,19.29,82.93,270825,,,A*7A
$GPGGA,144250.500,4305.2563,N,07740.8257,W,1,06,1.68,168.8,M,-34.4,M,,*51
$GPRMC,144250.750,A,4305.2564,N,07740.8238,W,19.20,83.29,270825,,,A*7A
$GPGGA,144251.000,4305.2565,N,07740.8220,W,1,06,1.46,168.7,M,-34.4,M,,*50
$GPRMC,144251.250,A,4305.2567,N,07740.8202,W,18.94,84.23,270825,,,A*77
$GPGGA,144251.500,4305.2567,N,07740.8183,W,1,06,1.46,168.5,M,-34.4,M,,*5F
$GPRMC,144251.750,A,4305.2568,N,07740.8166,W,18.46,84.93,270825,,,A*78
$GPGGA,144252.000,4305.2569,N,07740.8148,W,1,06,1.46,168.3,M,-34.4,M,,*56
$GPRMC,144252.250,A,4305.2570,N,07740.8130,W,18.40,85.94,270825,,,A*74
$GPGGA,144252.500,4305.2571,N,07740.8112,W,1,06,1.46,168.3,M,-34.4,M,,*55
$GPRMC,144252.750,A,4305.2571,N,07740.8095,W,18.22,87.64,270825,,,A*77
$GPGGA,144253.000,4305.2571,N,07740.8078,W,1,06,1.46,168.2,M,-34.4,M,,*5D
$GPRMC,144253.250,A,4305.2572,N,07740.8060,W,17.90,88.20,270825,,,A*73
$GPGGA,144253.500,4305.2572,N,07740.8043,W,1,06,1.46,168.1,M,-34.4,M,,*50
$GPRMC,144253.750,A,4305.2572,N,07740.8026,W,17.52,88.70,270825,,,A*7F
$GPGGA,144254.000,4305.2572,N,07740.8009,W,1,06,1.46,168.0,M,-34.4,M,,*5D
$GPRMC,144254.250,A,4305.2572,N,07740.7993,W,17.23,88.29,270825,,,A*7F
$GPGGA,144254.500,4305.2572,N,07740.7977,W,1,06,1.68,167.9,M,-34.4,M,,*5D
$GPRMC,144254.750,A,4305.2572,N,07740.7960,W,16.92,88.81,270825,,,A*7F
$GPGGA,144255.000,4305.2572,N,07740.7944,W,1,06,1.46,167.7,M,-34.4,M,,*5B
$GPRMC,144255.250,A,4305.2572,N,07740.7928,W,16.55,89.52,270825,,,A*73
$GPGGA,144255.500,4305.2572,N,07740.7912,W,1,06,1.68,167.7,M,-34.4,M,,*51
$GPRMC,144255.750,A,4305.2572,N,07740.7896,W,16.25,89.51,270825,,,A*76
$GPGGA,144256.000,4305.2572,N,07740.7881,W,1,06,1.68,167.6,M,-34.4,M,,*5D
$GPRMC,144256.250,A,4305.2571,N,07740.7865,W,16.01,89.34,270825,,,A*7A
$GPGGA,144256.500,4305.2571,N,07740.7850,W,1,06,1.67,167.5,M,-34.4,M,,*5B
$GPRMC,144256.750,A,4305.2571,N,07740.7835,W,15.76,89.25,270825,,,A*79
$GPGGA,144257.000,4305.2571,N,07740.7819,W,1,06,1.68,167.5,M,-34.4,M,,*5D
$GPRMC,144257.250,A,4305.2571,N,07740.7804,W,15.50,89.69,270825,,,A*73
$GPGGA,144257.500,4305.2571,N,07740.7790,W,1,06,1.67,167.5,M,-34.4,M,,*59
$GPRMC,144257.750,A,4305.2571,N,07740.7775,W,15.28,90.81,270825,,,A*7E
$GPGGA,144258.000,4305.2571,N,07740.7760,W,1,06,1.67,167.4,M,-34.4,M,,*5D
$GPRMC,144258.250,A,4305.2571,N,07740.7746,W,14.83,89.95,270825,,,A*79
$GPGGA,144258.500,4305.2570,N,07740.7732,W,1,06,1.67,167.4,M,-34.4,M,,*5E
$GPRMC,144258.750,A,4305.2570,N,07740.7719,W,13.43,90.45,270825,,,A*79
$GPGGA,144259.000,4305.2570,N,07740.7706,W,1,06,1.67,167.4,M,-34.4,M,,*5D
$GPRMC,144259.250,A,4305.2570,N,07740.7695,W,12.08,89.38,270825,,,A*74
$GPGGA,144259.500,4305.2570,N,07740.7683,W,1,06,1.67,167.3,M,-34.4,M,,*53
$GPRMC,144259.750,A,4305.2570,N,07740.7673,W,10.63,89.34,270825,,,A*7A
$GPGGA,144300.000,4305.2570,N,07740.7663,W,1,06,1.67,167.3,M,-34.4,M,,*55
$GPRMC,144300.250,A,4305.2570,N,07740.7654,W,9.10,89.43,270825,,,A*4B
$GPGGA,144300.500,4305.2569,N,07740.7646,W,1,07,1.40,167.3,M,-34.4,M,,*5B
$GPRMC,144300.750,A,4305.2569,N,07740.7639,W,6.99,89.21,270825,,,A*47
$GPGGA,144301.000,4305.2568,N,07740.7633,W,1,07,1.40,167.3,M,-34.4,M,,*5C
$GPRMC,144301.250,A,4305.2568,N,07740.7627,W,4.84,88.73,270825,,,A*45
$GPGGA,144301.500,4305.2567,N,07740.7623,W,1,07,1.40,167.3,M,-34.4,M,,*57
$GPRMC,144301.750,A,4305.2567,N,07740.7621,W,3.06,87.51,270825,,,A*4B
$GPGGA,144302.000,4305.2567,N,07740.7618,W,1,07,1.37,167.4,M,-34.4,M,,*5E
$GPRMC,144302.250,A,4305.2567,N,07740.7616,W,2.61,87.51,270825,,,A*49
$GPGGA,144302.500,4305.2567,N,07740.7613,W,1,07,1.37,167.4,M,-34.4,M,,*50
$GPRMC,144302.750,A,4305.2567,N,07740.7610,W,3.69,91.62,270825,,,A*44
$GPGGA,144303.000,4305.2566,N,07740.7607,W,1,07,1.37,167.5,M,-34.4,M,,*51
$GPRMC,144303.250,A,4305.2566,N,07740.7602,W,4.91,88.82,270825,,,A*44
$GPGGA,144303.500,4305.2566,N,07740.7598,W,1,07,1.40,167.5,M,-34.4,M,,*51
$GPRMC,144303.750,A,4305.2566,N,07740.7592,W,6.28,89.18,270825,,,A*49
$GPGGA,144304.000,4305.2565,N,07740.7586,W,1,07,1.40,167.6,M,-34.4,M,,*5C
$GPRMC,144304.250,A,4305.2565,N,07740.7579,W,7.91,88.63,270825,,,A*43
$GPGGA,144304.500,4305.2565,N,07740.7571,W,1,07,1.40,167.6,M,-34.4,M,,*51
$GPRMC,144304.750,A,4305.2565,N,07740.7563,W,9.28,88.78,270825,,,A*4B
$GPGGA,144305.000,4305.2565,N,07740.7554,W,1,07,1.40,167.7,M,-34.4,M,,*53
$GPRMC,144305.250,A,4305.2565,N,07740.7545,W,10.56,89.09,270825,,,A*7D
$GPGGA,144305.500,4305.2565,N,07740.7535,W,1,07,1.40,167.8,M,-34.4,M,,*5E
$GPRMC,144305.750,A,4305.2565,N,07740.7524,W,11.78,89.04,270825,,,A*7F
$GPGGA,144306.000,4305.2566,N,07740.7513,W,1,07,1.40,167.8,M,-34.4,M,,*5F
$GPRMC,144306.250,A,4305.2566,N,07740.7501,W,13.03,89.27,270825,,,A*72
$GPGGA,144306.500,4305.2566,N,07740.7488,W,1,07,1.40,167.9,M,-34.4,M,,*58
$GPRMC,144306.750,A,4305.2566,N,07740.7475,W,14.08,88.71,270825,,,A*7B
$GPGGA,144307.000,4305.2566,N,07740.7462,W,1,07,1.40,168.0,M,-34.4,M,,*5E
$GPRMC,144307.250,A,4305.2566,N,07740.7448,W,15.01,87.95,270825,,,A*7C
$GPGGA,144307.500,4305.2566,N,07740.7433,W,1,07,1.40,168.0,M,-34.4,M,,*5F
$GPRMC,144307.750,A,4305.2566,N,07740.7418,W,16.23,89.32,270825,,,A*7C
$GPGGA,144308.000,4305.2567,N,07740.7403,W,1,07,1.40,168.0,M,-34.4,M,,*57
$GPRMC,144308.250,A,4305.2567,N,07740.7386,W,17.67,90.93,270825,,,A*75
$GPGGA,144308.500,4305.2566,N,07740.7368,W,1,07,1.40,168.0,M,-34.4,M,,*59
$GPRMC,144308.750,A,4305.2565,N,07740.7350,W,18.33,90.03,270825,,,A*7E
$GPGGA,144309.000,4305.2566,N,07740.7333,W,1,07,1.40,168.0,M,-34.4,M,,*53
$GPRMC,144309.250,A,4305.2566,N,07740.7314,W,18.91,88.94,270825,,,A*76
$GPGGA,144309.500,4305.2566,N,07740.7295,W,1,07,1.40,168.1,M,-34.4,M,,*5A
$GPRMC,144309.750,A,4305.2566,N,07740.7277,W,18.70,89.43,270825,,,A*73
$GPGGA,144310.000,4305.2566,N,07740.7259,W,1,07,1.40,168.2,M,-34.4,M,,*54
$GPRMC,144310.250,A,4305.2567,N,07740.7241,W,18.35,89.02,270825,,,A*7E
$GPGGA,144310.500,4305.2568,N,07740.7223,W,1,07,1.40,168.2,M,-34.4,M,,*52
$GPRMC,144310.750,A,4305.2569,N,07740.7205,W,18.04,89.25,270825,,,A*72
$GPGGA,144311.000,4305.2569,N,07740.7188,W,1,07,1.40,168.3,M,-34.4,M,,*54
$GPRMC,144311.250,A,4305.2570,N,07740.7171,W,18.06,88.75,270825,,,A*78
$GPGGA,144311.500,4305.2571,N,07740.7153,W,1,07,1.40,168.4,M,-34.4,M,,*59
$GPRMC,144311.750,A,4305.2571,N,07740.7136,W,18.53,88.42,270825,,,A*7B
$GPGGA,144312.000,4305.2572,N,07740.7118,W,1,07,1.40,168.4,M,-34.4,M,,*53
$GPRMC,144312.250,A,4305.2572,N,07740.7100,W,19.03,88.21,270825,,,A*7A
$GPGGA,144312.500,4305.2573,N,07740.7082,W,1,07,1.40,168.4,M,-34.4,M,,*55
$GPRMC,144312.750,A,4305.2573,N,07740.7063,W,19.31,88.05,270825,,,A*7D
$GPGGA,144313.000,4305.2574,N,07740.7045,W,1,07,1.40,168.5,M,-34.4,M,,*5C
$GPRMC,144313.250,A,4305.2574,N,07740.7026,W,19.92,88.66,270825,,,A*73
$GPGGA,144313.500,4305.2574,N,07740.7007,W,1,07,1.40,168.6,M,-34.4,M,,*5C
$GPRMC,144313.750,A,4305.2574,N,07740.6987,W,20.30,88.90,270825,,,A*7E
$GPGGA,144314.000,4305.2574,N,07740.6968,W,1,07,1.40,168.7,M,-34.4,M,,*5E
$GPRMC,144314.250,A,4305.2575,N,07740.6948,W,20.72,88.50,270825,,,A*74
$GPGGA,144314.500,4305.2575,N,07740.6928,W,1,07,1.40,168.8,M,-34.4,M,,*51
$GPRMC,144314.750,A,4305.2575,N,07740.6908,W,20.68,88.21,270825,,,A*78
$GPGGA,144315.000,4305.2575,N,07740.6888,W,1,07,1.40,168.8,M,-34.4,M,,*5E
$GPRMC,144315.250,A,4305.2576,N,07740.6868,W,20.66,87.97,270825,,,A*74
$GPGGA,144315.500,4305.2576,N,07740.6849,W,1,07,1.40,168.9,M,-34.4,M,,*54
$GPRMC,144315.750,A,4305.2576,N,07740.6829,W,20.86,90.06,270825,,,A*74
$GPGGA,144316.000,4305.2577,N,07740.6809,W,1,07,1.40,169.0,M,-34.4,M,,*5F
$GPRMC,144316.250,A,4305.2577,N,07740.6790,W,20.72,90.64,270825,,,A*71
$GPGGA,144316.500,4305.2577,N,07740.6770,W,1,07,1.40,169.0,M,-34.4,M,,*5B
$GPRMC,144316.750,A,4305.2577,N,07740.6751,W,19.84,89.29,270825,,,A*7B
$GPGGA,144317.000,4305.2577,N,07740.6732,W,1,07,1.37,169.1,M,-34.4,M,,*58
$GPRMC,144317.250,A,4305.2577,N,07740.6713,W,19.79,89.88,270825,,,A*70
$GPGGA,144317.500,4305.2577,N,07740.6695,W,1,07,1.40,169.2,M,-34.4,M,,*52
$GPRMC,144317.750,A,4305.2577,N,07740.6676,W,19.69,90.39,270825,,,A*74
$GPGGA,144318.000,4305.2577,N,07740.6657,W,1,07,1.37,169.4,M,-34.4,M,,*50
$GPRMC,144318.250,A,4305.2577,N,07740.6639,W,19.59,91.08,270825,,,A*75
$GPGGA,144318.500,4305.2577,N,07740.6620,W,1,07,1.40,169.5,M,-34.4,M,,*54
$GPRMC,144318.750,A,4305.2578,N,07740.6602,W,19.30,90.77,270825,,,A*71
$GPGGA,144319.000,4305.2578,N,07740.6585,W,1,07,1.40,169.7,M,-34.4,M,,*51
$GPRMC,144319.250,A,4305.2578,N,07740.6567,W,18.78,90.62,270825,,,A*7C
$GPGGA,144319.500,4305.2579,N,07740.6550,W,1,07,1.40,169.8,M,-34.4,M,,*52
$GPRMC,144319.750,A,4305.2578,N,07740.6533,W,18.54,91.74,270825,,,A*70
$GPGGA,144320.000,4305.2578,N,07740.6516,W,1,07,1.40,169.9,M,-34.4,M,,*5F
$GPRMC,144320.250,A,4305.2578,N,07740.6498,W,18.44,91.63,270825,,,A*78
$GPGGA,144320.500,4305.2578,N,07740.6482,W,1,07,1.40,169.9,M,-34.4,M,,*56
$GPRMC,144320.750,A,4305.2578,N,07740.6465,W,17.84,91.53,270825,,,A*7F
$GPGGA,144321.000,4305.2578,N,07740.6449,W,1,07,1.37,170.1,M,-34.4,M,,*55
$GPRMC,144321.250,A,4305.2579,N,07740.6432,W,17.34,91.13,270825,,,A*77
$GPGGA,144321.500,4305.2579,N,07740.6417,W,1,07,1.40,170.2,M,-34.4,M,,*59
$GPRMC,144321.750,A,4305.2580,N,07740.6401,W,16.97,90.34,270825,,,A*78
$GPGGA,144322.000,4305.2580,N,07740.6385,W,1,07,1.40,170.3,M,-34.4,M,,*54
$GPRMC,144322.250,A,4305.2581,N,07740.6369,W,16.63,90.70,270825,,,A*7D
$GPGGA,144322.500,4305.2581,N,07740.6354,W,1,07,1.40,170.4,M,-34.4,M,,*5B
$GPRMC,144322.750,A,4305.2581,N,07740.6340,W,16.23,90.79,270825,,,A*7E
$GPGGA,144323.000,4305.2581,N,07740.6325,W,1,07,1.40,170.5,M,-34.4,M,,*58
$GPRMC,144323.250,A,4305.2581,N,07740.6311,W,15.54,92.01,270825,,,A*70
$GPGGA,144323.500,4305.2581,N,07740.6297,W,1,07,1.40,170.7,M,-34.4,M,,*57
$GPRMC,144323.750,A,4305.2580,N,07740.6285,W,14.78,93.35,270825,,,A*71
$GPGGA,144324.000,4305.2581,N,07740.6272,W,1,07,1.40,170.9,M,-34.4,M,,*50
$GPRMC,144324.250,A,4305.2581,N,07740.6260,W,13.97,91.17,270825,,,A*7D
$GPGGA,144324.500,4305.2581,N,07740.6248,W,1,07,1.40,171.0,M,-34.4,M,,*54
$GPRMC,144324.750,A,4305.2581,N,07740.6236,W,13.29,92.36,270825,,,A*7E
$GPGGA,144325.000,4305.2582,N,07740.6225,W,1,07,1.40,171.0,M,-34.4,M,,*58
$GPRMC,144325.250,A,4305.2585,N,07740.6217,W,12.15,88.76,270825,,,A*7C
$GPGGA,144325.500,4305.2585,N,07740.6205,W,1,07,1.40,170.0,M,-34.4,M,,*59
$GPRMC,144325.750,A,4305.2585,N,07740.6195,W,10.86,88.32,270825,,,A*78
$GPGGA,144326.000,4305.2585,N,07740.6185,W,1,07,1.40,169.7,M,-34.4,M,,*5B
$GPRMC,144326.250,A,4305.2585,N,07740.6177,W,8.69,89.20,270825,,,A*48
$GPGGA,144326.500,4305.2585,N,07740.6169,W,1,07,1.40,169.5,M,-34.4,M,,*5E
$GPRMC,144326.750,A,4305.2585,N,07740.6163,W,6.26,88.76,270825,,,A*4F
$GPGGA,144327.000,4305.2585,N,07740.6157,W,1,07,1.40,169.4,M,-34.4,M,,*56
$GPRMC,144327.250,A,4305.2585,N,07740.6153,W,4.04,89.16,270825,,,A*4D
$GPGGA,144327.500,4305.2584,N,07740.6150,W,1,07,1.40,169.4,M,-34.4,M,,*55
$GPRMC,144327.750,A,4305.2584,N,07740.6147,W,2.48,88.92,270825,,,A*4F
$GPGGA,144328.000,4305.2584,N,07740.6145,W,1,07,1.37,169.5,M,-34.4,M,,*5A
$GPRMC,144330.000,A,4305.2583,N,07740.6138,W,2.63,88.92,270825,,,A*4D
$GPGGA,144330.250,4305.2583,N,07740.6135,W,1,07,1.37,169.8,M,-34.4,M,,*59
$GPRMC,144330.500,A,4305.2583,N,07740.6130,W,4.93,86.93,270825,,,A*46
$GPGGA,144330.750,4305.2583,N,07740.6124,W,1,07,1.40,169.9,M,-34.4,M,,*5D
$GPRMC,144331.000,A,4305.2583,N,07740.6117,W,7.46,89.22,270825,,,A*49
$GPGGA,144331.250,4305.2583,N,07740.6109,W,1,07,1.40,169.8,M,-34.4,M,,*57
$GPRMC,144331.500,A,4305.2583,N,07740.6101,W,9.76,88.45,270825,,,A*46
$GPGGA,144331.750,4305.2583,N,07740.6091,W,1,07,1.40,169.8,M,-34.4,M,,*52
$GPRMC,144332.000,A,4305.2583,N,07740.6080,W,11.78,87.78,270825,,,A*7E
$GPGGA,144332.250,4305.2583,N,07740.6069,W,1,07,1.40,169.9,M,-34.4,M,,*52
$GPRMC,144332.500,A,4305.2583,N,07740.6056,W,14.25,90.90,270825,,,A*7D
$GPGGA,144332.750,4305.2583,N,07740.6043,W,1,07,1.40,169.9,M,-34.4,M,,*5F
$GPRMC,144333.000,A,4305.2584,N,07740.6028,W,16.15,90.51,270825,,,A*7B
$GPGGA,144333.250,4305.2584,N,07740.6013,W,1,07,1.40,170.0,M,-34.4,M,,*58
$GPRMC,144333.500,A,4305.2584,N,07740.5997,W,17.54,89.16,270825,,,A*7F
$GPGGA,144333.750,4305.2585,N,07740.5980,W,1,07,1.40,170.1,M,-34.4,M,,*5D
$GPRMC,144334.000,A,4305.2586,N,07740.5963,W,18.70,88.31,270825,,,A*79
$GPGGA,144334.250,4305.2586,N,07740.5946,W,1,07,1.40,170.1,M,-34.4,M,,*56
$GPRMC,144334.500,A,4305.2587,N,07740.5927,W,20.47,90.46,270825,,,A*7B
$GPGGA,144334.750,4305.2588,N,07740.5908,W,1,07,1.40,170.2,M,-34.4,M,,*54
$GPRMC,144335.000,A,4305.2588,N,07740.5888,W,21.18,89.14,270825,,,A*70
$GPGGA,144335.250,4305.2588,N,07740.5868,W,1,07,1.40,170.2,M,-34.4,M,,*57
$GPRMC,144335.500,A,4305.2589,N,07740.5848,W,22.36,89.59,270825,,,A*7E
$GPGGA,144335.750,4305.2589,N,07740.5827,W,1,07,1.40,170.2,M,-34.4,M,,*58
$GPRMC,144336.000,A,4305.2590,N,07740.5805,W,22.83,89.39,270825,,,A*71
$GPGGA,144336.250,4305.2590,N,07740.5783,W,1,07,1.40,170.2,M,-34.4,M,,*57
$GPRMC,144336.500,A,4305.2590,N,07740.5761,W,22.99,89.32,270825,,,A*79
$GPGGA,144336.750,4305.2590,N,07740.5740,W,1,07,1.40,170.3,M,-34.4,M,,*5C
$GPRMC,144337.000,A,4305.2591,N,07740.5718,W,22.59,89.40,270825,,,A*7B
$GPGGA,144337.250,4305.2591,N,07740.5697,W,1,07,1.40,170.3,M,-34.4,M,,*52
$GPRMC,144337.500,A,4305.2592,N,07740.5675,W,22.25,88.80,270825,,,A*71
$GPGGA,144337.750,4305.2592,N,07740.5654,W,1,07,1.40,170.4,M,-34.4,M,,*5C
$GPRMC,144338.000,A,4305.2592,N,07740.5633,W,22.03,88.79,270825,,,A*7B
$GPGGA,144338.250,4305.2593,N,07740.5612,W,1,07,1.40,170.2,M,-34.4,M,,*53
$GPRMC,144338.500,A,4305.2593,N,07740.5591,W,21.71,88.00,270825,,,A*7C
$GPGGA,144338.750,4305.2594,N,07740.5571,W,1,07,1.40,170.2,M,-34.4,M,,*57
$GPRMC,144339.000,A,4305.2594,N,07740.5550,W,21.27,88.75,270825,,,A*73
$GPGGA,144339.250,4305.2595,N,07740.5530,W,1,07,1.40,170.1,M,-34.4,M,,*54
$GPRMC,144339.500,A,4305.2595,N,07740.5511,W,20.67,90.27,270825,,,A*79
$GPGGA,144339.750,4305.2596,N,07740.5492,W,1,07,1.40,170.1,M,-34.4,M,,*5B
$GPRMC,144340.000,A,4305.2596,N,07740.5474,W,19.08,88.55,270825,,,A*7C
$GPGGA,144340.250,4305.2597,N,07740.5456,W,1,07,1.40,170.2,M,-34.4,M,,*5A
$GPRMC,144340.500,A,4305.2597,N,07740.5438,W,17.91,88.15,270825,,,A*7A
$GPGGA,144340.750,4305.2597,N,07740.5422,W,1,07,1.40,170.2,M,-34.4,M,,*5C
$GPRMC,144341.000,A,4305.2598,N,07740.5406,W,15.98,88.48,270825,,,A*7F
$GPGGA,144341.250,4305.2599,N,07740.5391,W,1,07,1.40,170.2,M,-34.4,M,,*59
$GPRMC,144341.500,A,4305.2599,N,07740.5377,W,13.97,88.50,270825,,,A*7A
$GPGGA,144341.750,4305.2599,N,07740.5365,W,1,07,1.40,170.1,M,-34.4,M,,*54
$GPRMC,144342.000,A,4305.2599,N,07740.5353,W,12.18,88.79,270825,,,A*77
$GPGGA,144342.250,4305.2599,N,07740.5342,W,1,07,1.40,170.2,M,-34.4,M,,*54
$GPRMC,144342.500,A,4305.2599,N,07740.5331,W,11.58,87.87,270825,,,A*7F
$GPGGA,144342.750,4305.2599,N,07740.5320,W,1,07,1.40,170.5,M,-34.4,M,,*52
$GPRMC,144343.000,A,4305.2599,N,07740.5309,W,10.55,85.92,270825,,,A*7A
$GPGGA,144343.250,4305.2600,N,07740.5300,W,1,07,1.40,170.4,M,-34.4,M,,*56
$GPRMC,144343.500,A,4305.2601,N,07740.5290,W,10.40,85.84,270825,,,A*7F
$GPGGA,144343.750,4305.2601,N,07740.5279,W,1,07,1.40,170.2,M,-34.4,M,,*5B
$GPRMC,144344.000,A,4305.2601,N,07740.5269,W,11.98,94.15,270825,,,A*77
$GPGGA,144344.250,4305.2602,N,07740.5259,W,1,07,1.40,170.3,M,-34.4,M,,*59
$GPRMC,144344.500,A,4305.2602,N,07740.5248,W,12.31,88.89,270825,,,A*7A
$GPGGA,144344.750,4305.2602,N,07740.5236,W,1,07,1.40,170.3,M,-34.4,M,,*55
$GPRMC,144345.000,A,4305.2603,N,07740.5224,W,12.79,88.85,270825,,,A*75
$GPGGA,144345.250,4305.2603,N,07740.5212,W,1,07,1.40,170.3,M,-34.4,M,,*56
$GPRMC,144345.500,A,4305.2604,N,07740.5200,W,13.86,90.27,270825,,,A*71
$GPGGA,144345.750,4305.2605,N,07740.5189,W,1,07,1.40,170.3,M,-34.4,M,,*54
$GPRMC,144346.000,A,4305.2606,N,07740.5176,W,14.13,88.22,270825,,,A*70
$GPGGA,144346.250,4305.2606,N,07740.5162,W,1,07,1.40,170.3,M,-34.4,M,,*54
$GPRMC,144346.500,A,4305.2606,N,07740.5148,W,14.95,88.77,270825,,,A*76
$GPGGA,144346.750,4305.2607,N,07740.5134,W,1,07,1.40,170.3,M,-34.4,M,,*53
$GPRMC,144347.000,A,4305.2607,N,07740.5120,W,14.99,87.64,270825,,,A*7C
$GPGGA,144347.250,4305.2607,N,07740.5106,W,1,07,1.40,170.4,M,-34.4,M,,*51
$GPRMC,144347.500,A,4305.2608,N,07740.5092,W,15.72,90.38,270825,,,A*75
$GPGGA,144347.750,4305.2608,N,07740.5077,W,1,07,1.40,170.4,M,-34.4,M,,*5C
$GPRMC,144348.000,A,4305.2608,N,07740.5063,W,15.26,89.92,270825,,,A*78
$GPGGA,144348.250,4305.2608,N,07740.5049,W,1,07,1.40,170.4,M,-34.4,M,,*5B
$GPRMC,144348.500,A,4305.2608,N,07740.5034,W,14.81,89.94,270825,,,A*75
$GPGGA,144348.750,4305.2608,N,07740.5020,W,1,07,1.40,170.4,M,-34.4,M,,*51
$GPRMC,144349.000,A,4305.2608,N,07740.5007,W,14.39,89.92,270825,,,A*74
$GPGGA,144349.250,4305.2607,N,07740.4995,W,1,07,1.40,170.4,M,-34.4,M,,*5C
$GPRMC,144349.500,A,4305.2607,N,07740.4981,W,14.67,94.02,270825,,,A*76
$GPGGA,144349.750,4305.2606,N,07740.4968,W,1,07,1.40,170.4,M,-34.4,M,,*5A
$GPRMC,144350.000,A,4305.2605,N,07740.4955,W,14.20,98.16,270825,,,A*7A
$GPGGA,144350.250,4305.2604,N,07740.4942,W,1,07,1.40,170.4,M,-34.4,M,,*5D
$GPRMC,144350.500,A,4305.2602,N,07740.4929,W,13.20,99.92,270825,,,A*79
$GPGGA,144350.750,4305.2600,N,07740.4917,W,1,07,1.40,170.4,M,-34.4,M,,*5C
$GPRMC,144351.000,A,4305.2597,N,07740.4905,W,13.19,107.11,270825,,,A*4B
$GPGGA,144351.250,4305.2594,N,07740.4893,W,1,07,1.40,170.4,M,-34.4,M,,*5B
$GPRMC,144351.500,A,4305.2590,N,07740.4881,W,13.69,113.31,270825,,,A*44
$GPGGA,144351.750,4305.2586,N,07740.4869,W,1,07,1.40,170.5,M,-34.4,M,,*59
$GPRMC,144352.000,A,4305.2581,N,07740.4857,W,13.72,118.54,270825,,,A*4B
$GPGGA,144352.250,4305.2576,N,07740.4846,W,1,07,1.40,170.5,M,-34.4,M,,*5D
$GPRMC,144352.500,A,4305.2571,N,07740.4835,W,13.22,123.12,270825,,,A*4A
$GPGGA,144352.750,4305.2566,N,07740.4824,W,1,07,1.40,170.5,M,-34.4,M,,*5D
$GPRMC,144353.000,A,4305.2560,N,07740.4814,W,13.62,126.44,270825,,,A*4F
$GPGGA,144353.250,4305.2555,N,07740.4804,W,1,07,1.40,170.6,M,-34.4,M,,*58
$GPRMC,144353.500,A,4305.2550,N,07740.4793,W,14.06,124.46,270825,,,A*4C
$GPGGA,144353.750,4305.2545,N,07740.4782,W,1,07,1.40,170.6,M,-34.4,M,,*5D
$GPRMC,144354.000,A,4305.2541,N,07740.4771,W,13.75,116.08,270825,,,A*4A
$GPGGA,144354.250,4305.2538,N,07740.4760,W,1,07,1.40,170.6,M,-34.4,M,,*59
$GPRMC,144354.500,A,4305.2535,N,07740.4748,W,13.45,105.48,270825,,,A*43
$GPGGA,144354.750,4305.2534,N,07740.4735,W,1,07,1.40,170.6,M,-34.4,M,,*50
$GPRMC,144355.000,A,4305.2532,N,07740.4722,W,13.87,98.04,270825,,,A*7F
$GPGGA,144355.250,4305.2532,N,07740.4709,W,1,07,1.40,170.6,M,-34.4,M,,*5D
$GPRMC,144355.500,A,4305.2533,N,07740.4696,W,13.90,87.55,270825,,,A*79
$GPGGA,144355.750,4305.2535,N,07740.4684,W,1,07,1.40,170.7,M,-34.4,M,,*5A
$GPRMC,144356.000,A,4305.2537,N,07740.4671,W,13.69,77.52,270825,,,A*7C
$GPGGA,144356.250,4305.2540,N,07740.4659,W,1,07,1.40,170.7,M,-34.4,M,,*5E
$GPRMC,144356.500,A,4305.2544,N,07740.4649,W,13.44,68.55,270825,,,A*70
$GPGGA,144356.750,4305.2553,N,07740.4640,W,1,07,1.40,170.9,M,-34.4,M,,*5F
$GPRMC,144357.000,A,4305.2559,N,07740.4630,W,13.12,60.57,270825,,,A*7F
$GPGGA,144357.250,4305.2564,N,07740.4620,W,1,07,1.40,171.0,M,-34.4,M,,*51
$GPRMC,144357.500,A,4305.2569,N,07740.4610,W,13.47,55.33,270825,,,A*7F
$GPGGA,144357.750,4305.2573,N,07740.4600,W,1,07,1.40,170.9,M,-34.4,M,,*58
$GPRMC,144358.000,A,4305.2578,N,07740.4589,W,13.75,56.42,270825,,,A*72
$GPGGA,144358.250,4305.2582,N,07740.4578,W,1,07,1.40,170.8,M,-34.4,M,,*51
$GPRMC,144358.500,A,4305.2586,N,07740.4566,W,14.09,60.87,270825,,,A*77
$GPGGA,144358.750,4305.2590,N,07740.4554,W,1,07,1.40,170.5,M,-34.4,M,,*54
$GPRMC,144359.000,A,4305.2595,N,07740.4542,W,14.43,66.11,270825,,,A*70
$GPGGA,144359.250,4305.2598,N,07740.4530,W,1,07,1.40,170.2,M,-34.4,M,,*5D
$GPRMC,144359.500,A,4305.2602,N,07740.4517,W,15.16,70.60,270825,,,A*78
$GPGGA,144359.750,4305.2605,N,07740.4503,W,1,07,1.40,170.1,M,-34.4,M,,*5C
$GPRMC,144400.000,A,4305.2609,N,07740.4489,W,15.70,75.75,270825,,,A*7A
$GPGGA,144400.250,4305.2611,N,07740.4474,W,1,07,1.40,170.1,M,-34.4,M,,*56
$GPRMC,144400.500,A,4305.2614,N,07740.4459,W,16.05,79.13,270825,,,A*73
$GPGGA,144400.750,4305.2616,N,07740.4444,W,1,07,1.40,170.1,M,-34.4,M,,*57
$GPRMC,144401.000,A,4305.2618,N,07740.4429,W,16.33,81.10,270825,,,A*7D
$GPGGA,144401.250,4305.2621,N,07740.4413,W,1,07,1.40,170.2,M,-34.4,M,,*56
$GPRMC,144401.500,A,4305.2622,N,07740.4398,W,16.61,84.17,270825,,,A*79
$GPGGA,144401.750,4305.2623,N,07740.4382,W,1,07,1.40,170.2,M,-34.4,M,,*5E
$GPRMC,144402.000,A,4305.2625,N,07740.4365,W,17.15,85.58,270825,,,A*72
$GPGGA,144402.250,4305.2625,N,07740.4349,W,1,07,1.40,170.2,M,-34.4,M,,*59
$GPRMC,144402.500,A,4305.2626,N,07740.4332,W,17.22,86.18,270825,,,A*75
$GPGGA,144402.750,4305.2627,N,07740.4315,W,1,07,1.40,170.2,M,-34.4,M,,*57
$GPRMC,144403.000,A,4305.2626,N,07740.4297,W,17.91,88.67,270825,,,A*71
$GPGGA,144403.250,4305.2627,N,07740.4280,W,1,07,1.40,170.0,M,-34.4,M,,*5C
$GPRMC,144403.500,A,4305.2627,N,07740.4263,W,17.88,88.99,270825,,,A*77
$GPGGA,144403.750,4305.2627,N,07740.4246,W,1,07,1.40,169.9,M,-34.4,M,,*52
$GPRMC,144404.000,A,4305.2627,N,07740.4229,W,17.66,89.23,270825,,,A*7B
$GPGGA,144404.250,4305.2627,N,07740.4212,W,1,07,1.40,169.9,M,-34.4,M,,*51
$GPRMC,144404.500,A,4305.2627,N,07740.4195,W,17.28,89.20,270825,,,A*73
$GPGGA,144404.750,4305.2626,N,07740.4178,W,1,07,1.40,169.8,M,-34.4,M,,*5B
$GPRMC,144405.000,A,4305.2625,N,07740.4161,W,17.04,89.06,270825,,,A*74
$GPGGA,144405.250,4305.2625,N,07740.4144,W,1,07,1.40,169.8,M,-34.4,M,,*53
$GPRMC,144405.500,A,4305.2624,N,07740.4128,W,16.67,89.35,270825,,,A*79
$GPGGA,144405.750,4305.2624,N,07740.4111,W,1,07,1.40,169.7,M,-34.4,M,,*58
$GPRMC,144406.000,A,4305.2623,N,07740.4094,W,16.47,89.44,270825,,,A*7A
$GPGGA,144406.250,4305.2623,N,07740.4078,W,1,07,1.40,169.7,M,-34.4,M,,*57
$GPRMC,144406.500,A,4305.2622,N,07740.4062,W,16.34,89.93,270825,,,A*79
$GPGGA,144406.750,4305.2622,N,07740.4046,W,1,07,1.40,169.7,M,-34.4,M,,*5E
$GPRMC,144407.000,A,4305.2621,N,07740.4030,W,16.04,89.57,270825,,,A*72
$GPGGA,144407.250,4305.2621,N,07740.4014,W,1,07,1.40,169.7,M,-34.4,M,,*5E
$GPRMC,144407.500,A,4305.2621,N,07740.3999,W,15.63,89.66,270825,,,A*7A
$GPGGA,144407.750,4305.2621,N,07740.3984,W,1,07,1.40,169.7,M,-34.4,M,,*5C
$GPRMC,144408.000,A,4305.2620,N,07740.3969,W,15.58,89.49,270825,,,A*7B
$GPGGA,144408.250,4305.2620,N,07740.3954,W,1,07,1.40,169.7,M,-34.4,M,,*5A
$GPRMC,144408.500,A,4305.2620,N,07740.3939,W,15.60,89.35,270825,,,A*7B
$GPGGA,144408.750,4305.2620,N,07740.3923,W,1,07,1.40,169.7,M,-34.4,M,,*5F
$GPRMC,144409.000,A,4305.2620,N,07740.3908,W,16.22,89.45,270825,,,A*7F
$GPGGA,144409.250,4305.2620,N,07740.3893,W,1,07,1.40,169.6,M,-34.4,M,,*50
$GPRMC,144409.500,A,4305.2620,N,07740.3877,W,16.77,88.56,270825,,,A*70
$GPGGA,144409.750,4305.2621,N,07740.3861,W,1,07,1.40,169.6,M,-34.4,M,,*59
$GPRMC,144410.000,A,4305.2621,N,07740.3844,W,17.32,88.16,270825,,,A*78
$GPGGA,144410.250,4305.2621,N,07740.3828,W,1,07,1.40,169.6,M,-34.4,M,,*59
$GPRMC,144410.500,A,4305.2622,N,07740.3811,W,17.86,87.40,270825,,,A*7D
$GPGGA,144410.750,4305.2622,N,07740.3794,W,1,07,1.40,169.5,M,-34.4,M,,*54
$GPRMC,144411.000,A,4305.2623,N,07740.3777,W,18.49,87.92,270825,,,A*74
$GPGGA,144411.250,4305.2624,N,07740.3760,W,1,07,1.40,169.5,M,-34.4,M,,*5D
$GPRMC,144411.500,A,4305.2624,N,07740.3742,W,18.90,87.31,270825,,,A*7D
$GPGGA,144411.750,4305.2625,N,07740.3725,W,1,07,1.40,169.4,M,-34.4,M,,*59
$GPRMC,144412.000,A,4305.2626,N,07740.3707,W,19.26,86.56,270825,,,A*74
$GPGGA,144412.250,4305.2627,N,07740.3688,W,1,07,1.40,169.4,M,-34.4,M,,*5B
$GPRMC,144412.500,A,4305.2628,N,07740.3670,W,19.36,85.05,270825,,,A*7A
$GPGGA,144412.750,4305.2629,N,07740.3652,W,1,07,1.40,169.3,M,-34.4,M,,*50
$GPRMC,144413.000,A,4305.2630,N,07740.3633,W,19.83,84.61,270825,,,A*7D
$GPGGA,144413.250,4305.2631,N,07740.3614,W,1,07,1.40,169.3,M,-34.4,M,,*5F
$GPRMC,144413.500,A,4305.2632,N,07740.3595,W,20.68,85.82,270825,,,A*76
$GPGGA,144413.750,4305.2634,N,07740.3575,W,1,07,1.40,169.2,M,-34.4,M,,*5A
$GPRMC,144414.000,A,4305.2635,N,07740.3556,W,20.67,84.75,270825,,,A*7A
$GPGGA,144414.250,4305.2636,N,07740.3537,W,1,07,1.40,169.2,M,-34.4,M,,*5C
$GPRMC,144414.500,A,4305.2638,N,07740.3518,W,20.12,82.69,270825,,,A*71
$GPGGA,144414.750,4305.2639,N,07740.3499,W,1,07,1.40,169.2,M,-34.4,M,,*53
$GPRMC,144415.000,A,4305.2641,N,07740.3480,W,20.04,83.79,270825,,,A*7C
$GPGGA,144415.250,4305.2644,N,07740.3463,W,1,07,1.40,169.1,M,-34.4,M,,*5B
$GPRMC,144415.500,A,4305.2645,N,07740.3444,W,20.29,84.57,270825,,,A*71
$GPGGA,144415.750,4305.2647,N,07740.3425,W,1,07,1.40,169.0,M,-34.4,M,,*5E
$GPRMC,144416.000,A,4305.2648,N,07740.3405,W,20.48,83.64,270825,,,A*7F
$GPGGA,144416.250,4305.2650,N,07740.3386,W,1,07,1.40,168.9,M,-34.4,M,,*58
$GPRMC,144416.500,A,4305.2652,N,07740.3366,W,20.80,82.63,270825,,,A*71
$GPGGA,144416.750,4305.2653,N,07740.3346,W,1,07,1.40,168.9,M,-34.4,M,,*52
$GPRMC,144417.000,A,4305.2655,N,07740.3326,W,21.70,83.84,270825,,,A*70
$GPGGA,144417.250,4305.2657,N,07740.3306,W,1,07,1.40,168.8,M,-34.4,M,,*57
$GPRMC,144417.500,A,4305.2659,N,07740.3286,W,21.80,83.69,270825,,,A*7E
$GPGGA,144417.750,4305.2661,N,07740.3265,W,1,07,1.40,168.8,M,-34.4,M,,*53
$GPRMC,144418.000,A,4305.2663,N,07740.3245,W,21.96,81.33,270825,,,A*78
$GPGGA,144418.250,4305.2665,N,07740.3225,W,1,08,1.35,168.8,M,-34.4,M,,*54
$GPRMC,144418.500,A,4305.2668,N,07740.3204,W,21.83,79.34,270825,,,A*77
$GPGGA,144418.750,4305.2670,N,07740.3184,W,1,08,1.35,168.8,M,-34.4,M,,*5D
$GPRMC,144419.000,A,4305.2673,N,07740.3163,W,22.11,78.82,270825,,,A*7F
$GPGGA,144419.250,4305.2676,N,07740.3142,W,1,08,1.35,168.8,M,-34.4,M,,*55
$GPRMC,144419.500,A,4305.2679,N,07740.3122,W,22.41,78.42,270825,,,A*7C
$GPGGA,144419.750,4305.2682,N,07740.3101,W,1,08,1.35,168.8,M,-34.4,M,,*5C
$GPRMC,144420.000,A,4305.2685,N,07740.3080,W,22.63,77.24,270825,,,A*76
$GPGGA,144420.250,4305.2688,N,07740.3059,W,1,08,1.35,168.8,M,-34.4,M,,*55
$GPRMC,144420.500,A,4305.2692,N,07740.3037,W,23.01,76.79,270825,,,A*75
$GPGGA,144420.750,4305.2696,N,07740.3016,W,1,08,1.35,168.8,M,-34.4,M,,*54
$GPRMC,144421.000,A,4305.2700,N,07740.2995,W,23.26,74.82,270825,,,A*78
$GPGGA,144421.250,4305.2704,N,07740.2974,W,1,08,1.35,168.8,M,-34.4,M,,*56
$GPRMC,144421.500,A,4305.2709,N,07740.2952,W,23.74,74.52,270825,,,A*75
$GPGGA,144421.750,4305.2714,N,07740.2931,W,1,08,1.35,168.8,M,-34.4,M,,*53
$GPRMC,144422.000,A,4305.2719,N,07740.2910,W,24.07,73.46,270825,,,A*75
$GPGGA,144422.250,4305.2724,N,07740.2888,W,1,08,1.35,168.8,M,-34.4,M,,*55
$GPRMC,144422.500,A,4305.2730,N,07740.2867,W,24.19,71.24,270825,,,A*73
$GPGGA,144422.750,4305.2736,N,07740.2846,W,1,08,1.35,168.8,M,-34.4,M,,*51
$GPRMC,144423.000,A,4305.2742,N,07740.2824,W,24.72,70.37,270825,,,A*7B
$GPGGA,144423.250,4305.2748,N,07740.2803,W,1,08,1.35,168.8,M,-34.4,M,,*5D
$GPRMC,144423.500,A,4305.2755,N,07740.2781,W,24.76,68.89,270825,,,A*70
$GPGGA,144423.750,4305.2761,N,07740.2760,W,1,08,1.35,168.9,M,-34.4,M,,*58
$GPRMC,144424.000,A,4305.2768,N,07740.2738,W,25.04,67.64,270825,,,A*76
$GPGGA,144424.250,4305.2774,N,07740.2716,W,1,08,1.35,168.9,M,-34.4,M,,*5F
$GPRMC,144424.500,A,4305.2781,N,07740.2694,W,25.00,66.96,270825,,,A*7B
$GPGGA,144424.750,4305.2788,N,07740.2672,W,1,08,1.35,168.9,M,-34.4,M,,*5A
$GPRMC,144425.000,A,4305.2795,N,07740.2650,W,24.99,65.87,270825,,,A*70
$GPGGA,144425.250,4305.2803,N,07740.2629,W,1,08,1.35,168.9,M,-34.4,M,,*5C
$GPRMC,144425.500,A,4305.2810,N,07740.2607,W,24.98,64.82,270825,,,A*70
$GPGGA,144425.750,4305.2817,N,07740.2586,W,1,08,1.35,168.9,M,-34.4,M,,*5A
$GPRMC,144426.000,A,4305.2825,N,07740.2564,W,24.93,63.91,270825,,,A*78
$GPGGA,144426.250,4305.2832,N,07740.2543,W,1,08,1.35,168.9,M,-34.4,M,,*52
$GPRMC,144426.500,A,4305.2840,N,07740.2522,W,24.62,63.19,270825,,,A*72
$GPGGA,144426.750,4305.2848,N,07740.2501,W,1,08,1.35,168.9,M,-34.4,M,,*5C
$GPRMC,144427.000,A,4305.2855,N,07740.2481,W,24.37,62.76,270825,,,A*72
$GPGGA,144427.250,4305.2863,N,07740.2460,W,1,08,1.35,168.9,M,-34.4,M,,*57
$GPRMC,144427.500,A,4305.2871,N,07740.2440,W,23.97,61.68,270825,,,A*7D
$GPGGA,144427.750,4305.2879,N,07740.2420,W,1,08,1.35,168.9,M,-34.4,M,,*5D
$GPRMC,144428.000,A,4305.2886,N,07740.2400,W,23.98,61.00,270825,,,A*7A
$GPGGA,144428.250,4305.2894,N,07740.2380,W,1,08,1.35,168.9,M,-34.4,M,,*59
$GPRMC,144428.500,A,4305.2902,N,07740.2360,W,24.37,60.55,270825,,,A*70
$GPGGA,144428.750,4305.2911,N,07740.2340,W,1,08,1.35,168.9,M,-34.4,M,,*5C
$GPRMC,144429.000,A,4305.2919,N,07740.2320,W,24.74,60.26,270825,,,A*79
$GPGGA,144429.250,4305.2927,N,07740.2299,W,1,08,1.35,168.9,M,-34.4,M,,*58
$GPRMC,144429.500,A,4305.2936,N,07740.2279,W,24.80,60.35,270825,,,A*75
$GPGGA,144429.750,4305.2944,N,07740.2258,W,1,08,1.35,168.9,M,-34.4,M,,*55
$GPRMC,144430.000,A,4305.2952,N,07740.2238,W,24.58,60.51,270825,,,A*78
$GPGGA,144430.250,4305.2961,N,07740.2218,W,1,08,1.35,168.9,M,-34.4,M,,*5B
$GPRMC,144430.500,A,4305.2969,N,07740.2198,W,24.34,60.71,270825,,,A*74
$GPGGA,144430.750,4305.2977,N,07740.2178,W,1,08,1.35,168.9,M,-34.4,M,,*5C
$GPRMC,144431.000,A,4305.2985,N,07740.2158,W,23.93,60.47,270825,,,A*71
$GPGGA,144431.250,4305.2993,N,07740.2138,W,1,08,1.35,168.9,M,-34.4,M,,*56
$GPRMC,144431.500,A,4305.3001,N,07740.2119,W,23.65,60.05,270825,,,A*7A
$GPGGA,144431.750,4305.3009,N,07740.2099,W,1,08,1.35,168.9,M,-34.4,M,,*52
$GPRMC,144432.000,A,4305.3017,N,07740.2080,W,23.33,59.69,270825,,,A*79
$GPGGA,144432.250,4305.3026,N,07740.2061,W,1,08,1.35,168.9,M,-34.4,M,,*5E
$GPRMC,144432.500,A,4305.3034,N,07740.2042,W,23.34,58.91,270825,,,A*72
$GPGGA,144432.750,4305.3042,N,07740.2023,W,1,08,1.35,168.9,M,-34.4,M,,*5F
$GPRMC,144433.000,A,4305.3050,N,07740.2004,W,23.55,59.12,270825,,,A*7B
$GPGGA,144433.250,4305.3059,N,07740.1985,W,1,08,1.35,168.9,M,-34.4,M,,*57
$GPRMC,144433.500,A,4305.3067,N,07740.1966,W,24.03,58.88,270825,,,A*72
$GPGGA,144433.750,4305.3076,N,07740.1946,W,1,08,1.35,168.9,M,-34.4,M,,*50
$GPRMC,144434.000,A,4305.3084,N,07740.1926,W,24.35,59.16,270825,,,A*7A
$GPGGA,144434.250,4305.3093,N,07740.1906,W,1,08,1.35,168.9,M,-34.4,M,,*5D
$GPRMC,144434.500,A,4305.3102,N,07740.1886,W,24.59,59.34,270825,,,A*71
$GPGGA,144434.750,4305.3110,N,07740.1866,W,1,08,1.35,168.8,M,-34.4,M,,*54
$GPRMC,144435.000,A,4305.3119,N,07740.1846,W,24.84,59.70,270825,,,A*73
$GPGGA,144435.250,4305.3128,N,07740.1825,W,1,08,1.35,168.8,M,-34.4,M,,*5C
$GPRMC,144435.500,A,4305.3136,N,07740.1805,W,25.19,59.70,270825,,,A*79
$GPGGA,144435.750,4305.3145,N,07740.1784,W,1,08,1.35,168.8,M,-34.4,M,,*56
$GPRMC,144436.000,A,4305.3154,N,07740.1763,W,25.28,59.64,270825,,,A*73
$GPGGA,144436.250,4305.3163,N,07740.1742,W,1,08,1.35,168.8,M,-34.4,M,,*5E
$GPRMC,144436.500,A,4305.3172,N,07740.1721,W,25.39,59.76,270825,,,A*77
$GPGGA,144436.750,4305.3181,N,07740.1701,W,1,08,1.35,168.8,M,-34.4,M,,*50
$GPRMC,144437.000,A,4305.3190,N,07740.1680,W,25.45,60.00,270825,,,A*75
$GPGGA,144437.250,4305.3198,N,07740.1659,W,1,08,1.35,168.8,M,-34.4,M,,*50
$GPRMC,144437.500,A,4305.3207,N,07740.1638,W,25.45,60.34,270825,,,A*79
$GPGGA,144437.750,4305.3216,N,07740.1617,W,1,08,1.35,168.8,M,-34.4,M,,*5A
$GPRMC,144438.000,A,4305.3225,N,07740.1597,W,25.17,60.60,270825,,,A*73
$GPGGA,144438.250,4305.3233,N,07740.1576,W,1,08,1.35,168.8,M,-34.4,M,,*53
$GPRMC,144438.500,A,4305.3242,N,07740.1555,W,24.75,60.97,270825,,,A*74
$GPGGA,144438.750,4305.3250,N,07740.1535,W,1,08,1.35,168.8,M,-34.4,M,,*54
$GPRMC,144439.000,A,4305.3258,N,07740.1514,W,24.48,61.33,270825,,,A*7F
$GPGGA,144439.250,4305.3266,N,07740.1494,W,1,08,1.35,168.8,M,-34.4,M,,*5F
$GPRMC,144439.500,A,4305.3274,N,07740.1474,W,24.19,61.62,270825,,,A*73
$GPGGA,144439.750,4305.3282,N,07740.1454,W,1,08,1.35,168.8,M,-34.4,M,,*5C
$GPRMC,144440.000,A,4305.3290,N,07740.1434,W,23.75,61.99,270825,,,A*7F
$GPGGA,144440.250,4305.3298,N,07740.1414,W,1,08,1.35,168.8,M,-34.4,M,,*58
$GPRMC,144440.500,A,4305.3305,N,07740.1394,W,23.32,62.35,270825,,,A*7C
$GPGGA,144440.750,4305.3313,N,07740.1375,W,1,08,1.35,168.8,M,-34.4,M,,*5F
$GPRMC,144441.000,A,4305.3320,N,07740.1355,W,23.06,63.38,270825,,,A*79
$GPGGA,144441.250,4305.3327,N,07740.1335,W,1,08,1.35,168.8,M,-34.4,M,,*58
$GPRMC,144441.500,A,4305.3334,N,07740.1316,W,22.70,65.00,270825,,,A*73
$GPGGA,144441.750,4305.3341,N,07740.1297,W,1,08,1.35,168.8,M,-34.4,M,,*54
$GPRMC,144442.000,A,4305.3347,N,07740.1277,W,22.40,67.03,270825,,,A*75
$GPGGA,144442.250,4305.3353,N,07740.1258,W,1,08,1.35,168.8,M,-34.4,M,,*52
$GPRMC,144442.500,A,4305.3358,N,07740.1238,W,22.04,68.95,270825,,,A*75
$GPGGA,144442.750,4305.3364,N,07740.1218,W,1,08,1.35,168.8,M,-34.4,M,,*57
$GPRMC,144443.000,A,4305.3369,N,07740.1199,W,21.75,71.16,270825,,,A*7D
$GPGGA,144443.250,4305.3373,N,07740.1179,W,1,08,1.35,168.8,M,-34.4,M,,*51
$GPRMC,144443.500,A,4305.3378,N,07740.1160,W,21.53,73.39,270825,,,A*75
$GPGGA,144443.750,4305.3382,N,07740.1140,W,1,08,1.35,168.8,M,-34.4,M,,*50
$GPRMC,144444.000,A,4305.3386,N,07740.1121,W,21.09,76.05,270825,,,A*76
$GPGGA,144444.250,4305.3389,N,07740.1101,W,1,08,1.35,168.8,M,-34.4,M,,*5C
$GPRMC,144444.500,A,4305.3392,N,07740.1082,W,20.78,78.17,270825,,,A*74
$GPGGA,144444.750,4305.3395,N,07740.1063,W,1,08,1.35,168.8,M,-34.4,M,,*51
$GPRMC,144445.000,A,4305.3397,N,07740.1043,W,20.30,80.31,270825,,,A*77
$GPGGA,144445.250,4305.3400,N,07740.1025,W,1,08,1.35,168.8,M,-34.4,M,,*5C
$GPRMC,144445.500,A,4305.3401,N,07740.1006,W,18.98,83.12,270825,,,A*70
$GPGGA,144445.750,4305.3403,N,07740.0989,W,1,08,1.35,168.8,M,-34.4,M,,*54
$GPRMC,144446.000,A,4305.3404,N,07740.0972,W,17.71,84.52,270825,,,A*73
$GPGGA,144446.250,4305.3405,N,07740.0956,W,1,08,1.35,168.8,M,-34.4,M,,*56
$GPRMC,144446.500,A,4305.3406,N,07740.0940,W,16.48,85.73,270825,,,A*7C
$GPGGA,144446.750,4305.3407,N,07740.0925,W,1,08,1.35,168.8,M,-34.4,M,,*55
$GPRMC,144447.000,A,4305.3407,N,07740.0911,W,15.73,87.86,270825,,,A*7E
$GPGGA,144447.250,4305.3407,N,07740.0896,W,1,08,1.35,168.8,M,-34.4,M,,*58
$GPRMC,144447.500,A,4305.3408,N,07740.0883,W,15.07,88.76,270825,,,A*7D
$GPGGA,144447.750,4305.3408,N,07740.0869,W,1,08,1.35,168.9,M,-34.4,M,,*53
$GPRMC,144448.000,A,4305.3409,N,07740.0855,W,14.69,90.36,270825,,,A*79
$GPGGA,144448.250,4305.3408,N,07740.0842,W,1,08,1.35,168.9,M,-34.4,M,,*50
$GPRMC,144448.500,A,4305.3408,N,07740.0828,W,14.45,92.51,270825,,,A*7A
$GPGGA,144448.750,4305.3408,N,07740.0815,W,1,08,1.35,168.9,M,-34.4,M,,*57
$GPRMC,144449.000,A,4305.3407,N,07740.0802,W,14.07,92.66,270825,,,A*7B
$GPGGA,144449.250,4305.3407,N,07740.0788,W,1,08,1.35,168.9,M,-34.4,M,,*57
$GPRMC,144449.500,A,4305.3406,N,07740.0775,W,14.38,94.11,270825,,,A*7A
$GPGGA,144449.750,4305.3405,N,07740.0761,W,1,08,1.35,168.8,M,-34.4,M,,*56
$GPRMC,144450.000,A,4305.3404,N,07740.0747,W,14.86,95.96,270825,,,A*7F
$GPGGA,144450.250,4305.3403,N,07740.0733,W,1,08,1.35,168.9,M,-34.4,M,,*5B
$GPRMC,144450.500,A,4305.3402,N,07740.0719,W,15.44,97.96,270825,,,A*7A
$GPGGA,144450.750,4305.3400,N,07740.0704,W,1,08,1.35,168.9,M,-34.4,M,,*59
$GPRMC,144451.000,A,4305.3398,N,07740.0688,W,16.03,99.95,270825,,,A*7E
$GPGGA,144451.250,4305.3396,N,07740.0673,W,1,08,1.35,168.8,M,-34.4,M,,*55
$GPRMC,144451.500,A,4305.3393,N,07740.0658,W,16.11,100.67,270825,,,A*42
$GPGGA,144451.750,4305.3391,N,07740.0642,W,1,08,1.35,168.8,M,-34.4,M,,*55
$GPRMC,144452.000,A,4305.3388,N,07740.0626,W,16.52,101.84,270825,,,A*4C
$GPGGA,144452.250,4305.3385,N,07740.0611,W,1,08,1.35,168.8,M,-34.4,M,,*50
$GPRMC,144452.500,A,4305.3382,N,07740.0595,W,16.78,102.80,270825,,,A*47
$GPGGA,144452.750,4305.3379,N,07740.0579,W,1,08,1.35,168.8,M,-34.4,M,,*5B
$GPRMC,144453.000,A,4305.3376,N,07740.0563,W,17.31,105.03,270825,,,A*41
$GPGGA,144453.250,4305.3372,N,07740.0546,W,1,08,1.35,168.7,M,-34.4,M,,*57
$GPRMC,144453.500,A,4305.3368,N,07740.0529,W,18.06,106.49,270825,,,A*43
$GPGGA,144453.750,4305.3365,N,07740.0513,W,1,08,1.35,168.7,M,-34.4,M,,*54
$GPRMC,144454.000,A,4305.3361,N,07740.0496,W,18.57,107.40,270825,,,A*41
$GPGGA,144454.250,4305.3357,N,07740.0478,W,1,08,1.35,168.6,M,-34.4,M,,*5A
$GPRMC,144454.500,A,4305.3353,N,07740.0461,W,19.14,108.72,270825,,,A*45
$GPGGA,144454.750,4305.3349,N,07740.0444,W,1,08,1.35,168.6,M,-34.4,M,,*5F
$GPRMC,144455.000,A,4305.3344,N,07740.0427,W,19.44,109.97,270825,,,A*4A
$GPGGA,144455.250,4305.3340,N,07740.0409,W,1,08,1.35,168.6,M,-34.4,M,,*5B
$GPRMC,144455.500,A,4305.3335,N,07740.0392,W,19.84,111.67,270825,,,A*4A
$GPGGA,144455.750,4305.3330,N,07740.0374,W,1,08,1.35,168.6,M,-34.4,M,,*54
$GPRMC,144456.000,A,4305.3324,N,07740.0357,W,20.08,113.61,270825,,,A*4F
$GPGGA,144456.250,4305.3319,N,07740.0339,W,1,08,1.35,168.6,M,-34.4,M,,*50
$GPRMC,144456.500,A,4305.3313,N,07740.0322,W,20.78,115.54,270825,,,A*4B
$GPGGA,144456.750,4305.3306,N,07740.0304,W,1,08,1.35,168.6,M,-34.4,M,,*55
$GPRMC,144457.000,A,4305.3299,N,07740.0286,W,21.09,117.12,270825,,,A*44
$GPGGA,144457.250,4305.3293,N,07740.0268,W,1,08,1.35,168.6,M,-34.4,M,,*57
$GPRMC,144457.500,A,4305.3285,N,07740.0250,W,21.42,119.57,270825,,,A*47
$GPGGA,144457.750,4305.3278,N,07740.0232,W,1,08,1.35,168.6,M,-34.4,M,,*58
$GPRMC,144458.000,A,4305.3268,N,07740.0213,W,22.65,122.51,270825,,,A*41
$GPGGA,144458.250,4305.3259,N,07740.0195,W,1,08,1.35,168.6,M,-34.4,M,,*5F
$GPRMC,144458.500,A,4305.3250,N,07740.0177,W,22.98,125.27,270825,,,A*4A
$GPGGA,144458.750,4305.3241,N,07740.0159,W,1,08,1.35,168.6,M,-34.4,M,,*53
$GPRMC,144459.000,A,4305.3231,N,07740.0141,W,23.49,127.50,270825,,,A*43
$GPGGA,144459.250,4305.3221,N,07740.0123,W,1,08,1.35,168.6,M,-34.4,M,,*5C
$GPRMC,144459.500,A,4305.3210,N,07740.0105,W,24.18,129.73,270825,,,A*49
$GPGGA,144459.750,4305.3199,N,07740.0088,W,1,08,1.35,168.6,M,-34.4,M,,*59
$GPRMC,144500.000,A,4305.3188,N,07740.0070,W,24.64,131.45,270825,,,A*47
$GPGGA,144500.250,4305.3176,N,07740.0053,W,1,08,1.35,168.6,M,-34.4,M,,*56
$GPRMC,144500.500,A,4305.3164,N,07740.0035,W,25.13,133.07,270825,,,A*44
$GPGGA,144500.750,4305.3152,N,07740.0018,W,1,08,1.35,168.7,M,-34.4,M,,*5B
$GPRMC,144501.000,A,4305.3139,N,07740.0000,W,25.64,134.78,270825,,,A*41
$GPGGA,144501.250,4305.3126,N,07739.9983,W,1,08,1.35,168.6,M,-34.4,M,,*51
$GPRMC,144501.500,A,4305.3113,N,07739.9965,W,26.17,136.20,270825,,,A*49
$GPGGA,144501.750,4305.3100,N,07739.9948,W,1,08,1.35,168.7,M,-34.4,M,,*56
$GPRMC,144502.000,A,4305.3086,N,07739.9931,W,26.68,138.21,270825,,,A*44
$GPGGA,144502.250,4305.3072,N,07739.9914,W,1,08,1.35,168.7,M,-34.4,M,,*5D
$GPRMC,144502.500,A,4305.3057,N,07739.9898,W,26.97,140.54,270825,,,A*42
$GPGGA,144502.750,4305.3042,N,07739.9882,W,1,08,1.35,168.7,M,-34.4,M,,*55
$GPRMC,144503.000,A,4305.3027,N,07739.9866,W,27.51,142.84,270825,,,A*44
$GPGGA,144503.250,4305.3011,N,07739.9850,W,1,08,1.35,168.6,M,-34.4,M,,*59
$GPRMC,144503.500,A,4305.2996,N,07739.9835,W,27.54,145.51,270825,,,A*4F
$GPGGA,144503.750,4305.2980,N,07739.9821,W,1,08,1.35,168.6,M,-34.4,M,,*5A
$GPRMC,144504.000,A,4305.2964,N,07739.9807,W,27.42,147.84,270825,,,A*4C
$GPGGA,144504.250,4305.2947,N,07739.9794,W,1,08,1.34,168.6,M,-34.4,M,,*53
$GPRMC,144504.500,A,4305.2931,N,07739.9781,W,27.40,150.37,270825,,,A*44
$GPGGA,144504.750,4305.2915,N,07739.9769,W,1,08,1.35,168.6,M,-34.4,M,,*52
$GPRMC,144505.000,A,4305.2898,N,07739.9757,W,27.28,153.00,270825,,,A*40
$GPGGA,144505.250,4305.2882,N,07739.9747,W,1,08,1.35,168.7,M,-34.4,M,,*54
$GPRMC,144505.500,A,4305.2865,N,07739.9736,W,27.14,155.64,270825,,,A*4B
$GPGGA,144505.750,4305.2849,N,07739.9727,W,1,08,1.35,168.7,M,-34.4,M,,*50
$GPRMC,144506.000,A,4305.2832,N,07739.9717,W,25.86,158.20,270825,,,A*48
$GPGGA,144506.250,4305.2815,N,07739.9709,W,1,08,1.35,168.7,M,-34.4,M,,*53
$GPRMC,144506.500,A,4305.2798,N,07739.9700,W,25.92,160.50,270825,,,A*4D
$GPGGA,144506.750,4305.2781,N,07739.9693,W,1,08,1.34,168.7,M,-34.4,M,,*57
$GPRMC,144507.000,A,4305.2764,N,07739.9685,W,26.24,162.44,270825,,,A*4F
$GPGGA,144507.250,4305.2747,N,07739.9678,W,1,08,1.34,168.6,M,-34.4,M,,*5D
$GPRMC,144507.500,A,4305.2729,N,07739.9671,W,26.33,164.50,270825,,,A*4D
$GPGGA,144507.750,4305.2712,N,07739.9665,W,1,08,1.34,168.7,M,-34.4,M,,*55
$GPRMC,144508.000,A,4305.2694,N,07739.9659,W,26.30,166.59,270825,,,A*42
$GPGGA,144508.250,4305.2676,N,07739.9654,W,1,08,1.34,168.6,M,-34.4,M,,*5F
$GPRMC,144508.500,A,4305.2658,N,07739.9649,W,26.19,168.10,270825,,,A*4E
$GPGGA,144508.750,4305.2641,N,07739.9644,W,1,08,1.34,168.6,M,-34.4,M,,*5F
$GPRMC,144509.000,A,4305.2623,N,07739.9640,W,25.81,169.79,270825,,,A*43
$GPGGA,144509.250,4305.2606,N,07739.9636,W,1,08,1.34,168.7,M,-34.4,M,,*5C
$GPRMC,144509.500,A,4305.2588,N,07739.9632,W,25.51,171.60,270825,,,A*4D
$GPGGA,144509.750,4305.2571,N,07739.9629,W,1,08,1.34,168.7,M,-34.4,M,,*54
$GPRMC,144510.000,A,4305.2554,N,07739.9627,W,25.29,173.21,270825,,,A*4D
$GPGGA,144510.250,4305.2536,N,07739.9624,W,1,08,1.34,168.7,M,-34.4,M,,*57
$GPRMC,144510.500,A,4305.2519,N,07739.9622,W,24.88,174.80,270825,,,A*42
$GPGGA,144510.750,4305.2502,N,07739.9621,W,1,08,1.34,168.6,M,-34.4,M,,*51
$GPRMC,144511.000,A,4305.2485,N,07739.9619,W,24.50,176.50,270825,,,A*40
$GPGGA,144511.250,4305.2469,N,07739.9618,W,1,08,1.34,168.6,M,-34.4,M,,*53
$GPRMC,144511.500,A,4305.2452,N,07739.9617,W,24.36,177.44,270825,,,A*45
$GPGGA,144511.750,4305.2435,N,07739.9617,W,1,08,1.34,168.5,M,-34.4,M,,*53
$GPRMC,144512.000,A,4305.2418,N,07739.9616,W,23.75,179.28,270825,,,A*48
$GPGGA,144512.250,4305.2402,N,07739.9616,W,1,08,1.34,168.6,M,-34.4,M,,*53
$GPRMC,144512.500,A,4305.2386,N,07739.9616,W,23.31,180.42,270825,,,A*47
$GPGGA,144512.750,4305.2369,N,07739.9616,W,1,08,1.34,168.5,M,-34.4,M,,*5F
$GPRMC,144513.000,A,4305.2353,N,07739.9616,W,23.10,179.68,270825,,,A*46
$GPGGA,144513.250,4305.2337,N,07739.9616,W,1,08,1.34,168.5,M,-34.4,M,,*50
$GPRMC,144513.500,A,4305.2321,N,07739.9616,W,22.76,179.58,270825,,,A*44
$GPGGA,144513.750,4305.2305,N,07739.9616,W,1,08,1.34,168.5,M,-34.4,M,,*54
$GPRMC,144514.000,A,4305.2290,N,07739.9615,W,22.33,179.05,270825,,,A*47
$GPGGA,144514.250,4305.2274,N,07739.9615,W,1,08,1.34,168.5,M,-34.4,M,,*52
$GPRMC,144514.500,A,4305.2259,N,07739.9615,W,22.13,178.89,270825,,,A*40
$GPGGA,144514.750,4305.2244,N,07739.9614,W,1,08,1.34,168.5,M,-34.4,M,,*55
$GPRMC,144515.000,A,4305.2228,N,07739.9614,W,21.91,178.38,270825,,,A*40
$GPGGA,144515.250,4305.2213,N,07739.9614,W,1,08,1.34,168.5,M,-34.4,M,,*53
$GPRMC,144515.500,A,4305.2198,N,07739.9613,W,21.54,178.90,270825,,,A*41
$GPGGA,144515.750,4305.2183,N,07739.9613,W,1,08,1.34,168.5,M,-34.4,M,,*5B
$GPRMC,144516.000,A,4305.2168,N,07739.9613,W,20.94,179.18,270825,,,A*44
$GPGGA,144516.250,4305.2154,N,07739.9613,W,1,08,1.34,168.4,M,-34.4,M,,*56
$GPRMC,144516.500,A,4305.2140,N,07739.9613,W,19.51,179.35,270825,,,A*47
$GPGGA,144516.750,4305.2127,N,07739.9612,W,1,08,1.34,168.5,M,-34.4,M,,*57
$GPRMC,144517.000,A,4305.2114,N,07739.9612,W,17.98,179.22,270825,,,A*4E
$GPGGA,144517.250,4305.2102,N,07739.9612,W,1,08,1.34,168.4,M,-34.4,M,,*55
$GPRMC,144517.500,A,4305.2090,N,07739.9612,W,16.49,179.05,270825,,,A*4E
$GPGGA,144517.750,4305.2079,N,07739.9613,W,1,08,1.34,168.4,M,-34.4,M,,*5C
$GPRMC,144518.000,A,4305.2069,N,07739.9613,W,14.51,179.00,270825,,,A*4D
$GPGGA,144518.250,4305.2059,N,07739.9613,W,1,08,1.34,168.4,M,-34.4,M,,*54
$GPRMC,144518.500,A,4305.2050,N,07739.9613,W,12.27,178.69,270825,,,A*4B
$GPGGA,144518.750,4305.2042,N,07739.9614,W,1,08,1.34,168.4,M,-34.4,M,,*5C
$GPRMC,144519.000,A,4305.2035,N,07739.9614,W,9.97,179.14,270825,,,A*71
$GPGGA,144519.250,4305.2028,N,07739.9614,W,1,08,1.34,168.3,M,-34.4,M,,*53
$GPRMC,144519.500,A,4305.2022,N,07739.9614,W,7.90,179.15,270825,,,A*7A
$GPGGA,144519.750,4305.2017,N,07739.9614,W,1,08,1.34,168.4,M,-34.4,M,,*5D
