Vers 72
USE_SERIAL_FEEDBACK=true
DEVELOPMENT_MODE=false
USE_RMC_ONLY=false

$GPRMC,222916.500,A,4305.1382,N,07740.8370,W,0.08,318.18,080925,,,A*7A
$GPGGA,222916.750,4305.1382,N,07740.8369,W,1,04,2.51,139.3,M,-34.4,M,,*5E
$GPRMC,222917.000,A,4305.1382,N,07740.8369,W,0.06,38.68,080925,,,A*4E
$GPGGA,222917.250,4305.1382,N,07740.8368,W,1,04,2.51,139.3,M,-34.4,M,,*5B
$GPGGA,222924.250,4305.1395,N,07740.8375,W,1,05,1.51,142.4,M,-34.4,M,,*58
$GPRMC,222924.250,A,4305.1395,N,07740.8375,W,0.10,173.90,080925,,,A*7C
$GPGGA,222924.500,4305.1395,N,07740.8375,W,1,05,1.51,142.6,M,-34.4,M,,*58
$GPRMC,222924.500,A,4305.1395,N,07740.8375,W,0.10,187.06,080925,,,A*7A
$GPGGA,223029.500,4305.1398,N,07740.8387,W,1,05,1.52,145.0,M,-34.4,M,,*5F
$GPRMC,223029.500,A,4305.1398,N,07740.8387,W,0.91,229.30,080925,,,A*74
$GPGGA,223029.750,4305.1397,N,07740.8387,W,1,05,1.52,145.1,M,-34.4,M,,*56
$GPRMC,223029.750,A,4305.1397,N,07740.8387,W,0.99,230.03,080925,,,A*7C
$GPGGA,223031.500,4305.1396,N,07740.8403,W,1,05,1.53,146.3,M,-34.4,M,,*52
$GPRMC,223031.500,A,4305.1396,N,07740.8403,W,3.16,257.65,080925,,,A*7D
$GPGGA,223031.750,4305.1396,N,07740.8406,W,1,05,1.52,146.4,M,-34.4,M,,*56
$GPRMC,223031.750,A,4305.1396,N,07740.8406,W,3.58,260.73,080925,,,A*76
$GPGGA,223032.000,4305.1396,N,07740.8410,W,1,05,1.53,146.5,M,-34.4,M,,*50
$GPRMC,223032.000,A,4305.1396,N,07740.8410,W,3.79,264.92,080925,,,A*78
$GPGGA,223032.250,4305.1396,N,07740.8414,W,1,05,1.53,146.6,M,-34.4,M,,*50
$GPRMC,223032.250,A,4305.1396,N,07740.8414,W,4.03,265.72,080925,,,A*7E
$GPGGA,223032.500,4305.1396,N,07740.8419,W,1,05,1.61,146.7,M,-34.4,M,,*5F
$GPRMC,223032.500,A,4305.1396,N,07740.8419,W,4.00,264.19,080925$GPGGA,223032.750,4305.1396,N,07740.8423,W,1,05,1.61,146.7,M,-34.4,M,,*51
$GPRMC,223033.000,A,4305.1396,N,07740.8428,W,4.33,263.45,080925,,,A*76
$GPGGA,223033.250,4305.1396,N,07740.8433,W,1,05,1.61,146.8,M,-34.4,M,,*5B
$GPRMC,223033.500,A,4305.1396,N,07740.8437,W,4.96,267.66,080925,,,A*77
$GPGGA,223033.750,4305.1395,N,07740.8442,W,1,05,1.61,147.0,M,-34.4,M,,*52
$GPRMC,223034.000,A,4305.1395,N,07740.8447,W,5.22,266.54,080925,,,A*7F
$GPGGA,223034.250,4305.1395,N,07740.8452,W,1,05,1.53,147.2,M,-34.4,M,,*52
$GPRMC,223034.500,A,4305.1396,N,07740.8457,W,5.53,269.65,080925,,,A*73
$GPGGA,223034.750,4305.1396,N,07740.8463,W,1,05,1.61,147.5,M,-34.4,M,,*50
$GPRMC,223035.000,A,4305.1396,N,07740.8469,W,5.86,271.95,080925,,,A*74
$GPGGA,223035.250,4305.1397,N,07740.8475,W,1,05,1.61,147.8,M,-34.4,M,,*5F
$GPRMC,223035.500,A,4305.1398,N,07740.8482,W,6.52,274.96,080925,,,A*76
$GPGGA,223035.750,4305.1398,N,07740.8489,W,1,05,1.61,147.9,M,-34.4,M,,*57
$GPRMC,223036.000,A,4305.1398,N,07740.8496,W,6.75,272.54,080925,,,A*78
$GPGGA,223036.250,4305.1399,N,07740.8503,W,1,05,1.61,148.2,M,-34.4,M,,*57
$GPRMC,223036.500,A,4305.1400,N,07740.8511,W,6.98,275.96,080925,,,A*7F
$GPGGA,223036.750,4305.1401,N,07740.8518,W,1,05,1.61,148.5,M,-34.4,M,,*59
$GPRMC,223037.000,A,4305.1402,N,07740.8526,W,7.54,277.76,080925,,,A*70
$GPGGA,223037.250,4305.1403,N,07740.8534,W,1,05,1.61,148.7,M,-34.4,M,,*53
$GPRMC,223037.500,A,4305.1404,N,07740.8541,W,7.76,279.05,080925,,,A*78
$GPGGA,223037.750,4305.1405,N,07740.8549,W,1,05,1.61,149.0,M,-34.4,M,,*5C
$GPRMC,223038.000,A,4305.1406,N,07740.8557,W,8.01,278.64,080925,,,A*7E
$GPGGA,223038.250,4305.1408,N,07740.8565,W,1,05,1.61,149.2,M,-34.4,M,,*57
$GPRMC,223038.500,A,4305.1409,N,07740.8574,W,8.18,280.69,080925,,,A*77
$GPGGA,223038.750,4305.1410,N,07740.8582,W,1,05,1.61,149.4,M,-34.4,M,,*54
$GPRMC,223039.000,A,4305.1411,N,07740.8590,W,8.32,280.76,080925,,,A*76
$GPGGA,223039.250,4305.1412,N,07740.8598,W,1,05,1.61,149.6,M,-34.4,M,,*5B
$GPRMC,223039.500,A,4305.1414,N,07740.8606,W,8.22,281.72,080925,,,A*7E
$GPGGA,223039.750,4305.1415,N,07740.8614,W,1,05,1.61,149.8,M,-34.4,M,,*50
$GPRMC,223040.000,A,4305.1417,N,07740.8622,W,8.25,283.62,080925,,,A*74
$GPGGA,223040.250,4305.1419,N,07740.8630,W,1,05,1.61,150.0,M,-34.4,M,,*51
$GPRMC,223040.500,A,4305.1422,N,07740.8638,W,8.17,289.48,080925,,,A*7F
$GPGGA,223040.750,4305.1424,N,07740.8646,W,1,05,1.61,150.3,M,-34.4,M,,*58
$GPRMC,223041.000,A,4305.1427,N,07740.8653,W,8.16,290.63,080925,,,A*73
$GPGGA,223041.250,4305.1429,N,07740.8662,W,1,05,1.61,150.4,M,-34.4,M,,*50
$GPRMC,223041.500,A,4305.1431,N,07740.8670,W,8.39,286.59,080925,,,A*73
$GPGGA,223041.750,4305.1433,N,07740.8678,W,1,05,1.61,150.7,M,-34.4,M,,*56
$GPRMC,223042.000,A,4305.1434,N,07740.8686,W,8.24,282.97,080925,,,A*73
$GPGGA,223042.250,4305.1436,N,07740.8693,W,1,05,1.61,150.9,M,-34.4,M,,*5E
$GPRMC,223042.500,A,4305.1437,N,07740.8700,W,7.66,283.24,080925,,,A*7A
$GPGGA,223042.750,4305.1439,N,07740.8708,W,1,05,1.61,151.1,M,-34.4,M,,*5E
$GPRMC,223043.000,A,4305.1440,N,07740.8716,W,8.10,282.04,080925,,,A*74
$GPGGA,223043.250,4305.1441,N,07740.8724,W,1,05,1.61,151.3,M,-34.4,M,,*59
$GPRMC,223043.500,A,4305.1442,N,07740.8732,W,7.81,280.08,080925,,,A*7C
$GPGGA,223043.750,4305.1443,N,07740.8740,W,1,05,1.61,151.6,M,-34.4,M,,*59
$GPRMC,223044.000,A,4305.1443,N,07740.8747,W,7.51,275.89,080925,,,A*73
$GPGGA,223044.250,4305.1443,N,07740.8754,W,1,05,1.61,151.7,M,-34.4,M,,*5F
$GPRMC,223044.500,A,4305.1442,N,07740.8761,W,7.64,268.44,080925,,,A*78
$GPGGA,223044.750,4305.1442,N,07740.8769,W,1,05,1.61,151.8,M,-34.4,M,,*5A
$GPRMC,223045.000,A,4305.1443,N,07740.8777,W,7.88,269.94,080925,,,A*74
$GPGGA,223045.250,4305.1443,N,07740.8784,W,1,05,1.61,151.9,M,-34.4,M,,*5D
$GPRMC,223045.500,A,4305.1443,N,07740.8790,W,7.03,269.07,080925,,,A*71
$GPGGA,223045.750,4305.1443,N,07740.8796,W,1,05,1.61,152.0,M,-34.4,M,,*51
$GPRMC,223046.000,A,4305.1443,N,07740.8802,W,6.46,272.32,080925,,,A*7F
$GPGGA,223046.250,4305.1444,N,07740.8809,W,1,05,1.61,152.2,M,-34.4,M,,*5B
$GPRMC,223046.500,A,4305.1446,N,07740.8818,W,7.47,278.85,080925,,,A*72
$GPGGA,223046.750,4305.1448,N,07740.8825,W,1,05,1.61,152.9,M,-34.4,M,,*57
$GPRMC,223047.000,A,4305.1450,N,07740.8832,W,7.61,287.29,080925,,,A*7B
$GPGGA,223047.250,4305.1452,N,07740.8838,W,1,05,1.61,153.4,M,-34.4,M,,*58
$GPRMC,223047.500,A,4305.1454,N,07740.8843,W,6.24,294.27,080925,,,A*70
$GPGGA,223047.750,4305.1458,N,07740.8848,W,1,05,1.61,154.0,M,-34.4,M,,*53
$GPRMC,223048.000,A,4305.1462,N,07740.8852,W,6.18,314.48,080925,,,A*70
$GPGGA,223048.250,4305.1467,N,07740.8856,W,1,05,1.61,154.1,M,-34.4,M,,*5B
$GPRMC,223048.500,A,4305.1472,N,07740.8858,W,6.68,333.21,080925,,,A*73
$GPGGA,223048.750,4305.1478,N,07740.8861,W,1,05,1.61,154.6,M,-34.4,M,,*53
$GPRMC,223049.000,A,4305.1483,N,07740.8864,W,6.84,339.81,080925,,,A*74
$GPGGA,223049.250,4305.1488,N,07740.8866,W,1,05,1.53,154.9,M,-34.4,M,,*51
$GPRMC,223049.500,A,4305.1495,N,07740.8867,W,7.19,349.73,080925,,,A*7A
$GPGGA,223049.750,4305.1502,N,07740.8868,W,1,05,1.61,155.4,M,-34.4,M,,*54
$GPRMC,223050.000,A,4305.1508,N,07740.8869,W,8.29,354.90,080925,,,A*71
$GPGGA,223050.250,4305.1515,N,07740.8869,W,1,05,1.61,155.6,M,-34.4,M,,*5C
$GPRMC,223050.500,A,4305.1523,N,07740.8870,W,9.36,357.59,080925,,,A*7C
$GPGGA,223050.750,4305.1530,N,07740.8870,W,1,05,1.61,155.8,M,-34.4,M,,*58
$GPRMC,223051.000,A,4305.1537,N,07740.8870,W,9.58,358.57,080925,,,A*74
$GPGGA,223051.250,4305.1543,N,07740.8870,W,1,05,1.61,156.1,M,-34.4,M,,*52
$GPRMC,223051.500,A,4305.1551,N,07740.8870,W,9.95,359.52,080925,,,A*74
$GPGGA,223051.750,4305.1559,N,07740.8870,W,1,05,1.61,156.4,M,-34.4,M,,*59
$GPRMC,223052.000,A,4305.1567,N,07740.8869,W,10.62,2.43,080925,,,A*42
$GPGGA,223052.250,4305.1575,N,07740.8869,W,1,05,1.61,156.7,M,-34.4,M,,*5A
$GPRMC,223052.500,A,4305.1583,N,07740.8869,W,11.04,2.59,080925,,,A*47
$GPGGA,223052.750,4305.1592,N,07740.8869,W,1,05,1.61,157.0,M,-34.4,M,,*50
$GPRMC,223053.000,A,4305.1600,N,07740.8869,W,11.47,1.59,080925,,,A*4F
$GPGGA,223053.250,4305.1608,N,07740.8870,W,1,05,1.61,157.2,M,-34.4,M,,*5E
$GPRMC,223053.500,A,4305.1617,N,07740.8871,W,11.72,0.84,080925,,,A*42
$GPGGA,223053.750,4305.1626,N,07740.8871,W,1,05,1.61,157.4,M,-34.4,M,,*50
$GPRMC,223054.000,A,4305.1635,N,07740.8871,W,11.94,0.44,080925,,,A*44
$GPGGA,223054.250,4305.1644,N,07740.8871,W,1,05,1.62,157.7,M,-34.4,M,,*56
$GPRMC,223054.500,A,4305.1653,N,07740.8872,W,12.25,359.74,080925,,,A*47
$GPGGA,223054.750,4305.1662,N,07740.8872,W,1,05,1.62,158.1,M,-34.4,M,,*5D
$GPRMC,223055.000,A,4305.1671,N,07740.8872,W,12.66,359.37,080925,,,A*43
$GPGGA,223055.250,4305.1681,N,07740.8872,W,1,05,1.61,158.4,M,-34.4,M,,*52
$GPRMC,223055.500,A,4305.1692,N,07740.8873,W,13.13,359.14,080925,,,A*48
$GPGGA,223055.750,4305.1702,N,07740.8873,W,1,05,1.61,158.7,M,-34.4,M,,*5F
$GPRMC,223056.000,A,4305.1713,N,07740.8874,W,13.64,358.86,080925,,,A*4B
$GPGGA,223056.250,4305.1724,N,07740.8874,W,1,05,1.61,159.0,M,-34.4,M,,*5C
$GPRMC,223056.500,A,4305.1735,N,07740.8875,W,14.18,358.44,080925,,,A*49
$GPGGA,223056.750,4305.1746,N,07740.8875,W,1,05,1.61,159.3,M,-34.4,M,,*5F
$GPRMC,223057.000,A,4305.1758,N,07740.8876,W,14.66,358.23,080925,,,A*4D
$GPGGA,223057.250,4305.1770,N,07740.8876,W,1,05,1.61,159.7,M,-34.4,M,,*59
$GPRMC,223057.500,A,4305.1781,N,07740.8876,W,15.13,358.19,080925,,,A*46
$GPGGA,223057.750,4305.1793,N,07740.8876,W,1,05,1.62,160.0,M,-34.4,M,,*5F
$GPRMC,223058.000,A,4305.1804,N,07740.8876,W,15.75,359.60,080925,,,A*41
$GPGGA,223058.250,4305.1816,N,07740.8876,W,1,05,1.62,159.8,M,-34.4,M,,*55
$GPRMC,223058.500,A,4305.1828,N,07740.8875,W,16.06,0.28,080925,,,A*4D
$GPGGA,223058.750,4305.1840,N,07740.8874,W,1,05,1.62,159.5,M,-34.4,M,,*5C
$GPRMC,223059.000,A,4305.1852,N,07740.8875,W,16.17,0.98,080925,,,A*4F
$GPGGA,223059.250,4305.1864,N,07740.8874,W,1,05,1.62,159.2,M,-34.4,M,,*59
$GPRMC,223059.500,A,4305.1876,N,07740.8874,W,16.28,1.09,080925,,,A*48
$GPGGA,223059.750,4305.1889,N,07740.8874,W,1,05,1.62,159.3,M,-34.4,M,,*5E
$GPRMC,223100.000,A,4305.1902,N,07740.8873,W,16.58,0.67,080925,,,A*4B
$GPGGA,223100.250,4305.1914,N,07740.8872,W,1,05,1.62,159.2,M,-34.4,M,,*54
$GPRMC,223100.500,A,4305.1927,N,07740.8871,W,16.71,0.61,080925,,,A*46
$GPGGA,223100.750,4305.1939,N,07740.8871,W,1,05,1.62,159.2,M,-34.4,M,,*5D
$GPRMC,223101.000,A,4305.1952,N,07740.8871,W,16.82,359.67,080925,,,A*45
$GPGGA,223101.250,4305.1965,N,07740.8872,W,1,05,1.62,159.4,M,-34.4,M,,*55
$GPRMC,223101.500,A,4305.1977,N,07740.8873,W,16.90,358.82,080925,,,A*4C
$GPGGA,223101.750,4305.1989,N,07740.8873,W,1,05,1.62,159.6,M,-34.4,M,,*51
$GPRMC,223102.000,A,4305.2001,N,07740.8875,W,16.64,357.61,080925,,,A*4E
$GPGGA,223102.250,4305.2013,N,07740.8876,W,1,05,1.62,159.8,M,-34.4,M,,*55
$GPRMC,223102.500,A,4305.2025,N,07740.8877,W,16.63,355.76,080925,,,A*4C
$GPGGA,223102.750,4305.2038,N,07740.8879,W,1,05,1.62,160.7,M,-34.4,M,,*53
$GPRMC,223103.000,A,4305.2050,N,07740.8879,W,16.75,355.69,080925,,,A*4D
$GPGGA,223103.250,4305.2062,N,07740.8880,W,1,05,1.62,161.2,M,-34.4,M,,*5A
$GPRMC,223103.500,A,4305.2075,N,07740.8880,W,17.14,355.71,080925,,,A*46
$GPGGA,223103.750,4305.2088,N,07740.8880,W,1,05,1.62,160.9,M,-34.4,M,,*51
$GPRMC,223104.000,A,4305.2101,N,07740.8881,W,17.51,355.57,080925,,,A*42
$GPGGA,223104.250,4305.2114,N,07740.8882,W,1,05,1.62,161.0,M,-34.4,M,,*5D
$GPRMC,223104.500,A,4305.2127,N,07740.8883,W,17.63,355.87,080925,,,A*4D
$GPGGA,223104.750,4305.2139,N,07740.8885,W,1,05,1.62,160.7,M,-34.4,M,,*56
$GPRMC,223105.000,A,4305.2152,N,07740.8886,W,17.79,355.20,080925,,,A*48
$GPGGA,223105.250,4305.2165,N,07740.8888,W,1,05,1.62,160.8,M,-34.4,M,,*59
$GPRMC,223105.500,A,4305.2179,N,07740.8890,W,18.16,353.89,080925,,,A*40
$GPGGA,223105.750,4305.2192,N,07740.8892,W,1,05,1.62,161.0,M,-34.4,M,,*56
$GPRMC,223106.000,A,4305.2205,N,07740.8894,W,18.32,352.56,080925,,,A*4F
$GPGGA,223106.250,4305.2218,N,07740.8896,W,1,05,1.62,161.4,M,-34.4,M,,*51
$GPRMC,223106.500,A,4305.2231,N,07740.8899,W,18.37,351.12,080925,,,A*46
$GPGGA,223106.750,4305.2243,N,07740.8901,W,1,05,1.62,161.6,M,-34.4,M,,*57
$GPRMC,223107.000,A,4305.2256,N,07740.8904,W,18.56,350.81,080925,,,A*4A
$GPGGA,223107.250,4305.2269,N,07740.8907,W,1,05,1.62,161.7,M,-34.4,M,,*5C
$GPRMC,223107.500,A,4305.2282,N,07740.8910,W,18.61,350.90,080925,,,A*47
$GPGGA,223107.750,4305.2295,N,07740.8913,W,1,05,1.62,161.7,M,-34.4,M,,*5F
$GPRMC,223108.000,A,4305.2308,N,07740.8916,W,18.57,350.84,080925,,,A*48
$GPGGA,223108.250,4305.2320,N,07740.8918,W,1,05,1.62,161.8,M,-34.4,M,,*5E
$GPRMC,223108.500,A,4305.2332,N,07740.8921,W,17.88,351.95,080925,,,A*4C
$GPGGA,223108.750,4305.2342,N,07740.8923,W,1,05,1.62,161.9,M,-34.4,M,,*56
$GPRMC,223109.000,A,4305.2352,N,07740.8926,W,16.39,352.73,080925,,,A*49
$GPGGA,223109.250,4305.2361,N,07740.8928,W,1,05,1.62,162.1,M,-34.4,M,,*53
$GPRMC,223109.500,A,4305.2369,N,07740.8930,W,14.20,354.85,080925,,,A*46
$GPGGA,223109.750,4305.2376,N,07740.8932,W,1,05,1.62,162.1,M,-34.4,M,,*5B
$GPRMC,223110.000,A,4305.2383,N,07740.8933,W,12.08,354.82,080925,,,A*47
$GPGGA,223110.250,4305.2389,N,07740.8934,W,1,05,1.62,161.4,M,-34.4,M,,*56
$GPRMC,223110.500,A,4305.2393,N,07740.8935,W,9.75,354.00,080925,,,A*7F
$GPGGA,223110.750,4305.2398,N,07740.8935,W,1,05,1.62,161.3,M,-34.4,M,,*55
$GPRMC,223111.000,A,4305.2401,N,07740.8935,W,7.25,358.85,080925,,,A*7D
$GPGGA,223111.250,4305.2404,N,07740.8934,W,1,05,1.62,161.6,M,-34.4,M,,*57
$GPRMC,223111.500,A,4305.2405,N,07740.8932,W,4.99,14.17,080925,,,A*4F
$GPGGA,223111.750,4305.2406,N,07740.8930,W,1,05,1.62,161.8,M,-34.4,M,,*5A
$GPRMC,223112.000,A,4305.2407,N,07740.8928,W,3.76,27.14,080925,,,A*45
$GPGGA,223112.250,4305.2408,N,07740.8925,W,1,05,1.53,161.8,M,-34.4,M,,*54
$GPRMC,223112.500,A,4305.2409,N,07740.8923,W,3.16,31.48,080925,,,A*4D
$GPGGA,223112.750,4305.2410,N,07740.8922,W,1,05,1.53,161.7,M,-34.4,M,,*50
$GPRMC,223113.000,A,4305.2411,N,07740.8920,W,2.76,31.48,080925,,,A*44
$GPGGA,223113.250,4305.2412,N,07740.8918,W,1,05,1.53,161.5,M,-34.4,M,,*5D
$GPRMC,223113.500,A,4305.2412,N,07740.8916,W,3.17,37.76,080925,,,A*4A
$GPGGA,223113.750,4305.2414,N,07740.8913,W,1,05,1.54,161.3,M,-34.4,M,,*54
$GPRMC,223114.000,A,4305.2416,N,07740.8910,W,4.33,39.29,080925,,,A*4F
$GPGGA,223114.250,4305.2418,N,07740.8907,W,1,05,1.53,161.4,M,-34.4,M,,*5F
$GPRMC,223114.500,A,4305.2420,N,07740.8903,W,4.87,39.90,080925,,,A*40
$GPGGA,223114.750,4305.2423,N,07740.8899,W,1,05,1.53,161.5,M,-34.4,M,,*55
$GPRMC,223115.000,A,4305.2425,N,07740.8895,W,5.48,44.16,080925,,,A*49
$GPGGA,223115.250,4305.2429,N,07740.8889,W,1,05,1.53,161.6,M,-34.4,M,,*59
$GPRMC,223115.500,A,4305.2433,N,07740.8883,W,7.41,48.36,080925,,,A*49
$GPGGA,223115.750,4305.2436,N,07740.8876,W,1,05,1.54,161.6,M,-34.4,M,,*55
$GPRMC,223116.000,A,4305.2440,N,07740.8869,W,8.86,50.54,080925,,,A*46
$GPGGA,223116.250,4305.2443,N,07740.8861,W,1,05,1.54,161.5,M,-34.4,M,,*54
$GPRMC,223116.500,A,4305.2447,N,07740.8852,W,10.44,55.74,080925,,,A*7C
$GPGGA,223116.750,4305.2450,N,07740.8843,W,1,05,1.62,161.7,M,-34.4,M,,*54
$GPRMC,223117.000,A,4305.2453,N,07740.8833,W,11.43,60.41,080925,,,A*7C
$GPGGA,223117.250,4305.2456,N,07740.8822,W,1,05,1.62,161.9,M,-34.4,M,,*5F
$GPRMC,223117.500,A,4305.2460,N,07740.8810,W,12.62,63.94,080925,,,A*73
$GPGGA,223117.750,4305.2463,N,07740.8799,W,1,05,1.62,162.1,M,-34.4,M,,*58
$GPRMC,223118.000,A,4305.2467,N,07740.8787,W,13.34,65.88,080925,,,A*76
$GPGGA,223118.250,4305.2470,N,07740.8774,W,1,05,1.53,162.2,M,-34.4,M,,*52
$GPRMC,223118.500,A,4305.2474,N,07740.8761,W,14.39,67.85,080925,,,A*7C
$GPGGA,223118.750,4305.2477,N,07740.8747,W,1,05,1.62,162.3,M,-34.4,M,,*53
$GPRMC,223119.000,A,4305.2481,N,07740.8734,W,14.94,68.54,080925,,,A*76
$GPGGA,223119.250,4305.2485,N,07740.8720,W,1,05,1.54,162.4,M,-34.4,M,,*59
$GPRMC,223119.500,A,4305.2488,N,07740.8706,W,15.58,69.58,080925,,,A*77
$GPGGA,223119.750,4305.2491,N,07740.8690,W,1,05,1.62,162.6,M,-34.4,M,,*54
$GPRMC,223120.000,A,4305.2494,N,07740.8675,W,16.08,70.68,080925,,,A*7D
$GPGGA,223120.250,4305.2498,N,07740.8660,W,1,05,1.54,162.9,M,-34.4,M,,*57
$GPRMC,223120.500,A,4305.2501,N,07740.8645,W,16.34,71.32,080925,,,A*77
$GPGGA,223120.750,4305.2504,N,07740.8629,W,1,05,1.62,163.1,M,-34.4,M,,*57
$GPRMC,223121.000,A,4305.2507,N,07740.8613,W,16.62,72.64,080925,,,A*75
$GPGGA,223121.250,4305.2509,N,07740.8597,W,1,05,1.62,163.2,M,-34.4,M,,*5B
$GPRMC,223121.500,A,4305.2512,N,07740.8580,W,17.08,74.74,080925,,,A*77
$GPGGA,223121.750,4305.2514,N,07740.8564,W,1,05,1.62,163.2,M,-34.4,M,,*5E
$GPRMC,223122.000,A,4305.2517,N,07740.8547,W,17.37,75.95,080925,,,A*7D
$GPGGA,223122.250,4305.2520,N,07740.8531,W,1,05,1.54,163.2,M,-34.4,M,,*5A
$GPRMC,223122.500,A,4305.2523,N,07740.8514,W,17.60,76.09,080925,,,A*7D
$GPGGA,223122.750,4305.2526,N,07740.8498,W,1,05,1.62,163.3,M,-34.4,M,,*5F
$GPRMC,223123.000,A,4305.2528,N,07740.8481,W,17.63,76.31,080925,,,A*77
$GPGGA,223123.250,4305.2530,N,07740.8464,W,1,05,1.54,163.5,M,-34.4,M,,*5C
$GPRMC,223123.500,A,4305.2533,N,07740.8447,W,17.77,77.14,080925,,,A*71
$GPGGA,223123.750,4305.2535,N,07740.8429,W,1,05,1.62,163.7,M,-34.4,M,,*52
$GPRMC,223124.000,A,4305.2537,N,07740.8412,W,17.99,77.64,080925,,,A*70
$GPGGA,223124.250,4305.2539,N,07740.8392,W,1,06,1.50,163.5,M,-34.4,M,,*5B
$GPRMC,223124.500,A,4305.2541,N,07740.8372,W,18.87,78.23,080925,,,A*79
$GPGGA,223124.750,4305.2542,N,07740.8353,W,1,06,1.50,163.2,M,-34.4,M,,*58
$GPRMC,223125.000,A,4305.2544,N,07740.8333,W,19.18,79.06,080925,,,A*7C
$GPGGA,223125.250,4305.2545,N,07740.8313,W,1,06,1.50,163.0,M,-34.4,M,,*5D
$GPRMC,223125.500,A,4305.2545,N,07740.8293,W,19.42,80.79,080925,,,A*72
$GPGGA,223125.750,4305.2546,N,07740.8273,W,1,06,1.50,162.8,M,-34.4,M,,*55
$GPRMC,223126.000,A,4305.2548,N,07740.8254,W,19.10,81.79,080925,,,A*74
$GPGGA,223126.250,4305.2549,N,07740.8235,W,1,06,1.50,162.6,M,-34.4,M,,*50
$GPRMC,223126.500,A,4305.2550,N,07740.8217,W,18.60,82.91,080925,,,A*7C
$GPGGA,223126.750,4305.2551,N,07740.8199,W,1,06,1.50,162.5,M,-34.4,M,,*5A
$GPRMC,223127.000,A,4305.2552,N,07740.8180,W,18.50,84.76,080925,,,A*7B
$GPGGA,223127.250,4305.2553,N,07740.8163,W,1,06,1.50,162.4,M,-34.4,M,,*58
$GPRMC,223127.500,A,4305.2553,N,07740.8145,W,18.18,86.45,080925,,,A*78
$GPGGA,223127.750,4305.2554,N,07740.8127,W,1,06,1.50,162.3,M,-34.4,M,,*5D
$GPRMC,223128.000,A,4305.2555,N,07740.8110,W,17.84,86.90,080925,,,A*76
$GPGGA,223128.250,4305.2556,N,07740.8093,W,1,06,1.50,162.3,M,-34.4,M,,*5B
$GPRMC,223128.500,A,4305.2557,N,07740.8076,W,17.47,88.33,080925,,,A*78
$GPGGA,223128.750,4305.2557,N,07740.8060,W,1,06,1.50,162.4,M,-34.4,M,,*54
$GPRMC,223129.000,A,4305.2558,N,07740.8043,W,17.11,88.30,080925,,,A*75
$GPGGA,223129.250,4305.2558,N,07740.8027,W,1,06,1.50,162.4,M,-34.4,M,,*5C
$GPRMC,223129.500,A,4305.2559,N,07740.8011,W,16.73,88.15,080925,,,A*74
$GPGGA,223129.750,4305.2559,N,07740.7995,W,1,06,1.50,162.3,M,-34.4,M,,*50
$GPRMC,223130.000,A,4305.2560,N,07740.7979,W,16.60,87.38,080925,,,A*79
$GPGGA,223130.250,4305.2561,N,07740.7964,W,1,07,1.44,162.3,M,-34.4,M,,*5C
$GPRMC,223130.500,A,4305.2562,N,07740.7948,W,16.35,88.44,080925,,,A*78
$GPGGA,223130.750,4305.2563,N,07740.7933,W,1,07,1.44,162.4,M,-34.4,M,,*5E
$GPRMC,223131.000,A,4305.2564,N,07740.7917,W,16.13,89.52,080925,,,A*72
$GPGGA,223131.250,4305.2564,N,07740.7902,W,1,07,1.44,162.6,M,-34.4,M,,*5D
$GPRMC,223131.500,A,4305.2565,N,07740.7887,W,15.88,90.80,080925,,,A*78
$GPGGA,223131.750,4305.2565,N,07740.7872,W,1,07,1.44,162.8,M,-34.4,M,,*51
$GPRMC,223132.000,A,4305.2566,N,07740.7858,W,15.64,91.45,080925,,,A*75
$GPGGA,223132.250,4305.2566,N,07740.7843,W,1,07,1.44,163.0,M,-34.4,M,,*5F
$GPRMC,223132.500,A,4305.2567,N,07740.7829,W,15.33,91.64,080925,,,A*76
$GPGGA,223132.750,4305.2567,N,07740.7815,W,1,07,1.44,163.2,M,-34.4,M,,*5A
$GPRMC,223133.000,A,4305.2567,N,07740.7801,W,14.90,91.36,080925,,,A*77
$GPGGA,223133.250,4305.2568,N,07740.7788,W,1,07,1.44,163.3,M,-34.4,M,,*5B
$GPRMC,223133.500,A,4305.2568,N,07740.7774,W,14.43,91.50,080925,,,A*7E
$GPGGA,223133.750,4305.2568,N,07740.7761,W,1,07,1.44,163.4,M,-34.4,M,,*5E
$GPRMC,223134.000,A,4305.2568,N,07740.7747,W,14.17,90.88,080925,,,A*79
$GPGGA,223134.250,4305.2568,N,07740.7734,W,1,07,1.44,163.5,M,-34.4,M,,*5D
$GPRMC,223134.500,A,4305.2568,N,07740.7721,W,13.85,91.08,080925,,,A*79
$GPGGA,223134.750,4305.2568,N,07740.7708,W,1,07,1.44,163.7,M,-34.4,M,,*55
$GPRMC,223135.000,A,4305.2569,N,07740.7695,W,13.59,91.95,080925,,,A*77
$GPGGA,223135.250,4305.2569,N,07740.7683,W,1,07,1.40,163.8,M,-34.4,M,,*59
$GPRMC,223135.500,A,4305.2569,N,07740.7670,W,13.47,91.61,080925,,,A*7D
$GPGGA,223135.750,4305.2570,N,07740.7658,W,1,07,1.44,164.0,M,-34.4,M,,*59
$GPRMC,223136.000,A,4305.2571,N,07740.7645,W,13.18,91.45,080925,,,A*78
$GPGGA,223136.250,4305.2570,N,07740.7633,W,1,07,1.44,164.1,M,-34.4,M,,*53
$GPRMC,223136.500,A,4305.2570,N,07740.7621,W,12.58,94.69,080925,,,A*70
$GPGGA,223136.750,4305.2569,N,07740.7610,W,1,07,1.44,164.2,M,-34.4,M,,*5C
$GPRMC,223137.000,A,4305.2568,N,07740.7599,W,11.71,97.70,080925,,,A*7E
$GPGGA,223137.250,4305.2567,N,07740.7589,W,1,07,1.44,164.3,M,-34.4,M,,*54
$GPRMC,223137.500,A,4305.2566,N,07740.7580,W,10.49,101.58,080925,,,A*43
$GPGGA,223137.750,4305.2565,N,07740.7573,W,1,07,1.44,164.5,M,-34.4,M,,*50
$GPRMC,223138.000,A,4305.2564,N,07740.7566,W,8.97,105.80,080925,,,A*78
$GPGGA,223138.250,4305.2563,N,07740.7561,W,1,07,1.44,164.6,M,-34.4,M,,*5C
$GPRMC,223138.500,A,4305.2562,N,07740.7557,W,7.15,109.71,080925,,,A*7E
$GPGGA,223138.750,4305.2562,N,07740.7554,W,1,07,1.44,164.5,M,-34.4,M,,*5D
$GPRMC,223139.000,A,4305.2563,N,07740.7552,W,5.42,110.79,080925,,,A*7E
$GPGGA,223139.250,4305.2564,N,07740.7550,W,1,07,1.44,164.6,M,-34.4,M,,*58
$GPRMC,223139.500,A,4305.2564,N,07740.7547,W,4.66,105.07,080925,,,A*72
$GPGGA,223139.750,4305.2564,N,07740.7543,W,1,07,1.44,164.7,M,-34.4,M,,*5E
$GPRMC,223140.000,A,4305.2564,N,07740.7537,W,5.33,97.39,080925,,,A*48
$GPGGA,223140.250,4305.2564,N,07740.7531,W,1,07,1.44,164.8,M,-34.4,M,,*5F
$GPRMC,223140.500,A,4305.2565,N,07740.7523,W,7.36,89.01,080925,,,A*4A
$GPGGA,223140.750,4305.2566,N,07740.7516,W,1,07,1.44,164.8,M,-34.4,M,,*5D
$GPRMC,223141.000,A,4305.2567,N,07740.7507,W,8.79,84.33,080925,,,A*42
$GPGGA,223141.250,4305.2569,N,07740.7499,W,1,07,1.44,164.8,M,-34.4,M,,*50
$GPRMC,223141.500,A,4305.2571,N,07740.7489,W,9.96,79.73,080925,,,A*41
$GPGGA,223141.750,4305.2573,N,07740.7478,W,1,07,1.44,164.7,M,-34.4,M,,*5E
$GPRMC,223142.000,A,4305.2574,N,07740.7466,W,11.40,77.96,080925,,,A*74
$GPGGA,223142.250,4305.2576,N,07740.7454,W,1,07,1.44,164.8,M,-34.4,M,,*5C
$GPRMC,223142.500,A,4305.2578,N,07740.7441,W,13.32,78.16,080925,,,A*78
$GPGGA,223142.750,4305.2580,N,07740.7427,W,1,07,1.44,165.0,M,-34.4,M,,*5D
$GPRMC,223143.000,A,4305.2581,N,07740.7413,W,14.43,79.18,080925,,,A*73
$GPGGA,223143.250,4305.2582,N,07740.7398,W,1,07,1.44,165.0,M,-34.4,M,,*58
$GPRMC,223143.500,A,4305.2583,N,07740.7382,W,15.65,81.48,080925,,,A*7C
$GPGGA,223143.750,4305.2584,N,07740.7366,W,1,07,1.44,165.1,M,-34.4,M,,*5B
$GPRMC,223144.000,A,4305.2585,N,07740.7350,W,16.38,83.43,080925,,,A*75
$GPGGA,223144.250,4305.2586,N,07740.7334,W,1,07,1.40,165.1,M,-34.4,M,,*58
$GPRMC,223144.500,A,4305.2586,N,07740.7317,W,17.06,85.80,080925,,,A*75
$GPGGA,223144.750,4305.2586,N,07740.7300,W,1,07,1.44,165.3,M,-34.4,M,,*5C
$GPRMC,223145.000,A,4305.2586,N,07740.7283,W,17.15,87.88,080925,,,A*75
$GPGGA,223145.250,4305.2586,N,07740.7267,W,1,07,1.44,165.4,M,-34.4,M,,*5F
$GPRMC,223145.500,A,4305.2586,N,07740.7250,W,17.32,89.08,080925,,,A*7D
$GPGGA,223145.750,4305.2586,N,07740.7234,W,1,07,1.44,165.5,M,-34.4,M,,*5D
$GPRMC,223146.000,A,4305.2585,N,07740.7217,W,17.11,90.54,080925,,,A*7B
$GPGGA,223146.250,4305.2585,N,07740.7202,W,1,07,1.44,165.6,M,-34.4,M,,*5E
$GPRMC,223146.500,A,4305.2585,N,07740.7186,W,16.64,90.90,080925,,,A*7E
$GPGGA,223146.750,4305.2585,N,07740.7171,W,1,07,1.44,165.6,M,-34.4,M,,*5C
$GPRMC,223147.000,A,4305.2585,N,07740.7156,W,16.18,91.10,080925,,,A*75
$GPGGA,223147.250,4305.2584,N,07740.7140,W,1,07,1.44,165.7,M,-34.4,M,,*5A
$GPRMC,223147.500,A,4305.2584,N,07740.7124,W,16.05,91.75,080925,,,A*7B
$GPGGA,223147.750,4305.2583,N,07740.7109,W,1,07,1.44,165.7,M,-34.4,M,,*55
$GPRMC,223148.000,A,4305.2583,N,07740.7094,W,15.95,91.58,080925,,,A*79
$GPGGA,223148.250,4305.2582,N,07740.7078,W,1,07,1.44,165.7,M,-34.4,M,,*59
$GPRMC,223148.500,A,4305.2582,N,07740.7063,W,15.94,90.94,080925,,,A*75
$GPGGA,223148.750,4305.2582,N,07740.7047,W,1,07,1.44,165.8,M,-34.4,M,,*5F
$GPRMC,223149.000,A,4305.2582,N,07740.7032,W,16.19,90.22,080925,,,A*7E
$GPGGA,223149.250,4305.2582,N,07740.7016,W,1,07,1.44,165.8,M,-34.4,M,,*5F
$GPRMC,223149.500,A,4305.2582,N,07740.7000,W,16.26,89.33,080925,,,A*7E
$GPGGA,223149.750,4305.2582,N,07740.6985,W,1,07,1.44,165.9,M,-34.4,M,,*59
$GPRMC,223150.000,A,4305.2582,N,07740.6970,W,16.30,88.62,080925,,,A*7E
$GPGGA,223150.250,4305.2583,N,07740.6954,W,1,07,1.44,165.9,M,-34.4,M,,*59
$GPRMC,223150.500,A,4305.2582,N,07740.6938,W,16.58,88.46,080925,,,A*7F
$GPGGA,223150.750,4305.2582,N,07740.6922,W,1,07,1.44,166.0,M,-34.4,M,,*56
$GPRMC,223151.000,A,4305.2583,N,07740.6907,W,16.68,88.07,080925,,,A*70
$GPGGA,223151.250,4305.2583,N,07740.6891,W,1,07,1.44,166.1,M,-34.4,M,,*5B
$GPRMC,223151.500,A,4305.2583,N,07740.6876,W,16.61,88.06,080925,,,A*7A
$GPGGA,223151.750,4305.2583,N,07740.6860,W,1,07,1.44,166.1,M,-34.4,M,,*50
$GPRMC,223152.000,A,4305.2584,N,07740.6844,W,16.62,88.05,080925,,,A*7A
$GPGGA,223152.250,4305.2584,N,07740.6829,W,1,07,1.44,166.2,M,-34.4,M,,*5F
$GPRMC,223152.500,A,4305.2584,N,07740.6813,W,16.61,87.92,080925,,,A*7F
$GPGGA,223152.750,4305.2584,N,07740.6796,W,1,07,1.44,166.4,M,-34.4,M,,*57
$GPRMC,223153.000,A,4305.2584,N,07740.6780,W,16.67,88.39,080925,,,A*76
$GPGGA,223153.250,4305.2583,N,07740.6763,W,1,07,1.44,166.4,M,-34.4,M,,*5E
$GPRMC,223153.500,A,4305.2583,N,07740.6747,W,16.77,89.29,080925,,,A*7E
$GPGGA,223153.750,4305.2582,N,07740.6731,W,1,07,1.44,166.5,M,-34.4,M,,*5C
$GPRMC,223154.000,A,4305.2582,N,07740.6715,W,16.78,89.69,080925,,,A*71
$GPGGA,223154.250,4305.2582,N,07740.6699,W,1,07,1.44,166.5,M,-34.4,M,,*5D
$GPRMC,223154.500,A,4305.2582,N,07740.6683,W,16.39,89.14,080925,,,A*75
$GPGGA,223154.750,4305.2582,N,07740.6668,W,1,07,1.44,166.5,M,-34.4,M,,*56
$GPRMC,223155.000,A,4305.2581,N,07740.6652,W,16.09,88.70,080925,,,A*7E
$GPGGA,223155.250,4305.2581,N,07740.6637,W,1,07,1.44,166.6,M,-34.4,M,,*58
$GPRMC,223155.500,A,4305.2580,N,07740.6621,W,15.65,89.22,080925,,,A*71
$GPGGA,223155.750,4305.2580,N,07740.6606,W,1,07,1.44,166.6,M,-34.4,M,,*5E
$GPRMC,223156.000,A,4305.2580,N,07740.6591,W,15.56,90.40,080925,,,A*73
$GPGGA,223156.250,4305.2579,N,07740.6577,W,1,07,1.44,166.6,M,-34.4,M,,*5B
$GPRMC,223156.500,A,4305.2579,N,07740.6562,W,15.16,90.86,080925,,,A*72
$GPGGA,223156.750,4305.2579,N,07740.6548,W,1,07,1.44,166.6,M,-34.4,M,,*52
$GPRMC,223157.000,A,4305.2579,N,07740.6534,W,14.88,90.52,080925,,,A*7A
$GPGGA,223157.250,4305.2579,N,07740.6521,W,1,07,1.44,166.6,M,-34.4,M,,*59
$GPRMC,223157.500,A,4305.2579,N,07740.6507,W,14.87,89.52,080925,,,A*78
$GPGGA,223157.750,4305.2579,N,07740.6493,W,1,07,1.44,166.7,M,-34.4,M,,*55
$GPRMC,223158.000,A,4305.2579,N,07740.6479,W,14.84,88.76,080925,,,A*7E
$GPGGA,223158.250,4305.2579,N,07740.6465,W,1,07,1.44,166.7,M,-34.4,M,,*56
$GPRMC,223158.500,A,4305.2580,N,07740.6452,W,14.55,88.19,080925,,,A*71
$GPGGA,223158.750,4305.2580,N,07740.6438,W,1,07,1.44,166.6,M,-34.4,M,,*5C
$GPRMC,223159.000,A,4305.2581,N,07740.6425,W,14.43,86.77,080925,,,A*75
$GPGGA,223159.250,4305.2581,N,07740.6412,W,1,07,1.44,166.6,M,-34.4,M,,*51
$GPRMC,223159.500,A,4305.2581,N,07740.6398,W,14.02,87.48,080925,,,A*79
$GPGGA,223159.750,4305.2581,N,07740.6385,W,1,07,1.44,166.5,M,-34.4,M,,*5E
$GPRMC,223200.000,A,4305.2581,N,07740.6372,W,13.88,88.71,080925,,,A*77
$GPGGA,223200.250,4305.2581,N,07740.6359,W,1,07,1.44,166.5,M,-34.4,M,,*55
$GPRMC,223200.500,A,4305.2580,N,07740.6346,W,13.48,90.34,080925,,,A*70
$GPGGA,223200.750,4305.2580,N,07740.6334,W,1,07,1.44,166.5,M,-34.4,M,,*5A
$GPRMC,223201.000,A,4305.2580,N,07740.6321,W,13.24,91.02,080925,,,A*7B
$GPGGA,223201.250,4305.2580,N,07740.6309,W,1,07,1.44,166.4,M,-34.4,M,,*51
$GPRMC,223201.500,A,4305.2580,N,07740.6297,W,12.89,91.14,080925,,,A*73
$GPGGA,223201.750,4305.2579,N,07740.6285,W,1,07,1.44,166.1,M,-34.4,M,,*52
$GPRMC,223202.000,A,4305.2579,N,07740.6273,W,12.43,91.28,080925,,,A*70
$GPGGA,223202.250,4305.2579,N,07740.6262,W,1,07,1.44,165.8,M,-34.4,M,,*57
$GPRMC,223202.500,A,4305.2580,N,07740.6250,W,11.86,90.20,080925,,,A*71
$GPGGA,223202.750,4305.2580,N,07740.6239,W,1,07,1.44,165.6,M,-34.4,M,,*54
$GPRMC,223203.000,A,4305.2580,N,07740.6229,W,11.38,88.35,080925,,,A*73
$GPGGA,223203.250,4305.2581,N,07740.6218,W,1,07,1.44,165.3,M,-34.4,M,,*57
$GPRMC,223203.500,A,4305.2581,N,07740.6208,W,11.01,87.98,080925,,,A*76
$GPGGA,223203.750,4305.2581,N,07740.6198,W,1,07,1.44,165.0,M,-34.4,M,,*5A
$GPRMC,223204.000,A,4305.2582,N,07740.6188,W,10.75,88.88,080925,,,A*70
$GPGGA,223204.250,4305.2582,N,07740.6178,W,1,07,1.45,164.8,M,-34.4,M,,*5D
$GPRMC,223204.500,A,4305.2581,N,07740.6168,W,10.50,90.29,080925,,,A*7D
$GPGGA,223204.750,4305.2582,N,07740.6158,W,1,07,1.44,164.6,M,-34.4,M,,*55
$GPRMC,223205.000,A,4305.2582,N,07740.6148,W,10.42,89.22,080925,,,A*78
$GPGGA,223205.250,4305.2582,N,07740.6138,W,1,07,1.44,164.6,M,-34.4,M,,*57
$GPRMC,223205.500,A,4305.2582,N,07740.6129,W,10.03,89.69,080925,,,A*70
$GPGGA,223205.750,4305.2582,N,07740.6120,W,1,07,1.44,164.6,M,-34.4,M,,*5B
$GPRMC,223206.000,A,4305.2582,N,07740.6111,W,9.71,90.68,080925,,,A*49
$GPGGA,223206.250,4305.2582,N,07740.6102,W,1,07,1.44,164.7,M,-34.4,M,,*5C
$GPRMC,223206.500,A,4305.2582,N,07740.6093,W,9.49,90.42,080925,,,A*44
$GPGGA,223206.750,4305.2582,N,07740.6084,W,1,07,1.44,164.7,M,-34.4,M,,*56
$GPRMC,223207.000,A,4305.2583,N,07740.6076,W,9.21,86.77,080925,,,A*45
$GPGGA,223207.250,4305.2583,N,07740.6067,W,1,07,1.44,164.7,M,-34.4,M,,*5E
$GPRMC,223207.500,A,4305.2584,N,07740.6058,W,9.30,87.40,080925,,,A*4E
$GPGGA,223207.750,4305.2584,N,07740.6049,W,1,07,1.44,164.8,M,-34.4,M,,*5F
$GPRMC,223208.000,A,4305.2584,N,07740.6040,W,10.04,88.64,080925,,,A*7B
$GPGGA,223208.250,4305.2584,N,07740.6031,W,1,07,1.44,165.1,M,-34.4,M,,*52
$GPRMC,223208.500,A,4305.2584,N,07740.6021,W,10.34,87.39,080925,,,A*7D
$GPGGA,223208.750,4305.2585,N,07740.6011,W,1,07,1.44,164.7,M,-34.4,M,,*53
$GPRMC,223209.000,A,4305.2585,N,07740.6001,W,11.20,88.40,080925,,,A*7F
$GPGGA,223209.250,4305.2586,N,07740.5991,W,1,07,1.45,164.8,M,-34.4,M,,*58
$GPRMC,223209.500,A,4305.2586,N,07740.5980,W,11.59,88.53,080925,,,A*76
$GPGGA,223209.750,4305.2586,N,07740.5969,W,1,07,1.45,164.4,M,-34.4,M,,*56
$GPRMC,223210.000,A,4305.2587,N,07740.5958,W,11.94,88.40,080925,,,A*7C
$GPGGA,223210.250,4305.2588,N,07740.5947,W,1,07,1.44,164.6,M,-34.4,M,,*5A
$GPRMC,223210.500,A,4305.2588,N,07740.5935,W,12.83,89.32,080925,,,A*7C
$GPGGA,223210.750,4305.2588,N,07740.5923,W,1,07,1.44,164.4,M,-34.4,M,,*5F
$GPRMC,223211.000,A,4305.2588,N,07740.5911,W,12.71,89.43,080925,,,A*75
$GPGGA,223211.250,4305.2588,N,07740.5899,W,1,07,1.44,164.4,M,-34.4,M,,*5B
$GPRMC,223211.500,A,4305.2589,N,07740.5888,W,12.93,88.54,080925,,,A*7B
$GPGGA,223211.750,4305.2590,N,07740.5875,W,1,07,1.45,164.5,M,-34.4,M,,*55
$GPRMC,223212.000,A,4305.2590,N,07740.5863,W,13.25,87.72,080925,,,A*77
$GPGGA,223212.250,4305.2591,N,07740.5851,W,1,07,1.45,164.5,M,-34.4,M,,*54
$GPRMC,223212.500,A,4305.2591,N,07740.5838,W,13.60,87.05,080925,,,A*7C
$GPGGA,223212.750,4305.2592,N,07740.5825,W,1,07,1.45,164.6,M,-34.4,M,,*52
$GPRMC,223213.000,A,4305.2592,N,07740.5812,W,13.71,87.35,080925,,,A*70
$GPGGA,223213.250,4305.2593,N,07740.5799,W,1,07,1.45,164.5,M,-34.4,M,,*5C
$GPRMC,223213.500,A,4305.2593,N,07740.5786,W,13.82,87.50,080925,,,A*79
$GPGGA,223213.750,4305.2593,N,07740.5772,W,1,07,1.45,164.5,M,-34.4,M,,*5C
$GPRMC,223214.000,A,4305.2594,N,07740.5759,W,13.86,87.39,080925,,,A*75
$GPGGA,223214.250,4305.2594,N,07740.5746,W,1,07,1.45,164.4,M,-34.4,M,,*5F
$GPRMC,223214.500,A,4305.2594,N,07740.5733,W,13.84,86.89,080925,,,A*74
$GPGGA,223214.750,4305.2595,N,07740.5720,W,1,07,1.45,164.3,M,-34.4,M,,*5C
$GPRMC,223215.000,A,4305.2595,N,07740.5707,W,13.61,86.02,080925,,,A*7E
$GPGGA,223215.250,4305.2595,N,07740.5694,W,1,07,1.45,164.1,M,-34.4,M,,*54
$GPRMC,223215.500,A,4305.2596,N,07740.5681,W,13.42,85.98,080925,,,A*76
$GPGGA,223215.750,4305.2596,N,07740.5668,W,1,07,1.45,163.9,M,-34.4,M,,*5E
$GPRMC,223216.000,A,4305.2596,N,07740.5655,W,13.37,87.02,080925,,,A*7A
$GPGGA,223216.250,4305.2597,N,07740.5642,W,1,07,1.45,163.8,M,-34.4,M,,*50
$GPRMC,223216.500,A,4305.2597,N,07740.5629,W,13.29,87.22,080925,,,A*78
$GPGGA,223216.750,4305.2597,N,07740.5616,W,1,07,1.45,163.6,M,-34.4,M,,*5A
$GPRMC,223217.000,A,4305.2597,N,07740.5604,W,13.07,87.28,080925,,,A*75
$GPGGA,223217.250,4305.2598,N,07740.5592,W,1,07,1.45,163.6,M,-34.4,M,,*5E
$GPRMC,223217.500,A,4305.2598,N,07740.5580,W,12.72,87.21,080925,,,A*7A
$GPGGA,223217.750,4305.2598,N,07740.5569,W,1,07,1.45,163.8,M,-34.4,M,,*51
$GPRMC,223218.000,A,4305.2598,N,07740.5557,W,12.37,87.60,080925,,,A*7E
$GPGGA,223218.250,4305.2599,N,07740.5545,W,1,07,1.45,163.7,M,-34.4,M,,*5B
$GPRMC,223218.500,A,4305.2599,N,07740.5533,W,12.15,88.20,080925,,,A*73
$GPGGA,223218.750,4305.2599,N,07740.5521,W,1,07,1.45,163.7,M,-34.4,M,,*5C
$GPRMC,223219.000,A,4305.2599,N,07740.5510,W,12.14,88.07,080925,,,A*72
$GPGGA,223219.250,4305.2599,N,07740.5498,W,1,07,1.45,163.5,M,-34.4,M,,*59
$GPRMC,223219.500,A,4305.2599,N,07740.5486,W,12.11,88.82,080925,,,A*71
$GPGGA,223219.750,4305.2599,N,07740.5474,W,1,07,1.45,163.3,M,-34.4,M,,*58
$GPRMC,223220.000,A,4305.2599,N,07740.5462,W,12.37,88.48,080925,,,A*76
$GPGGA,223220.250,4305.2600,N,07740.5451,W,1,07,1.45,163.1,M,-34.4,M,,*51
$GPRMC,223220.500,A,4305.2601,N,07740.5439,W,12.50,88.33,080925,,,A*72
$GPGGA,223220.750,4305.2601,N,07740.5427,W,1,07,1.45,163.2,M,-34.4,M,,*57
$GPRMC,223221.000,A,4305.2602,N,07740.5415,W,12.53,88.52,080925,,,A*7F
$GPGGA,223221.250,4305.2602,N,07740.5404,W,1,07,1.45,163.1,M,-34.4,M,,*52
$GPRMC,223221.500,A,4305.2602,N,07740.5392,W,12.61,88.49,080925,,,A*79
$GPGGA,223221.750,4305.2602,N,07740.5379,W,1,07,1.45,162.9,M,-34.4,M,,*53
$GPRMC,223222.000,A,4305.2603,N,07740.5368,W,12.61,89.43,080925,,,A*70
$GPGGA,223222.250,4305.2603,N,07740.5356,W,1,07,1.45,162.7,M,-34.4,M,,*57
$GPRMC,223222.500,A,4305.2603,N,07740.5345,W,12.35,89.90,080925,,,A*75
$GPGGA,223222.750,4305.2603,N,07740.5333,W,1,07,1.45,162.3,M,-34.4,M,,*55
$GPRMC,223223.000,A,4305.2603,N,07740.5322,W,12.29,89.97,080925,,,A*7A
$GPGGA,223223.250,4305.2603,N,07740.5311,W,1,07,1.45,162.2,M,-34.4,M,,*50
$GPRMC,223223.500,A,4305.2604,N,07740.5300,W,11.73,90.25,080925,,,A*75
$GPGGA,223223.750,4305.2604,N,07740.5290,W,1,07,1.45,162.2,M,-34.4,M,,*5A
$GPRMC,223224.000,A,4305.2604,N,07740.5279,W,11.24,90.39,080925,,,A*77
$GPGGA,223224.250,4305.2605,N,07740.5269,W,1,07,1.45,162.0,M,-34.4,M,,*5D
$GPRMC,223224.500,A,4305.2605,N,07740.5259,W,10.85,88.03,080925,,,A*7B
$GPGGA,223224.750,4305.2605,N,07740.5249,W,1,07,1.45,161.9,M,-34.4,M,,*50
$GPRMC,223225.000,A,4305.2605,N,07740.5238,W,11.09,88.76,080925,,,A*7F
$GPGGA,223225.250,4305.2605,N,07740.5228,W,1,07,1.45,161.7,M,-34.4,M,,*5D
$GPRMC,223225.500,A,4305.2605,N,07740.5216,W,11.51,88.16,080925,,,A*7D
$GPGGA,223225.750,4305.2605,N,07740.5205,W,1,07,1.45,161.6,M,-34.4,M,,*56
$GPRMC,223226.000,A,4305.2605,N,07740.5193,W,12.12,88.37,080925,,,A*72
$GPGGA,223226.250,4305.2605,N,07740.5181,W,1,07,1.45,161.5,M,-34.4,M,,*5C
$GPRMC,223226.500,A,4305.2605,N,07740.5169,W,12.61,88.80,080925,,,A*7A
$GPGGA,223226.750,4305.2605,N,07740.5156,W,1,07,1.45,161.3,M,-34.4,M,,*55
$GPRMC,223227.000,A,4305.2605,N,07740.5144,W,13.16,88.48,080925,,,A*74
$GPGGA,223227.250,4305.2606,N,07740.5131,W,1,07,1.45,161.2,M,-34.4,M,,*52
$GPRMC,223227.500,A,4305.2606,N,07740.5118,W,13.57,88.06,080925,,,A*74
$GPGGA,223227.750,4305.2606,N,07740.5105,W,1,07,1.45,161.1,M,-34.4,M,,*53
$GPRMC,223228.000,A,4305.2606,N,07740.5091,W,14.05,88.11,080925,,,A*78
$GPGGA,223228.250,4305.2606,N,07740.5077,W,1,07,1.45,161.0,M,-34.4,M,,*5C
$GPRMC,223228.500,A,4305.2607,N,07740.5063,W,14.83,87.96,080925,,,A*7F
$GPGGA,223228.750,4305.2607,N,07740.5048,W,1,07,1.45,160.8,M,-34.4,M,,*5D
$GPRMC,223229.000,A,4305.2607,N,07740.5033,W,15.44,88.53,080925,,,A*72
$GPGGA,223229.250,4305.2607,N,07740.5018,W,1,07,1.45,160.7,M,-34.4,M,,*53
$GPRMC,223229.500,A,4305.2606,N,07740.5003,W,15.64,89.32,080925,,,A*71
$GPGGA,223229.750,4305.2606,N,07740.4988,W,1,07,1.45,160.6,M,-34.4,M,,*57
$GPRMC,223230.000,A,4305.2606,N,07740.4973,W,15.55,90.80,080925,,,A*70
$GPGGA,223230.250,4305.2605,N,07740.4958,W,1,07,1.45,160.6,M,-34.4,M,,*54
$GPRMC,223230.500,A,4305.2604,N,07740.4944,W,15.45,96.57,080925,,,A*7E
$GPGGA,223230.750,4305.2603,N,07740.4929,W,1,07,1.45,160.4,M,-34.4,M,,*53
$GPRMC,223231.000,A,4305.2601,N,07740.4916,W,15.12,100.03,080925,,,A*45
$GPGGA,223231.250,4305.2599,N,07740.4902,W,1,07,1.45,161.1,M,-34.4,M,,*5A
$GPRMC,223231.500,A,4305.2596,N,07740.4889,W,13.85,102.76,080925,,,A*42
$GPGGA,223231.750,4305.2594,N,07740.4876,W,1,07,1.45,161.6,M,-34.4,M,,*57
$GPRMC,223232.000,A,4305.2591,N,07740.4863,W,14.04,110.11,080925,,,A*4B
$GPGGA,223232.250,4305.2587,N,07740.4851,W,1,07,1.45,161.9,M,-34.4,M,,*59
$GPRMC,223232.500,A,4305.2582,N,07740.4839,W,14.29,115.79,080925,,,A*47
$GPGGA,223232.750,4305.2578,N,07740.4827,W,1,07,1.45,162.6,M,-34.4,M,,*51
$GPRMC,223233.000,A,4305.2573,N,07740.4815,W,13.79,120.30,080925,,,A*4A
$GPGGA,223233.250,4305.2567,N,07740.4803,W,1,07,1.45,162.8,M,-34.4,M,,*53
$GPRMC,223233.500,A,4305.2562,N,07740.4791,W,14.11,120.54,080925,,,A*47
$GPGGA,223233.750,4305.2557,N,07740.4780,W,1,07,1.45,162.9,M,-34.4,M,,*50
$GPRMC,223234.000,A,4305.2552,N,07740.4768,W,14.20,120.69,080925,,,A*4C
$GPGGA,223234.250,4305.2547,N,07740.4756,W,1,07,1.45,163.0,M,-34.4,M,,*50
$GPRMC,223234.500,A,4305.2543,N,07740.4744,W,14.27,116.43,080925,,,A*4D
$GPGGA,223234.750,4305.2539,N,07740.4732,W,1,07,1.45,163.1,M,-34.4,M,,*5F
$GPRMC,223235.000,A,4305.2536,N,07740.4720,W,14.16,111.57,080925,,,A*49
$GPGGA,223235.250,4305.2533,N,07740.4707,W,1,07,1.45,163.3,M,-34.4,M,,*55
$GPRMC,223235.500,A,4305.2531,N,07740.4694,W,14.44,104.27,080925,,,A*41
$GPGGA,223235.750,4305.2530,N,07740.4681,W,1,07,1.45,163.5,M,-34.4,M,,*5A
$GPRMC,223236.000,A,4305.2529,N,07740.4667,W,14.43,96.96,080925,,,A*75
$GPGGA,223236.250,4305.2530,N,07740.4655,W,1,07,1.45,163.6,M,-34.4,M,,*56
$GPRMC,223236.500,A,4305.2532,N,07740.4643,W,14.18,88.26,080925,,,A*76
$GPGGA,223236.750,4305.2535,N,07740.4631,W,1,07,1.45,164.3,M,-34.4,M,,*56
$GPRMC,223237.000,A,4305.2537,N,07740.4619,W,14.11,81.21,080925,,,A*7F
$GPGGA,223237.250,4305.2541,N,07740.4606,W,1,07,1.45,164.3,M,-34.4,M,,*55
$GPRMC,223237.500,A,4305.2546,N,07740.4596,W,13.85,70.91,080925,,,A*77
$GPGGA,223237.750,4305.2552,N,07740.4585,W,1,07,1.45,164.1,M,-34.4,M,,*58
$GPRMC,223238.000,A,4305.2557,N,07740.4573,W,13.77,62.90,080925,,,A*79
$GPGGA,223238.250,4305.2562,N,07740.4562,W,1,07,1.45,164.1,M,-34.4,M,,*58
$GPRMC,223238.500,A,4305.2567,N,07740.4551,W,13.74,58.58,080925,,,A*71
$GPGGA,223238.750,4305.2573,N,07740.4540,W,1,07,1.45,163.9,M,-34.4,M,,*52
$GPRMC,223239.000,A,4305.2578,N,07740.4529,W,13.79,57.72,080925,,,A*7E
$GPGGA,223239.250,4305.2583,N,07740.4518,W,1,07,1.45,163.8,M,-34.4,M,,*55
$GPRMC,223239.500,A,4305.2588,N,07740.4506,W,14.03,59.08,080925,,,A*70
$GPGGA,223239.750,4305.2592,N,07740.4493,W,1,07,1.45,163.7,M,-34.4,M,,*5D
$GPRMC,223240.000,A,4305.2596,N,07740.4481,W,14.08,61.40,080925,,,A*76
$GPGGA,223240.250,4305.2600,N,07740.4468,W,1,07,1.45,163.6,M,-34.4,M,,*5B
$GPRMC,223240.500,A,4305.2604,N,07740.4455,W,14.38,65.28,080925,,,A*7B
$GPGGA,223240.750,4305.2607,N,07740.4443,W,1,07,1.45,163.6,M,-34.4,M,,*50
$GPRMC,223241.000,A,4305.2610,N,07740.4430,W,14.22,67.70,080925,,,A*7D
$GPGGA,223241.250,4305.2612,N,07740.4416,W,1,07,1.45,163.5,M,-34.4,M,,*53
$GPRMC,223241.500,A,4305.2612,N,07740.4402,W,14.06,75.13,080925,,,A*7B
$GPGGA,223241.750,4305.2613,N,07740.4388,W,1,07,1.45,163.4,M,-34.4,M,,*56
$GPRMC,223242.000,A,4305.2614,N,07740.4375,W,14.09,80.56,080925,,,A*78
$GPGGA,223242.250,4305.2614,N,07740.4361,W,1,07,1.45,163.4,M,-34.4,M,,*50
$GPRMC,223242.500,A,4305.2615,N,07740.4347,W,14.35,83.51,080925,,,A*76
$GPGGA,223242.750,4305.2615,N,07740.4333,W,1,07,1.45,163.4,M,-34.4,M,,*53
$GPRMC,223243.000,A,4305.2615,N,07740.4318,W,14.75,85.51,080925,,,A*7A
$GPGGA,223243.250,4305.2616,N,07740.4304,W,1,07,1.45,163.4,M,-34.4,M,,*50
$GPRMC,223243.500,A,4305.2616,N,07740.4289,W,14.99,87.02,080925,,,A*73
$GPGGA,223243.750,4305.2616,N,07740.4275,W,1,07,1.45,163.4,M,-34.4,M,,*52
$GPRMC,223244.000,A,4305.2616,N,07740.4260,W,15.32,87.46,080925,,,A*76
$GPGGA,223244.250,4305.2617,N,07740.4245,W,1,07,1.45,163.4,M,-34.4,M,,*52
$GPRMC,223244.500,A,4305.2617,N,07740.4230,W,15.57,87.62,080925,,,A*72
$GPGGA,223244.750,4305.2618,N,07740.4215,W,1,07,1.45,163.5,M,-34.4,M,,*5C
$GPRMC,223245.000,A,4305.2618,N,07740.4200,W,15.88,87.51,080925,,,A*78
$GPGGA,223245.250,4305.2618,N,07740.4184,W,1,07,1.45,163.5,M,-34.4,M,,*53
$GPRMC,223245.500,A,4305.2619,N,07740.4168,W,16.18,87.31,080925,,,A*7D
$GPGGA,223245.750,4305.2619,N,07740.4153,W,1,07,1.45,163.5,M,-34.4,M,,*5D
$GPRMC,223246.000,A,4305.2620,N,07740.4137,W,16.15,87.19,080925,,,A*7C
$GPGGA,223246.250,4305.2620,N,07740.4122,W,1,07,1.45,163.4,M,-34.4,M,,*56
$GPRMC,223246.500,A,4305.2621,N,07740.4106,W,16.25,87.80,080925,,,A*79
$GPGGA,223246.750,4305.2621,N,07740.4090,W,1,07,1.45,163.4,M,-34.4,M,,*5A
$GPRMC,223247.000,A,4305.2621,N,07740.4075,W,15.58,87.72,080925,,,A*7C
$GPGGA,223247.250,4305.2621,N,07740.4060,W,1,07,1.45,163.2,M,-34.4,M,,*57
$GPRMC,223247.500,A,4305.2622,N,07740.4046,W,15.32,86.93,080925,,,A*78
$GPGGA,223247.750,4305.2623,N,07740.4030,W,1,07,1.45,163.0,M,-34.4,M,,*57
$GPRMC,223248.000,A,4305.2623,N,07740.4016,W,15.36,87.09,080925,,,A*70
$GPGGA,223248.250,4305.2624,N,07740.4002,W,1,07,1.45,163.4,M,-34.4,M,,*5F
$GPRMC,223248.500,A,4305.2625,N,07740.3987,W,15.54,88.73,080925,,,A*73
$GPGGA,223248.750,4305.2625,N,07740.3973,W,1,07,1.45,163.5,M,-34.4,M,,*52
$GPRMC,223249.000,A,4305.2626,N,07740.3959,W,14.72,86.40,080925,,,A*7C
$GPGGA,223249.250,4305.2626,N,07740.3944,W,1,07,1.45,163.6,M,-34.4,M,,*52
$GPRMC,223249.500,A,4305.2627,N,07740.3930,W,14.31,85.17,080925,,,A*71
$GPGGA,223249.750,4305.2627,N,07740.3915,W,1,07,1.45,163.5,M,-34.4,M,,*51
$GPRMC,223250.000,A,4305.2628,N,07740.3901,W,14.79,86.72,080925,,,A*7D
$GPGGA,223250.250,4305.2628,N,07740.3887,W,1,07,1.45,163.5,M,-34.4,M,,*59
$GPRMC,223250.500,A,4305.2628,N,07740.3873,W,14.88,87.41,080925,,,A*73
$GPGGA,223250.750,4305.2629,N,07740.3858,W,1,07,1.45,163.5,M,-34.4,M,,*5F
$GPRMC,223251.000,A,4305.2629,N,07740.3844,W,15.08,87.86,080925,,,A*70
$GPGGA,223251.250,4305.2630,N,07740.3829,W,1,07,1.45,163.5,M,-34.4,M,,*55
$GPRMC,223251.500,A,4305.2630,N,07740.3815,W,15.07,88.58,080925,,,A*7A
$GPGGA,223251.750,4305.2629,N,07740.3800,W,1,07,1.45,163.6,M,-34.4,M,,*50
$GPRMC,223252.000,A,4305.2629,N,07740.3785,W,15.09,89.29,080925,,,A*7B
$GPGGA,223252.250,4305.2629,N,07740.3770,W,1,07,1.45,163.6,M,-34.4,M,,*5E
$GPRMC,223252.500,A,4305.2630,N,07740.3755,W,15.34,88.52,080925,,,A*78
$GPGGA,223252.750,4305.2630,N,07740.3739,W,1,07,1.45,163.7,M,-34.4,M,,*5F
$GPRMC,223253.000,A,4305.2630,N,07740.3724,W,15.62,88.19,080925,,,A*76
$GPGGA,223253.250,4305.2630,N,07740.3709,W,1,07,1.45,163.7,M,-34.4,M,,*58
$GPRMC,223253.500,A,4305.2630,N,07740.3693,W,15.60,87.92,080925,,,A*70
$GPGGA,223253.750,4305.2630,N,07740.3678,W,1,07,1.45,163.6,M,-34.4,M,,*5B
$GPRMC,223254.000,A,4305.2631,N,07740.3663,W,15.42,86.86,080925,,,A*78
$GPGGA,223254.250,4305.2632,N,07740.3648,W,1,07,1.45,163.5,M,-34.4,M,,*5B
$GPRMC,223254.500,A,4305.2632,N,07740.3633,W,15.65,86.83,080925,,,A*7B
$GPGGA,223254.750,4305.2633,N,07740.3617,W,1,07,1.45,163.5,M,-34.4,M,,*55
$GPRMC,223255.000,A,4305.2634,N,07740.3602,W,15.76,86.44,080925,,,A*72
$GPGGA,223255.250,4305.2634,N,07740.3587,W,1,07,1.45,163.5,M,-34.4,M,,*5C
$GPRMC,223255.500,A,4305.2635,N,07740.3571,W,16.08,85.34,080925,,,A*7F
$GPGGA,223255.750,4305.2636,N,07740.3555,W,1,07,1.45,163.4,M,-34.4,M,,*55
$GPRMC,223256.000,A,4305.2637,N,07740.3540,W,16.30,84.63,080925,,,A*71
$GPGGA,223256.250,4305.2638,N,07740.3524,W,1,07,1.45,163.4,M,-34.4,M,,*5B
$GPRMC,223256.500,A,4305.2640,N,07740.3508,W,16.54,82.52,080925,,,A*7E
$GPGGA,223256.750,4305.2642,N,07740.3492,W,1,07,1.45,163.4,M,-34.4,M,,*5F
$GPRMC,223257.000,A,4305.2644,N,07740.3476,W,16.91,81.43,080925,,,A*7C
$GPGGA,223257.250,4305.2645,N,07740.3459,W,1,07,1.45,163.4,M,-34.4,M,,*5B
$GPRMC,223257.500,A,4305.2647,N,07740.3443,W,17.17,80.98,080925,,,A*74
$GPGGA,223257.750,4305.2649,N,07740.3427,W,1,07,1.45,163.4,M,-34.4,M,,*5B
$GPRMC,223258.000,A,4305.2651,N,07740.3410,W,17.40,81.04,080925,,,A*79
$GPGGA,223258.250,4305.2653,N,07740.3393,W,1,07,1.45,163.5,M,-34.4,M,,*53
$GPRMC,223258.500,A,4305.2655,N,07740.3376,W,17.89,81.38,080925,,,A*75
$GPGGA,223258.750,4305.2657,N,07740.3359,W,1,07,1.45,163.6,M,-34.4,M,,*57
$GPRMC,223259.000,A,4305.2659,N,07740.3342,W,18.12,81.35,080925,,,A*7A
$GPGGA,223259.250,4305.2661,N,07740.3325,W,1,07,1.45,163.7,M,-34.4,M,,*5C
$GPRMC,223259.500,A,4305.2663,N,07740.3307,W,18.19,81.34,080925,,,A*7D
$GPGGA,223259.750,4305.2665,N,07740.3290,W,1,07,1.45,163.7,M,-34.4,M,,*52
$GPRMC,223300.000,A,4305.2667,N,07740.3272,W,18.44,81.55,080925,,,A*7D
$GPGGA,223300.250,4305.2669,N,07740.3255,W,1,07,1.45,163.7,M,-34.4,M,,*5F
$GPRMC,223300.500,A,4305.2671,N,07740.3237,W,18.68,81.40,080925,,,A*74
$GPGGA,223300.750,4305.2673,N,07740.3219,W,1,07,1.45,163.7,M,-34.4,M,,*59
$GPRMC,223301.000,A,4305.2676,N,07740.3202,W,18.77,81.11,080925,,,A*7B
$GPGGA,223301.250,4305.2678,N,07740.3184,W,1,07,1.45,163.7,M,-34.4,M,,*51
$GPRMC,223301.500,A,4305.2680,N,07740.3166,W,19.02,80.56,080925,,,A*77
$GPGGA,223301.750,4305.2684,N,07740.3149,W,1,07,1.45,163.7,M,-34.4,M,,*56
$GPRMC,223302.000,A,4305.2687,N,07740.3131,W,19.12,78.84,080925,,,A*7D
$GPGGA,223302.250,4305.2690,N,07740.3114,W,1,07,1.45,163.7,M,-34.4,M,,*5D
$GPRMC,223302.500,A,4305.2694,N,07740.3096,W,19.18,77.40,080925,,,A*7B
$GPGGA,223302.750,4305.2698,N,07740.3077,W,1,07,1.45,163.8,M,-34.4,M,,*5B
$GPRMC,223303.000,A,4305.2702,N,07740.3059,W,19.55,75.87,080925,,,A*72
$GPGGA,223303.250,4305.2706,N,07740.3041,W,1,07,1.45,163.9,M,-34.4,M,,*5D
$GPRMC,223303.500,A,4305.2710,N,07740.3022,W,19.76,74.79,080925,,,A*79
$GPGGA,223303.750,4305.2714,N,07740.3003,W,1,07,1.45,164.0,M,-34.4,M,,*53
$GPRMC,223304.000,A,4305.2718,N,07740.2984,W,20.08,74.25,080925,,,A*7D
$GPGGA,223304.250,4305.2723,N,07740.2966,W,1,07,1.45,164.0,M,-34.4,M,,*5E
$GPRMC,223304.500,A,4305.2728,N,07740.2947,W,20.35,73.16,080925,,,A*7D
$GPGGA,223304.750,4305.2733,N,07740.2928,W,1,07,1.45,164.1,M,-34.4,M,,*51
$GPRMC,223305.000,A,4305.2737,N,07740.2909,W,20.73,72.66,080925,,,A*79
$GPGGA,223305.250,4305.2742,N,07740.2890,W,1,07,1.45,164.1,M,-34.4,M,,*51
$GPRMC,223305.500,A,4305.2747,N,07740.2871,W,20.82,71.80,080925,,,A*70
$GPGGA,223305.750,4305.2753,N,07740.2853,W,1,07,1.45,164.0,M,-34.4,M,,*5A
$GPRMC,223306.000,A,4305.2758,N,07740.2834,W,21.04,71.17,080925,,,A*78
$GPGGA,223306.250,4305.2763,N,07740.2815,W,1,07,1.45,163.9,M,-34.4,M,,*53
$GPRMC,223306.500,A,4305.2768,N,07740.2797,W,21.25,71.09,080925,,,A*74
$GPGGA,223306.750,4305.2773,N,07740.2778,W,1,07,1.45,164.0,M,-34.4,M,,*5D
$GPRMC,223307.000,A,4305.2778,N,07740.2759,W,21.35,70.94,080925,,,A*77
$GPGGA,223307.250,4305.2784,N,07740.2740,W,1,07,1.45,163.8,M,-34.4,M,,*55
$GPRMC,223307.500,A,4305.2790,N,07740.2721,W,21.55,69.83,080925,,,A*73
$GPGGA,223307.750,4305.2796,N,07740.2702,W,1,07,1.45,163.8,M,-34.4,M,,*55
$GPRMC,223308.000,A,4305.2801,N,07740.2683,W,21.63,68.83,080925,,,A*73
$GPGGA,223308.250,4305.2807,N,07740.2664,W,1,07,1.45,163.8,M,-34.4,M,,*59
$GPRMC,223308.500,A,4305.2813,N,07740.2645,W,21.81,67.66,080925,,,A*77
$GPGGA,223308.750,4305.2818,N,07740.2626,W,1,07,1.45,163.8,M,-34.4,M,,*54
$GPRMC,223309.000,A,4305.2824,N,07740.2607,W,21.94,67.30,080925,,,A*76
$GPGGA,223309.250,4305.2830,N,07740.2588,W,1,07,1.45,163.7,M,-34.4,M,,*52
$GPRMC,223309.500,A,4305.2836,N,07740.2568,W,22.14,66.66,080925,,,A*73
$GPGGA,223309.750,4305.2842,N,07740.2549,W,1,07,1.45,163.6,M,-34.4,M,,*5E
$GPRMC,223310.000,A,4305.2848,N,07740.2530,W,22.23,66.52,080925,,,A*79
$GPGGA,223310.250,4305.2854,N,07740.2510,W,1,07,1.45,163.5,M,-34.4,M,,*5B
$GPRMC,223310.500,A,4305.2861,N,07740.2490,W,22.50,66.11,080925,,,A*7F
$GPGGA,223310.750,4305.2867,N,07740.2470,W,1,07,1.45,163.5,M,-34.4,M,,*59
$GPRMC,223311.000,A,4305.2874,N,07740.2451,W,22.80,65.07,080925,,,A*7B
$GPGGA,223311.250,4305.2881,N,07740.2431,W,1,07,1.45,163.4,M,-34.4,M,,*51
$GPRMC,223311.500,A,4305.2887,N,07740.2412,W,23.04,64.60,080925,,,A*78
$GPGGA,223311.750,4305.2894,N,07740.2392,W,1,07,1.45,163.4,M,-34.4,M,,*5E
$GPRMC,223312.000,A,4305.2901,N,07740.2372,W,23.23,64.10,080925,,,A*72
$GPGGA,223312.250,4305.2908,N,07740.2353,W,1,07,1.45,163.4,M,-34.4,M,,*51
$GPRMC,223312.500,A,4305.2915,N,07740.2334,W,23.45,62.93,080925,,,A*7D
$GPGGA,223312.750,4305.2922,N,07740.2314,W,1,07,1.45,163.3,M,-34.4,M,,*58
$GPRMC,223313.000,A,4305.2929,N,07740.2295,W,23.57,62.18,080925,,,A*7C
$GPGGA,223313.250,4305.2937,N,07740.2275,W,1,07,1.45,163.2,M,-34.4,M,,*5F
$GPRMC,223313.500,A,4305.2945,N,07740.2255,W,23.88,61.50,080925,,,A*72
$GPGGA,223313.750,4305.2953,N,07740.2235,W,1,07,1.45,163.3,M,-34.4,M,,*5D
$GPRMC,223314.000,A,4305.2961,N,07740.2216,W,24.01,61.10,080925,,,A*73
$GPGGA,223314.250,4305.2969,N,07740.2196,W,1,07,1.45,163.4,M,-34.4,M,,*5B
$GPRMC,223314.500,A,4305.2977,N,07740.2176,W,24.11,60.73,080925,,,A*71
$GPGGA,223314.750,4305.2986,N,07740.2157,W,1,07,1.45,163.4,M,-34.4,M,,*52
$GPRMC,223315.000,A,4305.2995,N,07740.2137,W,24.13,59.74,080925,,,A*73
$GPGGA,223315.250,4305.3004,N,07740.2118,W,1,07,1.45,163.4,M,-34.4,M,,*5F
$GPRMC,223315.500,A,4305.3013,N,07740.2099,W,24.02,58.90,080925,,,A*7E
$GPGGA,223315.750,4305.3022,N,07740.2079,W,1,07,1.45,163.4,M,-34.4,M,,*58
$GPRMC,223316.000,A,4305.3031,N,07740.2060,W,24.16,58.96,080925,,,A*7D
$GPGGA,223316.250,4305.3040,N,07740.2040,W,1,07,1.45,163.4,M,-34.4,M,,*50
$GPRMC,223316.500,A,4305.3049,N,07740.2021,W,24.44,58.91,080925,,,A*72
$GPGGA,223316.750,4305.3058,N,07740.2001,W,1,07,1.45,163.3,M,-34.4,M,,*5E
$GPRMC,223317.000,A,4305.3067,N,07740.1981,W,24.43,59.08,080925,,,A*7C
$GPGGA,223317.250,4305.3076,N,07740.1961,W,1,07,1.45,163.2,M,-34.4,M,,*5B
$GPRMC,223317.500,A,4305.3086,N,07740.1942,W,24.45,58.05,080925,,,A*73
$GPGGA,223317.750,4305.3095,N,07740.1922,W,1,07,1.45,163.3,M,-34.4,M,,*55
$GPRMC,223318.000,A,4305.3104,N,07740.1902,W,24.78,59.54,080925,,,A*7D
$GPGGA,223318.250,4305.3113,N,07740.1881,W,1,07,1.45,163.3,M,-34.4,M,,*58
$GPRMC,223318.500,A,4305.3122,N,07740.1861,W,25.03,59.43,080925,,,A*73
$GPGGA,223318.750,4305.3130,N,07740.1840,W,1,07,1.45,163.1,M,-34.4,M,,*53
$GPRMC,223319.000,A,4305.3139,N,07740.1820,W,25.32,59.72,080925,,,A*78
$GPGGA,223319.250,4305.3148,N,07740.1799,W,1,07,1.45,163.2,M,-34.4,M,,*50
$GPRMC,223319.500,A,4305.3157,N,07740.1779,W,25.34,59.89,080925,,,A*74
$GPGGA,223319.750,4305.3166,N,07740.1758,W,1,07,1.45,163.2,M,-34.4,M,,*54
$GPRMC,223320.000,A,4305.3175,N,07740.1737,W,25.36,60.34,080925,,,A*7F
$GPGGA,223320.250,4305.3184,N,07740.1716,W,1,07,1.45,163.1,M,-34.4,M,,*5E
$GPRMC,223320.500,A,4305.3193,N,07740.1696,W,25.10,59.80,080925,,,A*79
$GPGGA,223320.750,4305.3201,N,07740.1675,W,1,07,1.45,163.1,M,-34.4,M,,*51
$GPRMC,223321.000,A,4305.3210,N,07740.1654,W,24.77,60.18,080925,,,A*70
$GPGGA,223321.250,4305.3218,N,07740.1634,W,1,07,1.45,163.1,M,-34.4,M,,*58
$GPRMC,223321.500,A,4305.3226,N,07740.1613,W,24.50,61.22,080925,,,A*7E
$GPGGA,223321.750,4305.3234,N,07740.1593,W,1,07,1.45,163.2,M,-34.4,M,,*5E
$GPRMC,223322.000,A,4305.3243,N,07740.1573,W,24.06,60.66,080925,,,A*7C
$GPGGA,223322.250,4305.3251,N,07740.1553,W,1,07,1.45,163.3,M,-34.4,M,,*56
$GPRMC,223322.500,A,4305.3259,N,07740.1533,W,23.77,60.93,080925,,,A*7D
$GPGGA,223322.750,4305.3267,N,07740.1514,W,1,07,1.45,163.3,M,-34.4,M,,*55
$GPRMC,223323.000,A,4305.3275,N,07740.1494,W,23.48,61.81,080925,,,A*75
$GPGGA,223323.250,4305.3283,N,07740.1474,W,1,07,1.45,163.4,M,-34.4,M,,*5B
$GPRMC,223323.500,A,4305.3290,N,07740.1455,W,23.10,62.45,080925,,,A*70
$GPGGA,223323.750,4305.3297,N,07740.1436,W,1,07,1.45,163.5,M,-34.4,M,,*5C
$GPRMC,223324.000,A,4305.3304,N,07740.1416,W,22.74,61.97,080925,,,A*76
$GPGGA,223324.250,4305.3312,N,07740.1397,W,1,07,1.45,163.5,M,-34.4,M,,*5E
$GPRMC,223324.500,A,4305.3319,N,07740.1378,W,22.35,62.14,080925,,,A*7D
$GPGGA,223324.750,4305.3326,N,07740.1359,W,1,07,1.45,163.5,M,-34.4,M,,*5E
$GPRMC,223325.000,A,4305.3332,N,07740.1340,W,21.99,63.06,080925,,,A*7C
$GPGGA,223325.250,4305.3339,N,07740.1321,W,1,07,1.45,163.5,M,-34.4,M,,*5B
$GPRMC,223325.500,A,4305.3345,N,07740.1302,W,21.74,64.88,080925,,,A*7D
$GPGGA,223325.750,4305.3351,N,07740.1283,W,1,07,1.45,163.5,M,-34.4,M,,*59
$GPRMC,223326.000,A,4305.3356,N,07740.1264,W,21.50,66.20,080925,,,A*7E
$GPGGA,223326.250,4305.3362,N,07740.1245,W,1,07,1.45,163.4,M,-34.4,M,,*54
$GPRMC,223326.500,A,4305.3367,N,07740.1226,W,21.43,68.18,080925,,,A*78
$GPGGA,223326.750,4305.3372,N,07740.1207,W,1,07,1.45,163.4,M,-34.4,M,,*56
$GPRMC,223327.000,A,4305.3377,N,07740.1187,W,21.28,70.77,080925,,,A*78
$GPGGA,223327.250,4305.3382,N,07740.1168,W,1,07,1.45,163.4,M,-34.4,M,,*57
$GPRMC,223327.500,A,4305.3386,N,07740.1149,W,21.25,71.76,080925,,,A*7C
$GPGGA,223327.750,4305.3391,N,07740.1130,W,1,07,1.45,163.3,M,-34.4,M,,*5A
$GPRMC,223328.000,A,4305.3396,N,07740.1110,W,21.19,71.91,080925,,,A*7D
$GPGGA,223328.250,4305.3400,N,07740.1091,W,1,07,1.45,163.3,M,-34.4,M,,*55
$GPRMC,223328.500,A,4305.3403,N,07740.1072,W,21.12,73.13,080925,,,A*75
$GPGGA,223328.750,4305.3407,N,07740.1052,W,1,07,1.45,163.3,M,-34.4,M,,*58
$GPRMC,223329.000,A,4305.3410,N,07740.1033,W,20.82,74.16,080925,,,A*7C
$GPGGA,223329.250,4305.3414,N,07740.1014,W,1,07,1.45,163.3,M,-34.4,M,,*5C
$GPRMC,223329.500,A,4305.3417,N,07740.0995,W,20.16,75.61,080925,,,A*76
$GPGGA,223329.750,4305.3418,N,07740.0977,W,1,07,1.45,163.3,M,-34.4,M,,*58
$GPRMC,223330.000,A,4305.3419,N,07740.0958,W,19.63,79.73,080925,,,A*73
$GPGGA,223330.250,4305.3418,N,07740.0939,W,1,07,1.45,163.3,M,-34.4,M,,*5F
$GPRMC,223330.500,A,4305.3418,N,07740.0921,W,18.80,84.28,080925,,,A*79
$GPGGA,223330.750,4305.3417,N,07740.0903,W,1,07,1.45,163.4,M,-34.4,M,,*5B
$GPRMC,223331.000,A,4305.3417,N,07740.0886,W,17.74,87.65,080925,,,A*70
$GPGGA,223331.250,4305.3416,N,07740.0870,W,1,07,1.45,163.4,M,-34.4,M,,*5B
$GPRMC,223331.500,A,4305.3416,N,07740.0855,W,16.23,90.85,080925,,,A*71
$GPGGA,223331.750,4305.3416,N,07740.0841,W,1,07,1.45,163.3,M,-34.4,M,,*5B
$GPRMC,223332.000,A,4305.3415,N,07740.0828,W,14.66,92.70,080925,,,A*75
$GPGGA,223332.250,4305.3414,N,07740.0815,W,1,07,1.45,163.3,M,-34.4,M,,*5E
$GPRMC,223332.500,A,4305.3413,N,07740.0803,W,12.95,95.49,080925,,,A*78
$GPGGA,223332.750,4305.3412,N,07740.0792,W,1,07,1.45,163.1,M,-34.4,M,,*5F
$GPRMC,223333.000,A,4305.3411,N,07740.0781,W,11.72,98.15,080925,,,A*75
$GPGGA,223333.250,4305.3409,N,07740.0771,W,1,07,1.45,163.0,M,-34.4,M,,*5D
$GPRMC,223333.500,A,4305.3408,N,07740.0762,W,10.56,100.19,080925,,,A*4E
$GPGGA,223333.750,4305.3408,N,07740.0753,W,1,07,1.45,162.9,M,-34.4,M,,*51
$GPRMC,223334.000,A,4305.3407,N,07740.0744,W,10.00,96.84,080925,,,A*7E
$GPGGA,223334.250,4305.3407,N,07740.0735,W,1,07,1.45,162.6,M,-34.4,M,,*53
$GPRMC,223334.500,A,4305.3406,N,07740.0725,W,10.31,94.32,080925,,,A*70
$GPGGA,223334.750,4305.3406,N,07740.0715,W,1,07,1.45,162.3,M,-34.4,M,,*50
$GPRMC,223335.000,A,4305.3407,N,07740.0706,W,10.56,90.42,080925,,,A*76
$GPGGA,223335.250,4305.3408,N,07740.0696,W,1,07,1.45,162.1,M,-34.4,M,,*52
$GPRMC,223335.500,A,4305.3410,N,07740.0687,W,10.75,85.55,080925,,,A*7E
$GPGGA,223335.750,4305.3414,N,07740.0679,W,1,07,1.45,161.8,M,-34.4,M,,*51
$GPRMC,223336.000,A,4305.3417,N,07740.0670,W,10.75,75.77,080925,,,A*78
$GPGGA,223336.250,4305.3421,N,07740.0661,W,1,07,1.45,161.6,M,-34.4,M,,*56
$GPRMC,223336.500,A,4305.3426,N,07740.0652,W,11.43,66.57,080925,,,A*7B
$GPGGA,223336.750,4305.3431,N,07740.0643,W,1,07,1.45,161.6,M,-34.4,M,,*52
$GPRMC,223337.000,A,4305.3435,N,07740.0634,W,11.68,61.97,080925,,,A*7F
$GPGGA,223337.250,4305.3441,N,07740.0626,W,1,07,1.45,161.5,M,-34.4,M,,*51
$GPRMC,223337.500,A,4305.3447,N,07740.0618,W,11.72,53.87,080925,,,A*7A
$GPGGA,223337.750,4305.3453,N,07740.0610,W,1,07,1.45,161.3,M,-34.4,M,,*54
$GPRMC,223338.000,A,4305.3458,N,07740.0601,W,11.81,50.58,080925,,,A*7B
$GPGGA,223338.250,4305.3464,N,07740.0594,W,1,07,1.45,161.0,M,-34.4,M,,*56
$GPRMC,223338.500,A,4305.3471,N,07740.0587,W,11.64,45.00,080925,,,A*7A
$GPGGA,223338.750,4305.3479,N,07740.0580,W,1,07,1.45,160.7,M,-34.4,M,,*5C
$GPRMC,223339.000,A,4305.3487,N,07740.0575,W,11.97,37.70,080925,,,A*74
$GPGGA,223339.250,4305.3495,N,07740.0570,W,1,07,1.45,160.6,M,-34.4,M,,*54
$GPRMC,223339.500,A,4305.3503,N,07740.0565,W,12.28,31.83,080925,,,A*70
$GPGGA,223339.750,4305.3512,N,07740.0560,W,1,07,1.45,160.4,M,-34.4,M,,*5C
$GPRMC,223340.000,A,4305.3521,N,07740.0555,W,12.79,28.88,080925,,,A*7F
$GPGGA,223340.250,4305.3530,N,07740.0551,W,1,07,1.46,160.3,M,-34.4,M,,*51
$GPRMC,223340.500,A,4305.3540,N,07740.0547,W,13.49,25.60,080925,,,A*77
$GPGGA,223340.750,4305.3549,N,07740.0542,W,1,07,1.45,160.2,M,-34.4,M,,*5A
$GPRMC,223341.000,A,4305.3559,N,07740.0537,W,14.17,24.49,080925,,,A*7A
$GPGGA,223341.250,4305.3569,N,07740.0532,W,1,07,1.45,160.1,M,-34.4,M,,*58
$GPRMC,223341.500,A,4305.3579,N,07740.0527,W,14.93,23.81,080925,,,A*73
$GPGGA,223341.750,4305.3590,N,07740.0522,W,1,07,1.46,160.0,M,-34.4,M,,*58
$GPRMC,223342.000,A,4305.3600,N,07740.0518,W,15.66,23.22,080925,,,A*76
$GPGGA,223342.250,4305.3612,N,07740.0513,W,1,07,1.45,159.9,M,-34.4,M,,*55
$GPRMC,223342.500,A,4305.3623,N,07740.0508,W,16.43,23.10,080925,,,A*76
$GPGGA,223342.750,4305.3634,N,07740.0503,W,1,07,1.45,159.9,M,-34.4,M,,*55
$GPRMC,223343.000,A,4305.3645,N,07740.0498,W,16.99,22.99,080925,,,A*7D
$GPGGA,223343.250,4305.3656,N,07740.0493,W,1,07,1.45,159.8,M,-34.4,M,,*5C
$GPRMC,223343.500,A,4305.3668,N,07740.0487,W,17.44,22.83,080925,,,A*73
$GPGGA,223343.750,4305.3679,N,07740.0481,W,1,07,1.45,159.7,M,-34.4,M,,*58
$GPRMC,223344.000,A,4305.3690,N,07740.0475,W,17.84,23.01,080925,,,A*7C
$GPGGA,223344.250,4305.3703,N,07740.0470,W,1,07,1.46,159.7,M,-34.4,M,,*5B
$GPRMC,223344.500,A,4305.3715,N,07740.0464,W,18.48,22.66,080925,,,A*7A
$GPGGA,223344.750,4305.3727,N,07740.0458,W,1,07,1.46,159.7,M,-34.4,M,,*52
$GPRMC,223345.000,A,4305.3739,N,07740.0452,W,18.96,22.69,080925,,,A*79
$GPGGA,223345.250,4305.3752,N,07740.0446,W,1,07,1.46,159.7,M,-34.4,M,,*5B
$GPRMC,223345.500,A,4305.3764,N,07740.0439,W,19.40,22.44,080925,,,A*7C
$GPGGA,223345.750,4305.3777,N,07740.0433,W,1,07,1.45,159.7,M,-34.4,M,,*58
$GPRMC,223346.000,A,4305.3790,N,07740.0426,W,19.86,21.62,080925,,,A*72
$GPGGA,223346.250,4305.3804,N,07740.0420,W,1,07,1.46,159.7,M,-34.4,M,,*54
$GPRMC,223346.500,A,4305.3817,N,07740.0413,W,20.39,21.26,080925,,,A*7F
$GPGGA,223346.750,4305.3831,N,07740.0407,W,1,07,1.45,159.6,M,-34.4,M,,*50
$GPRMC,223347.000,A,4305.3844,N,07740.0400,W,20.82,21.60,080925,,,A*7D
$GPGGA,223347.250,4305.3857,N,07740.0393,W,1,07,1.45,159.5,M,-34.4,M,,*5D
$GPRMC,223347.500,A,4305.3870,N,07740.0385,W,20.83,22.06,080925,,,A*77
$GPGGA,223347.750,4305.3884,N,07740.0378,W,1,07,1.46,159.5,M,-34.4,M,,*50
$GPRMC,223348.000,A,4305.3898,N,07740.0371,W,20.92,21.53,080925,,,A*73
$GPGGA,223348.250,4305.3912,N,07740.0365,W,1,07,1.46,159.5,M,-34.4,M,,*58
$GPRMC,223348.500,A,4305.3925,N,07740.0357,W,21.33,21.34,080925,,,A*7E
$GPGGA,223348.750,4305.3939,N,07740.0350,W,1,07,1.46,159.4,M,-34.4,M,,*53
$GPRMC,223349.000,A,4305.3954,N,07740.0343,W,21.61,21.00,080925,,,A*79
$GPGGA,223349.250,4305.3968,N,07740.0337,W,1,07,1.46,159.4,M,-34.4,M,,*52
$GPRMC,223349.500,A,4305.3982,N,07740.0329,W,22.05,20.86,080925,,,A*75
$GPGGA,223349.750,4305.3996,N,07740.0322,W,1,07,1.46,159.3,M,-34.4,M,,*55
$GPRMC,223350.000,A,4305.4011,N,07740.0314,W,22.16,20.77,080925,,,A*7E
$GPGGA,223350.250,4305.4025,N,07740.0306,W,1,07,1.46,159.3,M,-34.4,M,,*58
$GPRMC,223350.500,A,4305.4039,N,07740.0298,W,22.38,21.38,080925,,,A*72
$GPGGA,223350.750,4305.4053,N,07740.0290,W,1,07,1.46,159.3,M,-34.4,M,,*52
$GPRMC,223351.000,A,4305.4067,N,07740.0282,W,22.44,22.00,080925,,,A*75
$GPGGA,223351.250,4305.4080,N,07740.0273,W,1,07,1.46,159.3,M,-34.4,M,,*55
$GPRMC,223351.500,A,4305.4095,N,07740.0265,W,22.45,22.91,080925,,,A*7D
$GPGGA,223351.750,4305.4109,N,07740.0257,W,1,07,1.46,159.4,M,-34.4,M,,*51
$GPRMC,223352.000,A,4305.4123,N,07740.0249,W,22.49,23.07,080925,,,A*7B
$GPGGA,223352.250,4305.4138,N,07740.0241,W,1,07,1.46,159.4,M,-34.4,M,,*52
$GPRMC,223352.500,A,4305.4152,N,07740.0233,W,22.52,22.80,080925,,,A*71
$GPGGA,223352.750,4305.4166,N,07740.0225,W,1,07,1.46,159.5,M,-34.4,M,,*5F
$GPRMC,223353.000,A,4305.4181,N,07740.0217,W,22.49,23.03,080925,,,A*7D
$GPGGA,223353.250,4305.4195,N,07740.0209,W,1,07,1.46,159.5,M,-34.4,M,,*59
$GPRMC,223353.500,A,4305.4210,N,07740.0201,W,22.50,22.77,080925,,,A*7E
