Vers 72
USE_SERIAL_FEEDBACK=true
DEVELOPMENT_MODE=false
USE_RMC_ONLY=false

$GPRMC,211005.250,A,4305.1469,N,07740.8367,W,0.31,59.17,060525,,,A*46
$GPGGA,211005.500,4305.1469,N,07740.8368,W,1,05,2.44,201.9,M,-34.4,M,,*56
$GPRMC,211005.750,A,4305.1469,N,07740.8368,W,0.25,42.81,060525,,,A*4C
$GPGGA,211006.000,4305.1470,N,07740.8369,W,1,05,2.44,200.7,M,-34.4,M,,*56
$GPGGA,211010.250,4305.1471,N,07740.8382,W,1,05,2.44,193.7,M,-34.4,M,,*5B
$GPRMC,211010.250,A,4305.1471,N,07740.8382,W,0.03,29.59,060525,,,A*4C
$GPGGA,211010.500,4305.1471,N,07740.8383,W,1,05,2.44,193.4,M,-34.4,M,,*5B
$GPRMC,211010.500,A,4305.1471,N,07740.8383,W,0.05,58.45,060525,,,A*42
$GPGGA,211014.250,4305.1468,N,07740.8396,W,1,05,2.44,187.3,M,-34.4,M,,*53
$GPRMC,211014.250,A,4305.1468,N,07740.8396,W,0.01,108.33,060525,,,A*79
$GPGGA,211014.500,4305.1468,N,07740.8396,W,1,05,2.44,187.0,M,-34.4,M,,*52
$GPRMC,211014.500,A,4305.1468,N,07740.8396,W,0.02,4.36,060525,,,A*70
$GPGGA,211032.000,4305.1472,N,07740.8385,W,1,06,1.35,190.8,M,-34.4,M,,*52
$GPRMC,211032.000,A,4305.1472,N,07740.8385,W,0.19,52.05,060525,,,A*41
$GPGGA,211032.250,4305.1473,N,07740.8385,W,1,06,1.35,191.0,M,-34.4,M,,*5D
$GPRMC,211032.250,A,4305.1473,N,07740.8385,W,0.23,47.49,060525,,,A*42
$GPGGA,211144.500,4305.1462,N,07740.8386,W,1,07,1.38,191.6,M,-34.4,M,,*56
$GPRMC,211145.000,A,4305.1462,N,07740.8383,W,0.01,108.43,060525,,,A*72
$GPGGA,211145.250,4305.1462,N,07740.8383,W,1,07,1.38,191.8,M,-34.4,M,,*5E
$GPGGA,211431.250,4305.1453,N,07740.8397,W,1,07,1.25,192.4,M,-34.4,M,,*5C
$GPRMC,211431.250,A,4305.1453,N,07740.8397,W,1.35,276.71,060525,,,A*79
$GPGGA,211431.500,4305.1454,N,07740.8400,W,1,07,1.25,192.4,M,-34.4,M,,*50
$GPRMC,211431.500,A,4305.1454,N,07740.8400,W,1.48,277.93,060525,,,A*72
$GPGGA,211432.500,4305.1457,N,07740.8411,W,1,07,1.25,192.5,M,-34.4,M,,*51
$GPRMC,211432.500,A,4305.1457,N,07740.8411,W,2.73,297.76,060525,,,A*7C
$GPGGA,211432.750,4305.1458,N,07740.8415,W,1,07,1.25,192.5,M,-34.4,M,,*5D
$GPRMC,211432.750,A,4305.1458,N,07740.8415,W,3.09,299.33,060525,,,A*73
$GPGGA,211433.000,4305.1459,N,07740.8419,W,1,07,1.25,192.5,M,-34.4,M,,*53
$GPRMC,211433.000,A,4305.1459,N,07740.8419,W,3.61,299.07,060525,,,A*74
$GPGGA,211433.250,4305.1461,N,07740.8423,W,1,07,1.25,192.5,M,-34.4,M,,*56
$GPRMC,211433.250,A,4305.1461,N,07740.8423,W,4.00,301.25,060525,,,A*71
$GPGGA,211433.500,4305.1463,N,07740.8429,W,1,07,1.39,192.6,M,-34.4,M,,*52
$GPRMC,211434.000,A,4305.1467,N,07740.8441,W,5.17,299.27,060525,,,A*76
$GPGGA,211434.250,4305.1469,N,07740.8446,W,1,07,1.39,192.9,M,-34.4,M,,*5B
$GPRMC,211434.500,A,4305.1470,N,07740.8452,W,5.33,298.18,060525,,,A*7C
$GPGGA,211434.750,4305.1471,N,07740.8458,W,1,07,1.39,193.1,M,-34.4,M,,*51
$GPRMC,211435.000,A,4305.1473,N,07740.8464,W,5.77,291.95,060525,,,A*72
$GPGGA,211435.250,4305.1475,N,07740.8470,W,1,07,1.39,193.1,M,-34.4,M,,*5B
$GPRMC,211435.500,A,4305.1476,N,07740.8477,W,6.43,289.80,060525,,,A*79
$GPGGA,211435.750,4305.1477,N,07740.8484,W,1,07,1.39,193.2,M,-34.4,M,,*54
$GPRMC,211436.000,A,4305.1479,N,07740.8491,W,6.87,284.89,060525,,,A*74
$GPGGA,211436.250,4305.1480,N,07740.8498,W,1,07,1.39,193.2,M,-34.4,M,,*57
$GPRMC,211436.500,A,4305.1482,N,07740.8506,W,7.33,284.31,060525,,,A*77
$GPGGA,211436.750,4305.1483,N,07740.8514,W,1,07,1.39,193.3,M,-34.4,M,,*55
$GPRMC,211437.000,A,4305.1484,N,07740.8521,W,7.48,284.18,060525,,,A*77
$GPGGA,211437.250,4305.1485,N,07740.8530,W,1,07,1.39,193.2,M,-34.4,M,,*50
$GPRMC,211437.500,A,4305.1486,N,07740.8538,W,8.23,280.26,060525,,,A*73
$GPGGA,211437.750,4305.1485,N,07740.8547,W,1,07,1.39,193.2,M,-34.4,M,,*55
$GPRMC,211438.000,A,4305.1485,N,07740.8556,W,8.74,272.23,060525,,,A*78
$GPGGA,211438.250,4305.1485,N,07740.8565,W,1,07,1.39,193.1,M,-34.4,M,,*5C
$GPRMC,211438.500,A,4305.1484,N,07740.8574,W,8.64,268.78,060525,,,A*78
$GPGGA,211438.750,4305.1484,N,07740.8583,W,1,07,1.39,193.0,M,-34.4,M,,*51
$GPRMC,211439.000,A,4305.1483,N,07740.8592,W,8.91,268.67,060525,,,A*77
$GPGGA,211439.250,4305.1483,N,07740.8602,W,1,07,1.39,192.9,M,-34.4,M,,*50
$GPRMC,211439.500,A,4305.1483,N,07740.8612,W,9.42,266.87,060525,,,A*76
$GPGGA,211439.750,4305.1482,N,07740.8622,W,1,07,1.39,192.8,M,-34.4,M,,*57
$GPRMC,211440.000,A,4305.1482,N,07740.8632,W,9.59,265.73,060525,,,A*7C
$GPGGA,211440.250,4305.1481,N,07740.8641,W,1,07,1.39,192.8,M,-34.4,M,,*5A
$GPRMC,211440.500,A,4305.1481,N,07740.8650,W,8.84,263.59,060525,,,A*71
$GPGGA,211440.750,4305.1480,N,07740.8658,W,1,07,1.39,192.8,M,-34.4,M,,*56
$GPRMC,211441.000,A,4305.1480,N,07740.8667,W,8.49,263.90,060525,,,A*74
$GPGGA,211441.250,4305.1479,N,07740.8676,W,1,07,1.39,192.8,M,-34.4,M,,*58
$GPRMC,211441.500,A,4305.1478,N,07740.8685,W,8.82,262.34,060525,,,A*72
$GPGGA,211441.750,4305.1477,N,07740.8694,W,1,07,1.39,192.7,M,-34.4,M,,*50
$GPRMC,211442.000,A,4305.1477,N,07740.8703,W,8.27,265.81,060525,,,A*72
$GPGGA,211442.250,4305.1477,N,07740.8711,W,1,07,1.39,192.7,M,-34.4,M,,*5A
$GPRMC,211442.500,A,4305.1477,N,07740.8719,W,7.91,268.27,060525,,,A*7F
$GPGGA,211442.750,4305.1478,N,07740.8728,W,1,07,1.39,192.5,M,-34.4,M,,*58
$GPRMC,211443.000,A,4305.1478,N,07740.8736,W,7.95,273.75,060525,,,A*70
$GPGGA,211443.250,4305.1479,N,07740.8744,W,1,07,1.39,192.3,M,-34.4,M,,*51
$GPRMC,211443.500,A,4305.1481,N,07740.8752,W,7.95,281.99,060525,,,A*7E
$GPGGA,211443.750,4305.1484,N,07740.8759,W,1,07,1.39,192.5,M,-34.4,M,,*5C
$GPRMC,211444.000,A,4305.1487,N,07740.8767,W,7.51,291.53,060525,,,A*73
$GPGGA,211444.250,4305.1490,N,07740.8774,W,1,07,1.25,192.7,M,-34.4,M,,*5B
$GPRMC,211444.500,A,4305.1494,N,07740.8781,W,7.35,302.93,060525,,,A*79
$GPGGA,211444.750,4305.1498,N,07740.8786,W,1,07,1.39,192.7,M,-34.4,M,,*56
$GPRMC,211445.000,A,4305.1503,N,07740.8791,W,7.28,318.33,060525,,,A*7E
$GPGGA,211445.250,4305.1508,N,07740.8795,W,1,07,1.39,192.7,M,-34.4,M,,*58
$GPRMC,211445.500,A,4305.1513,N,07740.8799,W,7.37,330.07,060525,,,A*71
$GPGGA,211445.750,4305.1519,N,07740.8802,W,1,07,1.39,192.7,M,-34.4,M,,*5C
$GPRMC,211446.000,A,4305.1525,N,07740.8805,W,7.73,340.04,060525,,,A*7C
$GPGGA,211446.250,4305.1531,N,07740.8808,W,1,07,1.39,192.9,M,-34.4,M,,*54
$GPRMC,211446.500,A,4305.1537,N,07740.8810,W,8.37,343.60,060525,,,A*70
$GPGGA,211446.750,4305.1543,N,07740.8813,W,1,07,1.39,192.4,M,-34.4,M,,*53
$GPRMC,211447.000,A,4305.1550,N,07740.8815,W,8.86,351.04,060525,,,A*7B
$GPGGA,211447.250,4305.1556,N,07740.8817,W,1,07,1.39,191.8,M,-34.4,M,,*58
$GPRMC,211447.500,A,4305.1564,N,07740.8818,W,9.29,356.27,060525,,,A*76
$GPGGA,211447.750,4305.1572,N,07740.8818,W,1,07,1.40,191.6,M,-34.4,M,,*54
$GPRMC,211448.000,A,4305.1581,N,07740.8819,W,10.78,358.21,060525,,,A*42
$GPGGA,211448.250,4305.1590,N,07740.8819,W,1,07,1.39,191.3,M,-34.4,M,,*58
$GPRMC,211448.500,A,4305.1600,N,07740.8820,W,12.03,358.64,060525,,,A*48
$GPGGA,211448.750,4305.1611,N,07740.8820,W,1,07,1.39,190.8,M,-34.4,M,,*57
$GPRMC,211449.000,A,4305.1623,N,07740.8820,W,14.06,0.72,060525,,,A*47
$GPGGA,211449.250,4305.1634,N,07740.8820,W,1,07,1.39,190.3,M,-34.4,M,,*5F
$GPRMC,211449.500,A,4305.1646,N,07740.8820,W,15.07,0.62,060525,,,A*40
$GPGGA,211449.750,4305.1657,N,07740.8820,W,1,07,1.39,189.7,M,-34.4,M,,*53
$GPRMC,211450.000,A,4305.1669,N,07740.8820,W,15.79,1.47,060525,,,A*4F
$GPGGA,211450.250,4305.1681,N,07740.8820,W,1,07,1.39,189.2,M,-34.4,M,,*50
$GPRMC,211450.500,A,4305.1693,N,07740.8820,W,16.02,1.62,060525,,,A*47
$GPGGA,211450.750,4305.1706,N,07740.8820,W,1,07,1.39,188.6,M,-34.4,M,,*5E
$GPRMC,211451.000,A,4305.1718,N,07740.8820,W,16.22,1.49,060525,,,A*4A
$GPGGA,211451.250,4305.1730,N,07740.8820,W,1,07,1.39,188.0,M,-34.4,M,,*59
$GPRMC,211451.500,A,4305.1743,N,07740.8820,W,16.22,0.82,060525,,,A*47
$GPGGA,211451.750,4305.1755,N,07740.8820,W,1,07,1.39,187.3,M,-34.4,M,,*53
$GPRMC,211452.000,A,4305.1767,N,07740.8821,W,16.24,359.98,060525,,,A*44
$GPGGA,211452.250,4305.1778,N,07740.8821,W,1,07,1.39,186.6,M,-34.4,M,,*5F
$GPRMC,211452.500,A,4305.1790,N,07740.8822,W,16.23,359.30,060525,,,A*4F
$GPGGA,211452.750,4305.1802,N,07740.8823,W,1,07,1.39,185.9,M,-34.4,M,,*56
$GPRMC,211453.000,A,4305.1814,N,07740.8824,W,16.22,358.73,060525,,,A*49
$GPGGA,211453.250,4305.1825,N,07740.8825,W,1,07,1.39,185.2,M,-34.4,M,,*5A
$GPRMC,211453.500,A,4305.1837,N,07740.8826,W,16.26,358.05,060525,,,A*4A
$GPGGA,211453.750,4305.1849,N,07740.8827,W,1,07,1.39,184.4,M,-34.4,M,,*50
$GPRMC,211454.000,A,4305.1860,N,07740.8828,W,16.05,357.62,060525,,,A*4B
$GPGGA,211454.250,4305.1872,N,07740.8829,W,1,07,1.39,183.7,M,-34.4,M,,*50
$GPRMC,211454.500,A,4305.1884,N,07740.8830,W,16.06,357.99,060525,,,A*4A
$GPGGA,211454.750,4305.1896,N,07740.8831,W,1,07,1.39,183.0,M,-34.4,M,,*51
$GPRMC,211455.000,A,4305.1908,N,07740.8832,W,16.11,358.80,060525,,,A*48
$GPGGA,211455.250,4305.1920,N,07740.8833,W,1,07,1.39,182.1,M,-34.4,M,,*5B
$GPRMC,211455.500,A,4305.1932,N,07740.8833,W,16.17,358.64,060525,,,A*49
$GPGGA,211455.750,4305.1944,N,07740.8834,W,1,07,1.39,181.2,M,-34.4,M,,*5B
$GPRMC,211456.000,A,4305.1955,N,07740.8835,W,16.22,358.88,060525,,,A*4C
$GPGGA,211456.250,4305.1967,N,07740.8835,W,1,07,1.39,180.4,M,-34.4,M,,*5A
$GPRMC,211456.500,A,4305.1979,N,07740.8836,W,16.28,359.26,060525,,,A*4B
$GPGGA,211456.750,4305.1991,N,07740.8836,W,1,07,1.39,179.7,M,-34.4,M,,*50
$GPRMC,211457.000,A,4305.2003,N,07740.8837,W,16.32,359.50,060525,,,A*43
$GPGGA,211457.250,4305.2015,N,07740.8837,W,1,07,1.39,178.9,M,-34.4,M,,*5C
$GPRMC,211457.500,A,4305.2026,N,07740.8838,W,16.17,359.52,060525,,,A*4B
$GPGGA,211457.750,4305.2038,N,07740.8838,W,1,07,1.40,178.1,M,-34.4,M,,*5F
$GPRMC,211458.000,A,4305.2049,N,07740.8839,W,16.08,358.76,060525,,,A*40
$GPGGA,211458.250,4305.2061,N,07740.8840,W,1,07,1.39,177.3,M,-34.4,M,,*55
$GPRMC,211458.500,A,4305.2073,N,07740.8841,W,16.12,358.02,060525,,,A*4B
$GPGGA,211458.750,4305.2085,N,07740.8841,W,1,07,1.39,176.7,M,-34.4,M,,*5E
$GPRMC,211459.000,A,4305.2096,N,07740.8842,W,16.12,357.40,060525,,,A*4E
$GPGGA,211459.250,4305.2108,N,07740.8843,W,1,07,1.39,176.0,M,-34.4,M,,*5B
$GPRMC,211459.500,A,4305.2121,N,07740.8844,W,16.14,356.38,060525,,,A*48
$GPGGA,211459.750,4305.2133,N,07740.8845,W,1,07,1.39,175.4,M,-34.4,M,,*57
$GPRMC,211500.000,A,4305.2145,N,07740.8846,W,16.16,355.55,060525,,,A*4A
$GPGGA,211500.250,4305.2157,N,07740.8848,W,1,07,1.39,174.9,M,-34.4,M,,*5C
$GPRMC,211500.500,A,4305.2170,N,07740.8849,W,16.36,354.54,060525,,,A*44
$GPGGA,211500.750,4305.2183,N,07740.8851,W,1,07,1.39,174.5,M,-34.4,M,,*54
$GPRMC,211501.000,A,4305.2196,N,07740.8853,W,16.57,353.90,060525,,,A*4B
$GPGGA,211501.250,4305.2210,N,07740.8856,W,1,07,1.39,174.2,M,-34.4,M,,*59
$GPRMC,211501.500,A,4305.2223,N,07740.8858,W,16.64,353.36,060525,,,A*44
$GPGGA,211501.750,4305.2236,N,07740.8861,W,1,07,1.39,173.8,M,-34.4,M,,*51
$GPRMC,211502.000,A,4305.2248,N,07740.8864,W,16.62,351.25,060525,,,A*46
$GPGGA,211502.250,4305.2260,N,07740.8867,W,1,07,1.40,173.3,M,-34.4,M,,*57
$GPRMC,211502.500,A,4305.2273,N,07740.8870,W,16.60,350.66,060525,,,A*4A
$GPGGA,211502.750,4305.2285,N,07740.8873,W,1,07,1.39,172.9,M,-34.4,M,,*59
$GPRMC,211503.000,A,4305.2296,N,07740.8877,W,16.51,349.55,060525,,,A*48
$GPGGA,211503.250,4305.2308,N,07740.8879,W,1,07,1.39,172.4,M,-34.4,M,,*5E
$GPRMC,211503.500,A,4305.2319,N,07740.8882,W,16.16,350.03,060525,,,A*49
$GPGGA,211503.750,4305.2329,N,07740.8885,W,1,07,1.39,171.8,M,-34.4,M,,*54
$GPRMC,211504.000,A,4305.2339,N,07740.8888,W,14.99,351.27,060525,,,A*41
$GPGGA,211504.250,4305.2349,N,07740.8890,W,1,07,1.39,171.3,M,-34.4,M,,*5F
$GPRMC,211504.500,A,4305.2358,N,07740.8891,W,13.73,353.97,060525,,,A*41
$GPGGA,211504.750,4305.2367,N,07740.8892,W,1,07,1.39,170.8,M,-34.4,M,,*5E
$GPRMC,211505.000,A,4305.2375,N,07740.8893,W,12.47,357.91,060525,,,A*4C
$GPGGA,211505.250,4305.2382,N,07740.8894,W,1,07,1.39,170.3,M,-34.4,M,,*5C
$GPRMC,211505.500,A,4305.2389,N,07740.8894,W,11.36,0.34,060525,,,A*46
$GPGGA,211505.750,4305.2394,N,07740.8893,W,1,07,1.40,169.7,M,-34.4,M,,*5B
$GPRMC,211506.000,A,4305.2399,N,07740.8893,W,9.54,7.31,060525,,,A*79
$GPGGA,211506.250,4305.2403,N,07740.8893,W,1,07,1.39,169.1,M,-34.4,M,,*5C
$GPRMC,211506.500,A,4305.2407,N,07740.8892,W,8.05,12.85,060525,,,A*43
$GPGGA,211506.750,4305.2411,N,07740.8891,W,1,07,1.40,168.6,M,-34.4,M,,*50
$GPRMC,211507.000,A,4305.2415,N,07740.8891,W,7.08,17.77,060525,,,A*4D
$GPGGA,211507.250,4305.2420,N,07740.8890,W,1,07,1.25,169.2,M,-34.4,M,,*51
$GPRMC,211507.500,A,4305.2424,N,07740.8889,W,6.48,20.68,060525,,,A*4C
$GPGGA,211507.750,4305.2426,N,07740.8888,W,1,07,1.25,168.8,M,-34.4,M,,*50
$GPRMC,211508.000,A,4305.2428,N,07740.8888,W,5.37,24.38,060525,,,A*41
$GPGGA,211508.250,4305.2431,N,07740.8887,W,1,07,1.25,169.2,M,-34.4,M,,*58
$GPRMC,211508.500,A,4305.2434,N,07740.8885,W,5.12,30.48,060525,,,A*41
$GPGGA,211508.750,4305.2438,N,07740.8882,W,1,07,1.25,168.9,M,-34.4,M,,*5B
$GPRMC,211509.000,A,4305.2443,N,07740.8878,W,6.12,37.31,060525,,,A*4D
$GPGGA,211509.250,4305.2447,N,07740.8874,W,1,07,1.25,168.9,M,-34.4,M,,*5E
$GPRMC,211509.500,A,4305.2451,N,07740.8869,W,7.16,39.11,060525,,,A*42
$GPGGA,211509.750,4305.2455,N,07740.8864,W,1,07,1.39,168.7,M,-34.4,M,,*5A
$GPRMC,211510.000,A,4305.2460,N,07740.8859,W,7.95,46.86,060525,,,A*43
$GPGGA,211510.250,4305.2464,N,07740.8852,W,1,07,1.25,168.4,M,-34.4,M,,*5E
$GPRMC,211510.500,A,4305.2467,N,07740.8845,W,8.90,52.28,060525,,,A*47
$GPGGA,211510.750,4305.2470,N,07740.8838,W,1,07,1.25,168.1,M,-34.4,M,,*57
$GPRMC,211511.000,A,4305.2474,N,07740.8829,W,9.90,56.56,060525,,,A*47
$GPGGA,211511.250,4305.2478,N,07740.8819,W,1,07,1.25,167.8,M,-34.4,M,,*5E
$GPRMC,211511.500,A,4305.2482,N,07740.8809,W,11.24,63.43,060525,,,A*7D
$GPGGA,211511.750,4305.2485,N,07740.8798,W,1,07,1.40,167.5,M,-34.4,M,,*51
$GPRMC,211512.000,A,4305.2490,N,07740.8786,W,12.59,66.11,060525,,,A*7B
$GPGGA,211512.250,4305.2494,N,07740.8774,W,1,07,1.25,167.3,M,-34.4,M,,*50
$GPRMC,211512.500,A,4305.2498,N,07740.8760,W,13.94,67.38,060525,,,A*74
$GPGGA,211512.750,4305.2501,N,07740.8746,W,1,07,1.25,167.0,M,-34.4,M,,*5A
$GPRMC,211513.000,A,4305.2504,N,07740.8732,W,15.30,69.81,060525,,,A*77
$GPGGA,211513.250,4305.2507,N,07740.8717,W,1,07,1.25,166.7,M,-34.4,M,,*5A
$GPRMC,211513.500,A,4305.2511,N,07740.8701,W,16.47,70.09,060525,,,A*7D
$GPGGA,211513.750,4305.2515,N,07740.8686,W,1,07,1.25,166.5,M,-34.4,M,,*57
$GPRMC,211514.000,A,4305.2519,N,07740.8669,W,17.60,70.56,060525,,,A*76
$GPGGA,211514.250,4305.2522,N,07740.8653,W,1,07,1.25,166.2,M,-34.4,M,,*5E
$GPRMC,211514.500,A,4305.2526,N,07740.8636,W,18.45,70.91,060525,,,A*76
$GPGGA,211514.750,4305.2530,N,07740.8618,W,1,07,1.25,165.9,M,-34.4,M,,*5F
$GPRMC,211515.000,A,4305.2534,N,07740.8600,W,19.66,71.00,060525,,,A*7D
$GPGGA,211515.250,4305.2537,N,07740.8582,W,1,07,1.25,165.7,M,-34.4,M,,*52
$GPRMC,211515.500,A,4305.2541,N,07740.8563,W,20.45,71.62,060525,,,A*73
$GPGGA,211515.750,4305.2544,N,07740.8544,W,1,07,1.25,165.5,M,-34.4,M,,*5B
$GPRMC,211516.000,A,4305.2547,N,07740.8524,W,21.19,73.17,060525,,,A*78
$GPGGA,211516.250,4305.2549,N,07740.8501,W,1,07,1.25,165.4,M,-34.4,M,,*50
$GPRMC,211516.500,A,4305.2551,N,07740.8479,W,21.44,76.17,060525,,,A*7E
$GPGGA,211516.750,4305.2552,N,07740.8456,W,1,07,1.40,165.3,M,-34.4,M,,*58
$GPRMC,211517.000,A,4305.2553,N,07740.8435,W,21.27,79.41,060525,,,A*79
$GPGGA,211517.250,4305.2555,N,07740.8414,W,1,07,1.25,165.2,M,-34.4,M,,*5F
$GPRMC,211517.500,A,4305.2555,N,07740.8393,W,20.84,81.84,060525,,,A*77
$GPGGA,211517.750,4305.2556,N,07740.8373,W,1,07,1.40,165.0,M,-34.4,M,,*5E
$GPRMC,211518.000,A,4305.2556,N,07740.8353,W,20.44,83.60,060525,,,A*76
$GPGGA,211518.250,4305.2556,N,07740.8335,W,1,07,1.25,164.9,M,-34.4,M,,*5D
$GPRMC,211518.500,A,4305.2555,N,07740.8317,W,20.16,85.28,060525,,,A*7D
$GPGGA,211518.750,4305.2556,N,07740.8298,W,1,07,1.39,164.9,M,-34.4,M,,*53
$GPRMC,211519.000,A,4305.2556,N,07740.8279,W,20.34,84.61,060525,,,A*7F
$GPGGA,211519.250,4305.2557,N,07740.8260,W,1,07,1.25,164.8,M,-34.4,M,,*5D
$GPRMC,211519.500,A,4305.2558,N,07740.8240,W,20.66,84.13,060525,,,A*7C
$GPGGA,211519.750,4305.2559,N,07740.8220,W,1,07,1.40,164.7,M,-34.4,M,,*5E
$GPRMC,211520.000,A,4305.2561,N,07740.8200,W,20.88,84.49,060525,,,A*72
$GPGGA,211520.250,4305.2562,N,07740.8180,W,1,07,1.40,164.5,M,-34.4,M,,*52
$GPRMC,211520.500,A,4305.2563,N,07740.8159,W,20.97,85.16,060525,,,A*7F
$GPGGA,211520.750,4305.2564,N,07740.8139,W,1,07,1.40,164.4,M,-34.4,M,,*52
$GPRMC,211521.000,A,4305.2565,N,07740.8119,W,20.93,85.88,060525,,,A*7A
$GPGGA,211521.250,4305.2566,N,07740.8099,W,1,07,1.25,164.2,M,-34.4,M,,*5A
$GPRMC,211521.500,A,4305.2567,N,07740.8079,W,20.41,86.65,060525,,,A*75
$GPGGA,211521.750,4305.2567,N,07740.8060,W,1,07,1.40,164.1,M,-34.4,M,,*58
$GPRMC,211522.000,A,4305.2568,N,07740.8041,W,19.86,87.77,060525,,,A*74
$GPGGA,211522.250,4305.2569,N,07740.8022,W,1,07,1.40,163.9,M,-34.4,M,,*59
$GPRMC,211522.500,A,4305.2569,N,07740.8003,W,19.37,88.97,060525,,,A*7D
$GPGGA,211522.750,4305.2569,N,07740.7984,W,1,07,1.40,163.7,M,-34.4,M,,*58
$GPRMC,211523.000,A,4305.2569,N,07740.7966,W,19.13,90.50,060525,,,A*78
$GPGGA,211523.250,4305.2569,N,07740.7947,W,1,07,1.39,163.5,M,-34.4,M,,*5F
$GPRMC,211523.500,A,4305.2569,N,07740.7928,W,18.85,91.32,060525,,,A*7C
$GPGGA,211523.750,4305.2568,N,07740.7910,W,1,07,1.40,163.3,M,-34.4,M,,*51
$GPRMC,211524.000,A,4305.2568,N,07740.7893,W,18.26,92.34,060525,,,A*72
$GPGGA,211524.250,4305.2568,N,07740.7875,W,1,07,1.25,163.0,M,-34.4,M,,*51
$GPRMC,211524.500,A,4305.2568,N,07740.7858,W,17.63,91.99,060525,,,A*7A
$GPGGA,211524.750,4305.2568,N,07740.7842,W,1,07,1.40,162.7,M,-34.4,M,,*55
$GPRMC,211525.000,A,4305.2568,N,07740.7826,W,16.49,91.77,060525,,,A*7E
$GPGGA,211525.250,4305.2568,N,07740.7811,W,1,07,1.25,162.4,M,-34.4,M,,*57
$GPRMC,211525.500,A,4305.2569,N,07740.7796,W,15.14,91.77,060525,,,A*75
$GPGGA,211525.750,4305.2569,N,07740.7783,W,1,07,1.40,162.1,M,-34.4,M,,*51
$GPRMC,211526.000,A,4305.2569,N,07740.7769,W,13.55,92.38,060525,,,A*78
$GPGGA,211526.250,4305.2569,N,07740.7757,W,1,07,1.25,161.8,M,-34.4,M,,*57
$GPRMC,211526.500,A,4305.2568,N,07740.7745,W,12.42,94.62,060525,,,A*7C
$GPGGA,211526.750,4305.2567,N,07740.7733,W,1,07,1.40,161.6,M,-34.4,M,,*53
$GPRMC,211527.000,A,4305.2567,N,07740.7722,W,11.48,97.75,060525,,,A*7A
$GPGGA,211527.250,4305.2566,N,07740.7711,W,1,07,1.25,161.3,M,-34.4,M,,*50
$GPRMC,211527.500,A,4305.2565,N,07740.7702,W,10.35,99.66,060525,,,A*78
$GPGGA,211527.750,4305.2564,N,07740.7693,W,1,07,1.40,160.9,M,-34.4,M,,*54
$GPRMC,211528.000,A,4305.2563,N,07740.7684,W,9.28,101.61,060525,,,A*78
$GPGGA,211528.250,4305.2562,N,07740.7675,W,1,07,1.25,160.6,M,-34.4,M,,*5C
$GPRMC,211528.500,A,4305.2561,N,07740.7666,W,9.03,102.28,060525,,,A*74
$GPGGA,211528.750,4305.2560,N,07740.7657,W,1,07,1.40,160.2,M,-34.4,M,,*5C
$GPRMC,211529.000,A,4305.2559,N,07740.7648,W,8.79,100.57,060525,,,A*71
$GPGGA,211529.250,4305.2558,N,07740.7639,W,1,07,1.25,159.9,M,-34.4,M,,*59
$GPRMC,211529.500,A,4305.2557,N,07740.7630,W,9.22,99.00,060525,,,A*49
$GPGGA,211529.750,4305.2557,N,07740.7620,W,1,07,1.40,160.0,M,-34.4,M,,*5B
$GPRMC,211530.000,A,4305.2557,N,07740.7610,W,10.12,95.24,060525,,,A*77
$GPGGA,211530.250,4305.2557,N,07740.7599,W,1,07,1.25,159.7,M,-34.4,M,,*59
$GPRMC,211530.500,A,4305.2557,N,07740.7587,W,11.04,92.03,060525,,,A*7B
$GPGGA,211530.750,4305.2558,N,07740.7575,W,1,07,1.40,159.4,M,-34.4,M,,*51
$GPRMC,211531.000,A,4305.2558,N,07740.7563,W,12.17,90.46,060525,,,A*78
$GPGGA,211531.250,4305.2558,N,07740.7550,W,1,07,1.25,159.1,M,-34.4,M,,*54
$GPRMC,211531.500,A,4305.2558,N,07740.7536,W,13.01,90.25,060525,,,A*7E
$GPGGA,211531.750,4305.2559,N,07740.7523,W,1,07,1.40,158.9,M,-34.4,M,,*5E
$GPRMC,211532.000,A,4305.2559,N,07740.7508,W,13.83,89.78,060525,,,A*7E
$GPGGA,211532.250,4305.2559,N,07740.7494,W,1,07,1.25,158.6,M,-34.4,M,,*59
$GPRMC,211532.500,A,4305.2560,N,07740.7479,W,14.48,89.92,060525,,,A*72
$GPGGA,211532.750,4305.2560,N,07740.7463,W,1,07,1.40,158.4,M,-34.4,M,,*5F
$GPRMC,211533.000,A,4305.2561,N,07740.7448,W,15.48,89.18,060525,,,A*76
$GPGGA,211533.250,4305.2561,N,07740.7432,W,1,07,1.25,158.2,M,-34.4,M,,*5B
$GPRMC,211533.500,A,4305.2562,N,07740.7415,W,16.24,88.57,060525,,,A*7B
$GPGGA,211533.750,4305.2564,N,07740.7397,W,1,07,1.40,158.0,M,-34.4,M,,*52
$GPRMC,211534.000,A,4305.2565,N,07740.7379,W,17.04,88.02,060525,,,A*70
$GPGGA,211534.250,4305.2566,N,07740.7360,W,1,07,1.40,157.8,M,-34.4,M,,*5D
$GPRMC,211534.500,A,4305.2567,N,07740.7342,W,17.55,88.57,060525,,,A*7B
$GPGGA,211534.750,4305.2568,N,07740.7323,W,1,07,1.40,157.6,M,-34.4,M,,*5F
$GPRMC,211535.000,A,4305.2569,N,07740.7303,W,18.38,89.00,060525,,,A*73
$GPGGA,211535.250,4305.2570,N,07740.7284,W,1,07,1.25,157.4,M,-34.4,M,,*5F
$GPRMC,211535.500,A,4305.2571,N,07740.7264,W,19.11,89.10,060525,,,A*74
$GPGGA,211535.750,4305.2572,N,07740.7243,W,1,07,1.25,157.1,M,-34.4,M,,*56
$GPRMC,211536.000,A,4305.2573,N,07740.7222,W,20.03,89.10,060525,,,A*7B
$GPGGA,211536.250,4305.2573,N,07740.7201,W,1,07,1.25,156.9,M,-34.4,M,,*5E
$GPRMC,211536.500,A,4305.2574,N,07740.7180,W,20.89,89.42,060525,,,A*77
$GPGGA,211536.750,4305.2574,N,07740.7158,W,1,07,1.40,156.7,M,-34.4,M,,*5E
$GPRMC,211537.000,A,4305.2574,N,07740.7136,W,21.48,90.19,060525,,,A*74
$GPGGA,211537.250,4305.2574,N,07740.7114,W,1,07,1.40,156.4,M,-34.4,M,,*51
$GPRMC,211537.500,A,4305.2574,N,07740.7091,W,21.70,91.20,060525,,,A*7D
$GPGGA,211537.750,4305.2574,N,07740.7069,W,1,07,1.40,156.2,M,-34.4,M,,*59
$GPRMC,211538.000,A,4305.2574,N,07740.7046,W,21.72,91.69,060525,,,A*72
$GPGGA,211538.250,4305.2574,N,07740.7024,W,1,07,1.40,155.9,M,-34.4,M,,*52
$GPRMC,211538.500,A,4305.2574,N,07740.7002,W,21.76,91.28,060525,,,A*76
$GPGGA,211538.750,4305.2574,N,07740.6979,W,1,07,1.40,155.6,M,-34.4,M,,*58
$GPRMC,211539.000,A,4305.2574,N,07740.6957,W,21.99,90.36,060525,,,A*75
$GPGGA,211539.250,4305.2575,N,07740.6934,W,1,07,1.25,155.4,M,-34.4,M,,*55
$GPRMC,211539.500,A,4305.2575,N,07740.6912,W,21.92,90.25,060525,,,A*79
$GPGGA,211539.750,4305.2575,N,07740.6890,W,1,07,1.40,155.1,M,-34.4,M,,*59
$GPRMC,211540.000,A,4305.2575,N,07740.6868,W,21.19,91.01,060525,,,A*7A
$GPGGA,211540.250,4305.2575,N,07740.6847,W,1,07,1.25,154.8,M,-34.4,M,,*53
$GPRMC,211540.500,A,4305.2576,N,07740.6826,W,20.45,91.26,060525,,,A*7B
$GPGGA,211540.750,4305.2576,N,07740.6805,W,1,07,1.40,154.5,M,-34.4,M,,*5D
$GPRMC,211541.000,A,4305.2577,N,07740.6784,W,19.44,92.01,060525,,,A*74
$GPGGA,211541.250,4305.2577,N,07740.6765,W,1,07,1.25,154.2,M,-34.4,M,,*55
$GPRMC,211541.500,A,4305.2577,N,07740.6747,W,18.45,92.29,060525,,,A*74
$GPGGA,211541.750,4305.2577,N,07740.6728,W,1,07,1.40,153.9,M,-34.4,M,,*56
$GPRMC,211542.000,A,4305.2577,N,07740.6709,W,18.20,92.92,060525,,,A*7B
$GPGGA,211542.250,4305.2577,N,07740.6690,W,1,07,1.40,153.6,M,-34.4,M,,*5D
$GPRMC,211542.500,A,4305.2577,N,07740.6671,W,18.11,92.56,060525,,,A*7A
$GPGGA,211542.750,4305.2577,N,07740.6652,W,1,07,1.40,153.3,M,-34.4,M,,*53
$GPRMC,211543.000,A,4305.2577,N,07740.6634,W,18.11,92.52,060525,,,A*7B
$GPGGA,211543.250,4305.2577,N,07740.6616,W,1,07,1.25,153.0,M,-34.4,M,,*57
$GPRMC,211543.500,A,4305.2576,N,07740.6597,W,17.90,92.64,060525,,,A*76
$GPGGA,211543.750,4305.2577,N,07740.6579,W,1,07,1.40,152.6,M,-34.4,M,,*5C
$GPRMC,211544.000,A,4305.2577,N,07740.6561,W,17.63,92.55,060525,,,A*72
$GPGGA,211544.250,4305.2575,N,07740.6543,W,1,07,1.25,152.9,M,-34.4,M,,*59
$GPRMC,211544.500,A,4305.2575,N,07740.6524,W,17.33,93.12,060525,,,A*73
$GPGGA,211544.750,4305.2575,N,07740.6506,W,1,07,1.40,152.6,M,-34.4,M,,*51
$GPRMC,211545.000,A,4305.2575,N,07740.6489,W,16.84,93.03,060525,,,A*7C
$GPGGA,211545.250,4305.2575,N,07740.6471,W,1,07,1.25,152.3,M,-34.4,M,,*52
$GPRMC,211545.500,A,4305.2575,N,07740.6455,W,16.20,93.02,060525,,,A*77
$GPGGA,211545.750,4305.2575,N,07740.6439,W,1,07,1.40,151.9,M,-34.4,M,,*51
$GPRMC,211546.000,A,4305.2575,N,07740.6423,W,15.15,93.31,060525,,,A*75
$GPGGA,211546.250,4305.2575,N,07740.6408,W,1,07,1.25,152.1,M,-34.4,M,,*5D
$GPRMC,211546.500,A,4305.2575,N,07740.6393,W,13.86,93.79,060525,,,A*7C
$GPGGA,211546.750,4305.2576,N,07740.6379,W,1,07,1.40,151.9,M,-34.4,M,,*52
$GPRMC,211547.000,A,4305.2576,N,07740.6364,W,12.56,95.57,060525,,,A*75
$GPGGA,211547.250,4305.2576,N,07740.6351,W,1,07,1.25,151.6,M,-34.4,M,,*50
$GPRMC,211547.500,A,4305.2576,N,07740.6339,W,11.13,96.63,060525,,,A*7E
$GPGGA,211547.750,4305.2577,N,07740.6328,W,1,07,1.40,151.3,M,-34.4,M,,*5C
$GPRMC,211548.000,A,4305.2578,N,07740.6318,W,9.04,97.62,060525,,,A*46
$GPGGA,211548.250,4305.2578,N,07740.6310,W,1,07,1.40,151.0,M,-34.4,M,,*51
$GPRMC,211548.500,A,4305.2579,N,07740.6303,W,7.05,98.75,060525,,,A*4E
$GPGGA,211548.750,4305.2580,N,07740.6297,W,1,07,1.25,150.6,M,-34.4,M,,*59
$GPRMC,211549.000,A,4305.2580,N,07740.6292,W,4.52,106.07,060525,,,A*77
$GPGGA,211549.250,4305.2579,N,07740.6289,W,1,07,1.25,150.8,M,-34.4,M,,*5A
$GPRMC,211549.500,A,4305.2580,N,07740.6286,W,2.41,108.51,060525,,,A*7E
$GPGGA,211549.750,4305.2580,N,07740.6284,W,1,07,1.25,150.5,M,-34.4,M,,*59
$GPGGA,211551.250,4305.2579,N,07740.6271,W,1,07,1.25,152.0,M,-34.4,M,,*5E
$GPRMC,211551.250,A,4305.2579,N,07740.6271,W,1.04,108.51,060525,,,A*79
$GPGGA,211551.500,4305.2580,N,07740.6265,W,1,07,1.25,152.0,M,-34.4,M,,*5F
$GPRMC,211551.500,A,4305.2580,N,07740.6265,W,0.98,108.51,060525,,,A*7C
$GPGGA,211552.000,4305.2581,N,07740.6249,W,1,07,1.25,151.9,M,-34.4,M,,*5C
$GPRMC,211552.000,A,4305.2581,N,07740.6249,W,3.58,96.27,060525,,,A*4D
$GPGGA,211552.250,4305.2580,N,07740.6243,W,1,07,1.25,151.9,M,-34.4,M,,*50
$GPRMC,211552.250,A,4305.2580,N,07740.6243,W,4.60,96.47,060525,,,A*4B
$GPGGA,211552.500,4305.2580,N,07740.6234,W,1,07,1.25,151.8,M,-34.4,M,,*53
$GPRMC,211552.500,A,4305.2580,N,07740.6234,W,5.70,91.52,060525,,,A*4A
$GPGGA,211552.750,4305.2581,N,07740.6225,W,1,07,1.40,151.8,M,-34.4,M,,*56
$GPRMC,211552.750,A,4305.2581,N,07740.6225,W,6.90,88.77,060525,,,A*4E
$GPGGA,211553.000,4305.2582,N,07740.6213,W,1,07,1.40,151.8,M,-34.4,M,,*53
$GPRMC,211553.000,A,4305.2582,N,07740.6213,W,7.95,87.72,060525,,,A*45
$GPGGA,211553.250,4305.2582,N,07740.6203,W,1,07,1.40,151.8,M,-34.4,M,,*55
$GPRMC,211553.250,A,4305.2582,N,07740.6203,W,8.55,88.50,060525,,,A*4F
$GPGGA,211553.500,4305.2583,N,07740.6191,W,1,07,1.40,151.8,M,-34.4,M,,*5E
$GPRMC,211553.500,A,4305.2583,N,07740.6191,W,9.59,87.54,060525,,,A*42
$GPGGA,211553.750,4305.2584,N,07740.6179,W,1,07,1.25,151.8,M,-34.4,M,,*5B
$GPRMC,211553.750,A,4305.2584,N,07740.6179,W,10.40,86.47,060525,,,A*77
$GPGGA,211554.000,4305.2585,N,07740.6166,W,1,07,1.40,151.8,M,-34.4,M,,*52
$GPRMC,211554.000,A,4305.2585,N,07740.6166,W,11.00,86.44,060525,,,A*7B
$GPGGA,211554.250,4305.2585,N,07740.6153,W,1,07,1.25,151.7,M,-34.4,M,,*5F
$GPRMC,211554.250,A,4305.2585,N,07740.6153,W,11.52,86.61,060525,,,A*7A
$GPGGA,211554.500,4305.2586,N,07740.6139,W,1,07,1.40,151.7,M,-34.4,M,,*51
$GPRMC,211554.500,A,4305.2586,N,07740.6139,W,12.28,86.95,060525,,,A*72
$GPGGA,211554.750,4305.2586,N,07740.6124,W,1,07,1.40,151.7,M,-34.4,M,,*5A
$GPRMC,211554.750,A,4305.2586,N,07740.6124,W,13.09,87.31,060525,,,A*74
$GPGGA,211555.000,4305.2587,N,07740.6108,W,1,07,1.40,151.7,M,-34.4,M,,*56
$GPRMC,211555.000,A,4305.2587,N,07740.6108,W,13.75,87.47,060525,,,A*72
$GPGGA,211555.250,4305.2587,N,07740.6092,W,1,07,1.25,151.7,M,-34.4,M,,*50
$GPRMC,211555.250,A,4305.2587,N,07740.6092,W,14.10,87.95,060525,,,A*7C
$GPGGA,211555.500,4305.2587,N,07740.6076,W,1,07,1.40,151.7,M,-34.4,M,,*5B
$GPRMC,211556.000,A,4305.2589,N,07740.6036,W,15.54,89.12,060525,,,A*78
$GPGGA,211556.250,4305.2589,N,07740.6019,W,1,07,1.25,151.8,M,-34.4,M,,*51
$GPRMC,211556.500,A,4305.2590,N,07740.6000,W,15.85,90.06,060525,,,A*71
$GPGGA,211556.750,4305.2591,N,07740.5982,W,1,07,1.40,151.8,M,-34.4,M,,*56
$GPRMC,211557.000,A,4305.2592,N,07740.5964,W,15.62,89.98,060525,,,A*79
$GPGGA,211557.250,4305.2593,N,07740.5948,W,1,07,1.40,151.8,M,-34.4,M,,*56
$GPRMC,211557.500,A,4305.2594,N,07740.5931,W,15.15,89.98,060525,,,A*7A
$GPGGA,211557.750,4305.2594,N,07740.5915,W,1,07,1.40,151.7,M,-34.4,M,,*53
$GPRMC,211558.000,A,4305.2595,N,07740.5898,W,14.51,91.03,060525,,,A*79
$GPGGA,211558.250,4305.2595,N,07740.5882,W,1,07,1.25,151.7,M,-34.4,M,,*54
$GPRMC,211558.500,A,4305.2595,N,07740.5866,W,14.00,92.50,060525,,,A*7C
$GPGGA,211558.750,4305.2595,N,07740.5850,W,1,07,1.40,151.6,M,-34.4,M,,*5C
$GPRMC,211559.000,A,4305.2596,N,07740.5833,W,13.66,93.11,060525,,,A*78
$GPGGA,211559.250,4305.2597,N,07740.5818,W,1,07,1.25,151.4,M,-34.4,M,,*57
$GPRMC,211559.500,A,4305.2597,N,07740.5803,W,13.35,92.61,060525,,,A*7F
$GPGGA,211559.750,4305.2598,N,07740.5788,W,1,07,1.40,151.3,M,-34.4,M,,*5F
$GPRMC,211600.000,A,4305.2599,N,07740.5772,W,13.09,92.10,060525,,,A*7B
$GPGGA,211600.250,4305.2599,N,07740.5758,W,1,07,1.25,151.2,M,-34.4,M,,*5B
$GPRMC,211600.500,A,4305.2599,N,07740.5743,W,13.16,92.32,060525,,,A*72
$GPGGA,211600.750,4305.2600,N,07740.5727,W,1,07,1.40,151.0,M,-34.4,M,,*54
$GPRMC,211601.000,A,4305.2600,N,07740.5712,W,13.36,92.74,060525,,,A*71
$GPGGA,211601.250,4305.2600,N,07740.5697,W,1,07,1.25,150.8,M,-34.4,M,,*50
$GPRMC,211601.500,A,4305.2599,N,07740.5682,W,13.48,93.23,060525,,,A*75
$GPGGA,211601.750,4305.2599,N,07740.5667,W,1,07,1.40,150.7,M,-34.4,M,,*55
$GPRMC,211602.000,A,4305.2599,N,07740.5651,W,13.44,94.21,060525,,,A*74
$GPGGA,211602.250,4305.2599,N,07740.5636,W,1,07,1.40,150.5,M,-34.4,M,,*55
$GPRMC,211602.500,A,4305.2599,N,07740.5620,W,13.25,94.19,060525,,,A*7B
$GPGGA,211602.750,4305.2600,N,07740.5604,W,1,07,1.40,150.3,M,-34.4,M,,*54
$GPRMC,211603.000,A,4305.2601,N,07740.5587,W,12.94,93.29,060525,,,A*7C
$GPGGA,211603.250,4305.2601,N,07740.5571,W,1,07,1.40,150.0,M,-34.4,M,,*53
$GPRMC,211603.500,A,4305.2601,N,07740.5557,W,12.56,92.96,060525,,,A*7F
$GPGGA,211603.750,4305.2602,N,07740.5541,W,1,07,1.40,149.8,M,-34.4,M,,*56
$GPRMC,211604.000,A,4305.2603,N,07740.5525,W,12.42,92.34,060525,,,A*77
$GPGGA,211604.250,4305.2603,N,07740.5511,W,1,07,1.40,149.5,M,-34.4,M,,*5D
$GPRMC,211604.500,A,4305.2603,N,07740.5497,W,12.33,92.38,060525,,,A*70
$GPGGA,211604.750,4305.2603,N,07740.5483,W,1,07,1.40,149.2,M,-34.4,M,,*55
$GPRMC,211605.000,A,4305.2603,N,07740.5469,W,12.09,93.12,060525,,,A*75
$GPGGA,211605.250,4305.2603,N,07740.5455,W,1,07,1.40,149.0,M,-34.4,M,,*58
$GPRMC,211605.500,A,4305.2603,N,07740.5441,W,11.41,93.89,060525,,,A*77
$GPGGA,211605.750,4305.2603,N,07740.5428,W,1,07,1.40,148.8,M,-34.4,M,,*5E
$GPRMC,211606.000,A,4305.2603,N,07740.5415,W,11.16,95.27,060525,,,A*70
$GPGGA,211606.250,4305.2602,N,07740.5403,W,1,07,1.40,148.5,M,-34.4,M,,*5D
$GPRMC,211606.500,A,4305.2602,N,07740.5390,W,11.40,95.51,060525,,,A*7C
$GPGGA,211606.750,4305.2601,N,07740.5377,W,1,07,1.40,148.3,M,-34.4,M,,*59
$GPRMC,211607.000,A,4305.2601,N,07740.5364,W,11.87,94.54,060525,,,A*7F
$GPGGA,211607.250,4305.2601,N,07740.5351,W,1,07,1.25,148.1,M,-34.4,M,,*58
$GPRMC,211607.500,A,4305.2602,N,07740.5337,W,12.42,92.04,060525,,,A*76
$GPGGA,211607.750,4305.2602,N,07740.5322,W,1,07,1.40,147.9,M,-34.4,M,,*5E
$GPRMC,211608.000,A,4305.2603,N,07740.5307,W,13.03,89.85,060525,,,A*79
$GPGGA,211608.250,4305.2603,N,07740.5292,W,1,07,1.25,147.8,M,-34.4,M,,*5D
$GPRMC,211608.500,A,4305.2604,N,07740.5276,W,13.68,89.02,060525,,,A*7E
$GPGGA,211608.750,4305.2605,N,07740.5260,W,1,07,1.40,147.6,M,-34.4,M,,*5E
$GPRMC,211609.000,A,4305.2606,N,07740.5244,W,14.43,88.04,060525,,,A*70
$GPGGA,211609.250,4305.2607,N,07740.5229,W,1,07,1.25,147.5,M,-34.4,M,,*55
$GPRMC,211609.500,A,4305.2608,N,07740.5213,W,15.30,86.63,060525,,,A*73
$GPGGA,211609.750,4305.2608,N,07740.5196,W,1,07,1.40,147.3,M,-34.4,M,,*5D
$GPRMC,211610.000,A,4305.2609,N,07740.5179,W,15.70,87.37,060525,,,A*74
$GPGGA,211610.250,4305.2609,N,07740.5161,W,1,07,1.25,147.1,M,-34.4,M,,*58
$GPRMC,211610.500,A,4305.2610,N,07740.5143,W,15.68,88.42,060525,,,A*74
$GPGGA,211610.750,4305.2610,N,07740.5119,W,1,07,1.40,147.2,M,-34.4,M,,*5A
$GPRMC,211611.000,A,4305.2610,N,07740.5097,W,15.27,91.30,060525,,,A*7E
$GPGGA,211611.250,4305.2608,N,07740.5080,W,1,07,1.25,147.5,M,-34.4,M,,*52
$GPRMC,211611.500,A,4305.2607,N,07740.5065,W,14.47,95.16,060525,,,A*77
$GPGGA,211611.750,4305.2606,N,07740.5051,W,1,07,1.40,147.4,M,-34.4,M,,*57
$GPRMC,211612.000,A,4305.2604,N,07740.5037,W,13.52,99.32,060525,,,A*7C
$GPGGA,211612.250,4305.2602,N,07740.5023,W,1,07,1.25,147.2,M,-34.4,M,,*55
$GPRMC,211612.500,A,4305.2600,N,07740.5009,W,13.38,101.70,060525,,,A*4A
$GPGGA,211612.750,4305.2597,N,07740.4995,W,1,07,1.40,147.1,M,-34.4,M,,*5A
$GPRMC,211613.000,A,4305.2593,N,07740.4981,W,13.53,104.86,060525,,,A*4E
$GPGGA,211613.250,4305.2590,N,07740.4968,W,1,07,1.25,147.0,M,-34.4,M,,*59
$GPRMC,211613.500,A,4305.2586,N,07740.4955,W,13.44,108.17,060525,,,A*44
$GPGGA,211613.750,4305.2582,N,07740.4943,W,1,07,1.40,146.9,M,-34.4,M,,*5D
$GPRMC,211614.000,A,4305.2578,N,07740.4930,W,13.42,110.86,060525,,,A*43
$GPGGA,211614.250,4305.2574,N,07740.4917,W,1,07,1.40,146.7,M,-34.4,M,,*59
$GPRMC,211614.500,A,4305.2570,N,07740.4904,W,13.64,112.42,060525,,,A*47
$GPGGA,211614.750,4305.2566,N,07740.4891,W,1,07,1.40,146.5,M,-34.4,M,,*52
$GPRMC,211615.000,A,4305.2562,N,07740.4875,W,14.01,113.83,060525,,,A*4F
$GPGGA,211615.250,4305.2559,N,07740.4860,W,1,07,1.25,146.4,M,-34.4,M,,*56
$GPRMC,211615.500,A,4305.2557,N,07740.4844,W,14.64,108.77,060525,,,A*4C
$GPGGA,211615.750,4305.2555,N,07740.4825,W,1,07,1.25,146.3,M,-34.4,M,,*59
$GPRMC,211616.000,A,4305.2552,N,07740.4809,W,15.48,103.94,060525,,,A*4F
$GPGGA,211616.250,4305.2550,N,07740.4794,W,1,07,1.25,146.2,M,-34.4,M,,*5E
$GPRMC,211616.500,A,4305.2549,N,07740.4778,W,15.53,100.37,060525,,,A*49
$GPGGA,211616.750,4305.2547,N,07740.4763,W,1,07,1.40,146.2,M,-34.4,M,,*56
$GPRMC,211617.000,A,4305.2548,N,07740.4747,W,15.22,94.29,060525,,,A*75
$GPGGA,211617.250,4305.2549,N,07740.4729,W,1,07,1.25,146.3,M,-34.4,M,,*50
$GPRMC,211617.500,A,4305.2552,N,07740.4712,W,14.59,87.04,060525,,,A*7B
$GPGGA,211617.750,4305.2554,N,07740.4697,W,1,07,1.40,146.5,M,-34.4,M,,*58
$GPRMC,211618.000,A,4305.2556,N,07740.4682,W,14.68,81.54,060525,,,A*7C
$GPGGA,211618.250,4305.2558,N,07740.4668,W,1,07,1.25,146.5,M,-34.4,M,,*5D
$GPRMC,211618.500,A,4305.2561,N,07740.4655,W,14.48,78.79,060525,,,A*7C
$GPGGA,211618.750,4305.2564,N,07740.4642,W,1,07,1.40,146.4,M,-34.4,M,,*5D
$GPRMC,211619.000,A,4305.2567,N,07740.4628,W,14.06,76.32,060525,,,A*7F
$GPGGA,211619.250,4305.2572,N,07740.4615,W,1,07,1.40,146.2,M,-34.4,M,,*5A
$GPRMC,211619.500,A,4305.2578,N,07740.4601,W,13.71,70.80,060525,,,A*77
$GPGGA,211619.750,4305.2583,N,07740.4587,W,1,07,1.25,146.2,M,-34.4,M,,*5A
$GPRMC,211620.000,A,4305.2588,N,07740.4573,W,14.19,68.15,060525,,,A*7D
$GPGGA,211620.250,4305.2592,N,07740.4559,W,1,07,1.25,146.1,M,-34.4,M,,*55
$GPRMC,211620.500,A,4305.2595,N,07740.4545,W,14.41,70.14,060525,,,A*74
$GPGGA,211620.750,4305.2597,N,07740.4530,W,1,07,1.25,146.0,M,-34.4,M,,*5B
$GPRMC,211621.000,A,4305.2597,N,07740.4508,W,14.82,75.96,060525,,,A*7B
$GPGGA,211621.250,4305.2599,N,07740.4493,W,1,07,1.40,146.5,M,-34.4,M,,*5F
$GPRMC,211621.500,A,4305.2601,N,07740.4478,W,15.08,79.65,060525,,,A*77
$GPGGA,211621.750,4305.2602,N,07740.4463,W,1,07,1.40,146.4,M,-34.4,M,,*55
$GPRMC,211622.000,A,4305.2604,N,07740.4447,W,15.45,82.79,060525,,,A*78
$GPGGA,211622.250,4305.2605,N,07740.4432,W,1,07,1.40,146.3,M,-34.4,M,,*57
$GPRMC,211622.500,A,4305.2606,N,07740.4416,W,16.06,85.61,060525,,,A*71
$GPGGA,211622.750,4305.2606,N,07740.4400,W,1,07,1.40,146.2,M,-34.4,M,,*51
$GPRMC,211623.000,A,4305.2607,N,07740.4384,W,16.68,87.50,060525,,,A*70
$GPGGA,211623.250,4305.2608,N,07740.4368,W,1,07,1.25,146.1,M,-34.4,M,,*52
$GPRMC,211623.500,A,4305.2608,N,07740.4351,W,17.28,89.04,060525,,,A*78
$GPGGA,211623.750,4305.2609,N,07740.4334,W,1,07,1.40,146.0,M,-34.4,M,,*5D
$GPRMC,211624.000,A,4305.2609,N,07740.4316,W,17.91,89.15,060525,,,A*7A
$GPGGA,211624.250,4305.2610,N,07740.4299,W,1,07,1.25,145.9,M,-34.4,M,,*58
$GPRMC,211624.500,A,4305.2610,N,07740.4281,W,18.20,89.04,060525,,,A*7D
$GPGGA,211624.750,4305.2611,N,07740.4264,W,1,07,1.40,145.8,M,-34.4,M,,*5C
$GPRMC,211625.000,A,4305.2612,N,07740.4246,W,18.31,88.08,060525,,,A*7D
$GPGGA,211625.250,4305.2613,N,07740.4229,W,1,07,1.25,145.7,M,-34.4,M,,*5F
$GPRMC,211625.500,A,4305.2613,N,07740.4211,W,18.37,88.17,060525,,,A*73
$GPGGA,211625.750,4305.2614,N,07740.4194,W,1,07,1.40,145.6,M,-34.4,M,,*5A
$GPRMC,211626.000,A,4305.2615,N,07740.4176,W,18.47,88.19,060525,,,A*78
$GPGGA,211626.250,4305.2616,N,07740.4158,W,1,07,1.40,145.5,M,-34.4,M,,*5D
$GPRMC,211626.500,A,4305.2617,N,07740.4141,W,18.51,87.82,060525,,,A*71
$GPGGA,211626.750,4305.2618,N,07740.4124,W,1,07,1.40,145.4,M,-34.4,M,,*5C
$GPRMC,211627.000,A,4305.2619,N,07740.4106,W,18.48,87.09,060525,,,A*73
$GPGGA,211627.250,4305.2619,N,07740.4089,W,1,07,1.25,145.3,M,-34.4,M,,*5B
$GPRMC,211627.500,A,4305.2620,N,07740.4071,W,18.48,87.52,060525,,,A*73
$GPGGA,211627.750,4305.2620,N,07740.4053,W,1,07,1.40,145.2,M,-34.4,M,,*51
$GPRMC,211628.000,A,4305.2621,N,07740.4036,W,18.52,88.20,060525,,,A*7A
$GPGGA,211628.250,4305.2621,N,07740.4017,W,1,07,1.25,145.1,M,-34.4,M,,*5A
$GPRMC,211628.500,A,4305.2622,N,07740.3998,W,18.95,88.76,060525,,,A*7E
$GPGGA,211628.750,4305.2622,N,07740.3980,W,1,07,1.40,145.0,M,-34.4,M,,*5E
$GPRMC,211629.000,A,4305.2622,N,07740.3961,W,19.16,88.89,060525,,,A*76
$GPGGA,211629.250,4305.2623,N,07740.3941,W,1,07,1.40,144.9,M,-34.4,M,,*5E
$GPRMC,211629.500,A,4305.2623,N,07740.3922,W,19.53,89.02,060525,,,A*76
$GPGGA,211629.750,4305.2623,N,07740.3902,W,1,07,1.40,144.9,M,-34.4,M,,*5C
$GPRMC,211630.000,A,4305.2623,N,07740.3882,W,20.13,88.75,060525,,,A*7F
$GPGGA,211630.250,4305.2623,N,07740.3862,W,1,07,1.40,144.8,M,-34.4,M,,*57
$GPRMC,211630.500,A,4305.2624,N,07740.3841,W,20.81,88.50,060525,,,A*7E
$GPGGA,211630.750,4305.2625,N,07740.3820,W,1,07,1.40,144.8,M,-34.4,M,,*52
$GPRMC,211631.000,A,4305.2626,N,07740.3798,W,21.46,87.55,060525,,,A*73
$GPGGA,211631.250,4305.2627,N,07740.3777,W,1,07,1.40,144.8,M,-34.4,M,,*59
$GPRMC,211631.500,A,4305.2628,N,07740.3755,W,21.90,86.54,060525,,,A*72
$GPGGA,211631.750,4305.2629,N,07740.3727,W,1,07,1.40,145.1,M,-34.4,M,,*5F
$GPRMC,211632.000,A,4305.2630,N,07740.3700,W,22.14,85.96,060525,,,A*7F
$GPGGA,211632.250,4305.2631,N,07740.3678,W,1,07,1.40,145.4,M,-34.4,M,,*5E
$GPRMC,211632.500,A,4305.2633,N,07740.3656,W,22.42,85.11,060525,,,A*77
$GPGGA,211632.750,4305.2634,N,07740.3624,W,1,07,1.40,146.0,M,-34.4,M,,*50
$GPRMC,211633.000,A,4305.2635,N,07740.3598,W,22.67,84.49,060525,,,A*7F
$GPGGA,211633.250,4305.2637,N,07740.3575,W,1,07,1.40,146.2,M,-34.4,M,,*52
$GPRMC,211633.500,A,4305.2638,N,07740.3546,W,22.64,84.57,060525,,,A*78
$GPGGA,211633.750,4305.2639,N,07740.3519,W,1,07,1.40,146.7,M,-34.4,M,,*56
$GPRMC,211634.000,A,4305.2641,N,07740.3492,W,22.59,84.73,060525,,,A*74
$GPGGA,211634.250,4305.2642,N,07740.3466,W,1,07,1.40,147.1,M,-34.4,M,,*56
$GPRMC,211634.500,A,4305.2644,N,07740.3440,W,22.54,83.90,060525,,,A*7C
$GPGGA,211634.750,4305.2646,N,07740.3414,W,1,07,1.40,147.4,M,-34.4,M,,*57
$GPRMC,211635.000,A,4305.2648,N,07740.3389,W,22.75,83.19,060525,,,A*74
$GPGGA,211635.250,4305.2650,N,07740.3367,W,1,07,1.40,147.5,M,-34.4,M,,*56
$GPRMC,211635.500,A,4305.2651,N,07740.3345,W,22.80,83.02,060525,,,A*79
$GPGGA,211635.750,4305.2653,N,07740.3320,W,1,07,1.40,147.8,M,-34.4,M,,*5E
$GPRMC,211636.000,A,4305.2655,N,07740.3295,W,23.22,82.55,060525,,,A*7D
$GPGGA,211636.250,4305.2656,N,07740.3270,W,1,07,1.25,148.4,M,-34.4,M,,*59
$GPRMC,211636.500,A,4305.2658,N,07740.3245,W,23.44,81.87,060525,,,A*74
$GPGGA,211636.750,4305.2661,N,07740.3220,W,1,07,1.40,148.9,M,-34.4,M,,*53
$GPRMC,211637.000,A,4305.2663,N,07740.3197,W,23.96,81.31,060525,,,A*76
$GPGGA,211637.250,4305.2666,N,07740.3173,W,1,07,1.40,149.1,M,-34.4,M,,*5C
$GPRMC,211637.500,A,4305.2669,N,07740.3150,W,24.31,80.34,060525,,,A*7C
$GPGGA,211637.750,4305.2672,N,07740.3127,W,1,07,1.40,149.2,M,-34.4,M,,*5E
$GPRMC,211638.000,A,4305.2677,N,07740.3103,W,24.63,78.93,060525,,,A*72
$GPGGA,211638.250,4305.2681,N,07740.3080,W,1,07,1.40,149.3,M,-34.4,M,,*55
$GPRMC,211638.500,A,4305.2685,N,07740.3055,W,24.88,78.05,060525,,,A*72
$GPGGA,211638.750,4305.2690,N,07740.3030,W,1,07,1.40,149.6,M,-34.4,M,,*5E
$GPRMC,211639.000,A,4305.2694,N,07740.3005,W,25.12,77.08,060525,,,A*73
$GPGGA,211639.250,4305.2698,N,07740.2981,W,1,07,1.40,150.1,M,-34.4,M,,*5F
$GPRMC,211639.500,A,4305.2703,N,07740.2958,W,25.16,76.01,060525,,,A*75
$GPGGA,211639.750,4305.2708,N,07740.2934,W,1,07,1.40,150.5,M,-34.4,M,,*58
$GPRMC,211640.000,A,4305.2713,N,07740.2911,W,25.58,75.00,060525,,,A*7A
$GPGGA,211640.250,4305.2718,N,07740.2887,W,1,07,1.25,150.7,M,-34.4,M,,*5A
$GPRMC,211640.500,A,4305.2723,N,07740.2863,W,25.80,74.01,060525,,,A*7D
$GPGGA,211640.750,4305.2729,N,07740.2839,W,1,07,1.40,150.8,M,-34.4,M,,*54
$GPRMC,211641.000,A,4305.2735,N,07740.2815,W,26.07,71.92,060525,,,A*7C
$GPGGA,211641.250,4305.2742,N,07740.2792,W,1,07,1.40,150.9,M,-34.4,M,,*52
$GPRMC,211641.500,A,4305.2749,N,07740.2768,W,26.15,70.06,060525,,,A*78
$GPGGA,211641.750,4305.2756,N,07740.2743,W,1,07,1.40,151.0,M,-34.4,M,,*56
$GPRMC,211642.000,A,4305.2763,N,07740.2720,W,26.39,69.31,060525,,,A*78
$GPGGA,211642.250,4305.2770,N,07740.2696,W,1,07,1.40,151.2,M,-34.4,M,,*5F
$GPRMC,211642.500,A,4305.2777,N,07740.2673,W,26.51,67.93,060525,,,A*77
$GPGGA,211642.750,4305.2784,N,07740.2650,W,1,07,1.40,151.5,M,-34.4,M,,*5C
$GPRMC,211643.000,A,4305.2792,N,07740.2627,W,27.10,66.59,060525,,,A*7A
$GPGGA,211643.250,4305.2799,N,07740.2603,W,1,07,1.25,151.8,M,-34.4,M,,*5C
$GPRMC,211643.500,A,4305.2807,N,07740.2580,W,27.57,65.40,060525,,,A*7A
$GPGGA,211643.750,4305.2816,N,07740.2556,W,1,07,1.40,152.0,M,-34.4,M,,*5A
$GPRMC,211644.000,A,4305.2824,N,07740.2532,W,28.04,64.29,060525,,,A*77
$GPGGA,211644.250,4305.2833,N,07740.2507,W,1,07,1.25,152.2,M,-34.4,M,,*5A
$GPRMC,211644.500,A,4305.2842,N,07740.2484,W,27.82,63.24,060525,,,A*75
$GPGGA,211644.750,4305.2852,N,07740.2460,W,1,07,1.40,152.3,M,-34.4,M,,*5A
$GPRMC,211645.000,A,4305.2861,N,07740.2436,W,27.92,62.10,060525,,,A*7E
$GPGGA,211645.250,4305.2870,N,07740.2413,W,1,07,1.25,152.4,M,-34.4,M,,*5E
$GPRMC,211645.500,A,4305.2880,N,07740.2389,W,28.00,61.58,060525,,,A*7C
$GPGGA,211645.750,4305.2889,N,07740.2365,W,1,07,1.40,152.5,M,-34.4,M,,*59
$GPRMC,211646.000,A,4305.2899,N,07740.2341,W,28.43,60.63,060525,,,A*78
$GPGGA,211646.250,4305.2909,N,07740.2318,W,1,07,1.40,152.6,M,-34.4,M,,*5F
$GPRMC,211646.500,A,4305.2920,N,07740.2294,W,28.53,59.90,060525,,,A*70
$GPGGA,211646.750,4305.2930,N,07740.2270,W,1,07,1.40,152.5,M,-34.4,M,,*5C
$GPRMC,211647.000,A,4305.2941,N,07740.2246,W,28.76,59.34,060525,,,A*75
$GPGGA,211647.250,4305.2951,N,07740.2222,W,1,07,1.25,152.4,M,-34.4,M,,*5A
$GPRMC,211647.500,A,4305.2961,N,07740.2199,W,28.70,59.01,060525,,,A*73
$GPGGA,211647.750,4305.2971,N,07740.2175,W,1,07,1.40,152.3,M,-34.4,M,,*58
$GPRMC,211648.000,A,4305.2981,N,07740.2151,W,28.34,59.61,060525,,,A*75
$GPGGA,211648.250,4305.2992,N,07740.2127,W,1,08,1.02,152.3,M,-34.4,M,,*51
$GPRMC,211648.500,A,4305.3002,N,07740.2102,W,28.23,59.90,060525,,,A*7D
$GPGGA,211648.750,4305.3012,N,07740.2078,W,1,08,1.02,152.4,M,-34.4,M,,*58
$GPRMC,211649.000,A,4305.3023,N,07740.2053,W,28.15,59.85,060525,,,A*7E
$GPGGA,211649.250,4305.3033,N,07740.2029,W,1,08,1.02,152.5,M,-34.4,M,,*5A
$GPRMC,211649.500,A,4305.3043,N,07740.2004,W,28.27,59.86,060525,,,A*7D
$GPGGA,211649.750,4305.3053,N,07740.1980,W,1,08,1.02,152.5,M,-34.4,M,,*50
$GPRMC,211650.000,A,4305.3063,N,07740.1956,W,28.31,59.69,060525,,,A*79
$GPGGA,211650.250,4305.3074,N,07740.1932,W,1,08,0.99,152.5,M,-34.4,M,,*52
$GPRMC,211650.500,A,4305.3084,N,07740.1907,W,28.38,59.86,060525,,,A*79
$GPGGA,211650.750,4305.3095,N,07740.1882,W,1,08,1.02,152.6,M,-34.4,M,,*52
$GPRMC,211651.000,A,4305.3106,N,07740.1857,W,28.43,59.74,060525,,,A*73
$GPGGA,211651.250,4305.3116,N,07740.1832,W,1,08,0.99,152.8,M,-34.4,M,,*5A
$GPRMC,211651.500,A,4305.3127,N,07740.1806,W,28.81,60.24,060525,,,A*70
$GPGGA,211651.750,4305.3137,N,07740.1780,W,1,08,1.02,152.9,M,-34.4,M,,*58
$GPRMC,211652.000,A,4305.3147,N,07740.1754,W,28.93,60.64,060525,,,A*7F
$GPGGA,211652.250,4305.3157,N,07740.1727,W,1,08,1.02,152.9,M,-34.4,M,,*55
$GPRMC,211652.500,A,4305.3168,N,07740.1702,W,28.96,60.27,060525,,,A*76
$GPGGA,211652.750,4305.3178,N,07740.1677,W,1,08,1.02,153.0,M,-34.4,M,,*51
$GPRMC,211653.000,A,4305.3189,N,07740.1652,W,28.95,60.10,060525,,,A*7E
$GPGGA,211653.250,4305.3199,N,07740.1627,W,1,08,1.02,153.0,M,-34.4,M,,*5F
$GPRMC,211653.500,A,4305.3210,N,07740.1603,W,29.18,59.96,060525,,,A*7C
$GPGGA,211653.750,4305.3221,N,07740.1578,W,1,08,1.02,153.1,M,-34.4,M,,*52
$GPRMC,211654.000,A,4305.3231,N,07740.1553,W,28.97,60.68,060525,,,A*76
$GPGGA,211654.250,4305.3241,N,07740.1528,W,1,08,0.99,153.1,M,-34.4,M,,*50
$GPRMC,211654.500,A,4305.3251,N,07740.1504,W,29.04,61.58,060525,,,A*7E
$GPGGA,211654.750,4305.3261,N,07740.1479,W,1,08,1.02,153.3,M,-34.4,M,,*53
$GPRMC,211655.000,A,4305.3271,N,07740.1454,W,28.84,61.92,060525,,,A*73
$GPGGA,211655.250,4305.3282,N,07740.1430,W,1,08,1.02,153.4,M,-34.4,M,,*50
$GPRMC,211655.500,A,4305.3292,N,07740.1407,W,28.39,61.58,060525,,,A*7D
$GPGGA,211655.750,4305.3301,N,07740.1384,W,1,08,1.02,153.5,M,-34.4,M,,*56
$GPRMC,211656.000,A,4305.3311,N,07740.1361,W,27.75,61.62,060525,,,A*78
$GPGGA,211656.250,4305.3321,N,07740.1338,W,1,08,1.02,153.6,M,-34.4,M,,*56
$GPRMC,211656.500,A,4305.3330,N,07740.1315,W,27.26,62.18,060525,,,A*75
$GPGGA,211656.750,4305.3339,N,07740.1292,W,1,08,1.02,153.6,M,-34.4,M,,*5B
$GPRMC,211657.000,A,4305.3347,N,07740.1268,W,26.98,64.20,060525,,,A*73
$GPGGA,211657.250,4305.3355,N,07740.1244,W,1,08,1.02,153.4,M,-34.4,M,,*5C
$GPRMC,211657.500,A,4305.3362,N,07740.1221,W,26.66,66.26,060525,,,A*79
$GPGGA,211657.750,4305.3369,N,07740.1198,W,1,08,1.02,153.2,M,-34.4,M,,*52
$GPRMC,211658.000,A,4305.3375,N,07740.1175,W,25.92,68.42,060525,,,A*73
$GPGGA,211658.250,4305.3381,N,07740.1151,W,1,08,1.02,153.1,M,-34.4,M,,*58
$GPRMC,211658.500,A,4305.3386,N,07740.1127,W,25.49,71.49,060525,,,A*78
$GPGGA,211658.750,4305.3391,N,07740.1104,W,1,08,1.02,153.0,M,-34.4,M,,*5D
$GPRMC,211659.000,A,4305.3396,N,07740.1081,W,24.94,74.03,060525,,,A*7A
$GPGGA,211659.250,4305.3400,N,07740.1058,W,1,08,1.02,153.1,M,-34.4,M,,*5F
$GPRMC,211659.500,A,4305.3402,N,07740.1033,W,24.57,77.24,060525,,,A*75
$GPGGA,211659.750,4305.3405,N,07740.1010,W,1,08,1.02,153.2,M,-34.4,M,,*50
$GPRMC,211700.000,A,4305.3407,N,07740.0987,W,23.59,80.08,060525,,,A*70
$GPGGA,211700.250,4305.3410,N,07740.0965,W,1,08,1.02,153.0,M,-34.4,M,,*54
$GPRMC,211700.500,A,4305.3411,N,07740.0945,W,21.99,82.36,060525,,,A*7D
$GPGGA,211700.750,4305.3413,N,07740.0925,W,1,08,1.02,152.7,M,-34.4,M,,*50
$GPRMC,211701.000,A,4305.3414,N,07740.0907,W,19.55,85.71,060525,,,A*75
$GPGGA,211701.250,4305.3414,N,07740.0889,W,1,08,1.02,152.5,M,-34.4,M,,*56
$GPRMC,211701.500,A,4305.3415,N,07740.0873,W,17.94,88.96,060525,,,A*74
$GPGGA,211701.750,4305.3414,N,07740.0856,W,1,08,1.02,152.3,M,-34.4,M,,*57
$GPRMC,211702.000,A,4305.3414,N,07740.0841,W,16.29,92.61,060525,,,A*76
$GPGGA,211702.250,4305.3416,N,07740.0826,W,1,08,1.02,152.0,M,-34.4,M,,*57
$GPRMC,211702.500,A,4305.3418,N,07740.0811,W,15.68,93.55,060525,,,A*7A
$GPGGA,211702.750,4305.3419,N,07740.0796,W,1,08,1.02,151.5,M,-34.4,M,,*5F
$GPRMC,211703.000,A,4305.3419,N,07740.0781,W,15.66,93.71,060525,,,A*71
$GPGGA,211703.250,4305.3418,N,07740.0766,W,1,08,1.02,151.1,M,-34.4,M,,*51
$GPRMC,211703.500,A,4305.3417,N,07740.0751,W,15.67,90.42,060525,,,A*75
$GPGGA,211703.750,4305.3417,N,07740.0736,W,1,08,1.02,150.8,M,-34.4,M,,*56
$GPRMC,211704.000,A,4305.3418,N,07740.0722,W,15.46,86.12,060525,,,A*7D
$GPGGA,211704.250,4305.3419,N,07740.0709,W,1,08,1.02,151.0,M,-34.4,M,,*5F
$GPRMC,211704.500,A,4305.3422,N,07740.0696,W,14.84,80.74,060525,,,A*76
$GPGGA,211704.750,4305.3425,N,07740.0683,W,1,08,1.02,150.8,M,-34.4,M,,*5F
$GPRMC,211705.000,A,4305.3429,N,07740.0672,W,14.30,70.50,060525,,,A*75
$GPGGA,211705.250,4305.3433,N,07740.0660,W,1,08,1.02,150.9,M,-34.4,M,,*50
$GPRMC,211705.500,A,4305.3439,N,07740.0650,W,13.95,63.23,060525,,,A*7F
$GPGGA,211705.750,4305.3447,N,07740.0639,W,1,08,1.02,151.9,M,-34.4,M,,*5B
$GPRMC,211706.000,A,4305.3458,N,07740.0628,W,14.83,51.04,060525,,,A*75
$GPGGA,211706.250,4305.3467,N,07740.0619,W,1,08,1.02,152.7,M,-34.4,M,,*50
$GPRMC,211706.500,A,4305.3477,N,07740.0612,W,15.29,41.42,060525,,,A*76
$GPGGA,211706.750,4305.3488,N,07740.0606,W,1,08,1.02,153.2,M,-34.4,M,,*5E
$GPRMC,211707.000,A,4305.3499,N,07740.0599,W,15.76,31.92,060525,,,A*72
$GPGGA,211707.250,4305.3510,N,07740.0593,W,1,08,1.02,153.8,M,-34.4,M,,*5F
$GPRMC,211707.500,A,4305.3522,N,07740.0587,W,16.25,27.23,060525,,,A*71
$GPGGA,211707.750,4305.3534,N,07740.0582,W,1,08,1.02,154.6,M,-34.4,M,,*55
$GPRMC,211708.000,A,4305.3545,N,07740.0577,W,16.59,23.51,060525,,,A*7F
$GPGGA,211708.250,4305.3557,N,07740.0572,W,1,08,1.02,155.1,M,-34.4,M,,*53
$GPRMC,211708.500,A,4305.3569,N,07740.0566,W,16.93,21.52,060525,,,A*73
$GPGGA,211708.750,4305.3581,N,07740.0561,W,1,08,1.02,155.6,M,-34.4,M,,*58
$GPRMC,211709.000,A,4305.3593,N,07740.0556,W,17.17,20.87,060525,,,A*75
$GPGGA,211709.250,4305.3605,N,07740.0550,W,1,08,1.02,156.0,M,-34.4,M,,*54
$GPRMC,211709.500,A,4305.3617,N,07740.0545,W,17.45,20.25,060525,,,A*72
$GPGGA,211709.750,4305.3629,N,07740.0539,W,1,08,1.02,156.2,M,-34.4,M,,*52
$GPRMC,211710.000,A,4305.3644,N,07740.0532,W,18.02,20.52,060525,,,A*75
$GPGGA,211710.250,4305.3659,N,07740.0525,W,1,08,1.02,156.4,M,-34.4,M,,*53
$GPRMC,211710.500,A,4305.3673,N,07740.0519,W,18.68,20.97,060525,,,A*78
$GPGGA,211710.750,4305.3686,N,07740.0513,W,1,08,1.02,156.5,M,-34.4,M,,*50
$GPRMC,211711.000,A,4305.3699,N,07740.0507,W,19.06,21.86,060525,,,A*7F
$GPGGA,211711.250,4305.3713,N,07740.0501,W,1,08,1.02,156.5,M,-34.4,M,,*5A
$GPRMC,211711.500,A,4305.3726,N,07740.0494,W,19.52,22.41,060525,,,A*7D
$GPGGA,211711.750,4305.3739,N,07740.0488,W,1,08,1.02,156.7,M,-34.4,M,,*55
$GPRMC,211712.000,A,4305.3753,N,07740.0481,W,19.91,22.57,060525,,,A*75
$GPGGA,211712.250,4305.3767,N,07740.0474,W,1,08,1.02,156.9,M,-34.4,M,,*55
$GPRMC,211712.500,A,4305.3781,N,07740.0467,W,20.36,22.56,060525,,,A*71
$GPGGA,211712.750,4305.3796,N,07740.0459,W,1,08,1.02,156.9,M,-34.4,M,,*51
$GPRMC,211713.000,A,4305.3810,N,07740.0452,W,20.90,22.56,060525,,,A*78
$GPGGA,211713.250,4305.3825,N,07740.0444,W,1,08,1.02,157.0,M,-34.4,M,,*56
$GPRMC,211713.500,A,4305.3840,N,07740.0437,W,21.38,22.33,060525,,,A*7B
$GPGGA,211713.750,4305.3855,N,07740.0429,W,1,08,1.02,157.1,M,-34.4,M,,*5E
$GPRMC,211714.000,A,4305.3870,N,07740.0422,W,21.65,22.16,060525,,,A*71
$GPGGA,211714.250,4305.3885,N,07740.0414,W,1,08,1.02,157.2,M,-34.4,M,,*5C
$GPRMC,211714.500,A,4305.3900,N,07740.0407,W,21.90,22.00,060525,,,A*78
$GPGGA,211714.750,4305.3915,N,07740.0399,W,1,08,1.02,157.4,M,-34.4,M,,*55
$GPRMC,211715.000,A,4305.3930,N,07740.0391,W,22.16,21.70,060525,,,A*7E
$GPGGA,211715.250,4305.3945,N,07740.0383,W,1,08,1.02,157.4,M,-34.4,M,,*5F
$GPRMC,211715.500,A,4305.3961,N,07740.0375,W,22.63,21.85,060525,,,A*7D
$GPGGA,211715.750,4305.3976,N,07740.0367,W,1,08,1.02,157.4,M,-34.4,M,,*50
$GPRMC,211716.000,A,4305.3992,N,07740.0358,W,22.89,21.92,060525,,,A*7A
$GPGGA,211716.250,4305.4007,N,07740.0350,W,1,08,1.02,157.4,M,-34.4,M,,*5A
$GPRMC,211716.500,A,4305.4023,N,07740.0343,W,23.00,21.77,060525,,,A*7A
$GPGGA,211716.750,4305.4038,N,07740.0335,W,1,08,1.02,157.4,M,-34.4,M,,*50
$GPRMC,211717.000,A,4305.4054,N,07740.0327,W,23.26,21.59,060525,,,A*74
$GPGGA,211717.250,4305.4070,N,07740.0319,W,1,08,1.02,157.6,M,-34.4,M,,*54
$GPRMC,211717.500,A,4305.4086,N,07740.0311,W,23.53,21.44,060525,,,A*75
$GPGGA,211717.750,4305.4101,N,07740.0302,W,1,08,1.02,157.6,M,-34.4,M,,*5C
$GPRMC,211718.000,A,4305.4117,N,07740.0294,W,23.92,21.79,060525,,,A*79
$GPGGA,211718.250,4305.4133,N,07740.0286,W,1,08,1.02,157.7,M,-34.4,M,,*5B
$GPRMC,211718.500,A,4305.4149,N,07740.0277,W,24.24,22.33,060525,,,A*7D
$GPGGA,211718.750,4305.4165,N,07740.0268,W,1,08,1.02,157.8,M,-34.4,M,,*52
$GPRMC,211719.000,A,4305.4181,N,07740.0259,W,24.35,22.17,060525,,,A*77
$GPGGA,211719.250,4305.4197,N,07740.0250,W,1,08,1.02,157.9,M,-34.4,M,,*51
$GPRMC,211719.500,A,4305.4213,N,07740.0242,W,24.58,21.81,060525,,,A*77
$GPGGA,211719.750,4305.4229,N,07740.0233,W,1,08,1.02,158.0,M,-34.4,M,,*51
$GPRMC,211720.000,A,4305.4246,N,07740.0224,W,24.97,21.87,060525,,,A*7D
$GPGGA,211720.250,4305.4263,N,07740.0215,W,1,08,1.02,158.2,M,-34.4,M,,*56
$GPRMC,211720.500,A,4305.4279,N,07740.0206,W,25.03,21.92,060525,,,A*7C
$GPGGA,211720.750,4305.4297,N,07740.0196,W,1,08,1.02,158.2,M,-34.4,M,,*50
$GPRMC,211721.000,A,4305.4314,N,07740.0187,W,25.26,22.13,060525,,,A*75
$GPGGA,211721.250,4305.4331,N,07740.0178,W,1,08,1.02,158.3,M,-34.4,M,,*58
$GPRMC,211721.500,A,4305.4348,N,07740.0168,W,25.47,22.73,060525,,,A*79
$GPGGA,211721.750,4305.4365,N,07740.0159,W,1,08,1.02,158.5,M,-34.4,M,,*59
$GPRMC,211722.000,A,4305.4382,N,07740.0150,W,25.71,21.96,060525,,,A*7F
$GPGGA,211722.250,4305.4399,N,07740.0141,W,1,08,1.02,158.6,M,-34.4,M,,*56
$GPRMC,211722.500,A,4305.4416,N,07740.0132,W,25.78,21.64,060525,,,A*70
$GPGGA,211722.750,4305.4433,N,07740.0122,W,1,08,1.02,158.6,M,-34.4,M,,*51
$GPRMC,211723.000,A,4305.4450,N,07740.0114,W,25.77,21.40,060525,,,A*7B
$GPGGA,211723.250,4305.4467,N,07740.0105,W,1,08,1.02,158.8,M,-34.4,M,,*5F
$GPRMC,211723.500,A,4305.4484,N,07740.0096,W,25.79,21.20,060525,,,A*74
$GPGGA,211723.750,4305.4501,N,07740.0088,W,1,08,1.02,159.0,M,-34.4,M,,*56
$GPRMC,211724.000,A,4305.4518,N,07740.0079,W,26.01,21.46,060525,,,A*7F
$GPGGA,211724.250,4305.4536,N,07740.0070,W,1,08,1.02,159.1,M,-34.4,M,,*56
$GPRMC,211724.500,A,4305.4553,N,07740.0061,W,26.27,21.38,060525,,,A*71
$GPGGA,211724.750,4305.4571,N,07740.0052,W,1,08,1.02,159.4,M,-34.4,M,,*55
$GPRMC,211725.000,A,4305.4589,N,07740.0043,W,26.47,21.25,060525,,,A*78
$GPGGA,211725.250,4305.4607,N,07740.0033,W,1,08,1.02,159.6,M,-34.4,M,,*56
$GPRMC,211725.500,A,4305.4625,N,07740.0024,W,26.69,21.21,060525,,,A*71
$GPGGA,211725.750,4305.4643,N,07740.0015,W,1,08,1.02,159.9,M,-34.4,M,,*58
$GPRMC,211726.000,A,4305.4660,N,07740.0006,W,26.61,21.80,060525,,,A*75
$GPGGA,211726.250,4305.4678,N,07739.9996,W,1,08,1.02,160.0,M,-34.4,M,,*50
$GPRMC,211726.500,A,4305.4696,N,07739.9986,W,26.67,21.91,060525,,,A*79
$GPGGA,211726.750,4305.4713,N,07739.9977,W,1,08,1.02,160.1,M,-34.4,M,,*57
$GPRMC,211727.000,A,4305.4731,N,07739.9967,W,26.46,22.08,060525,,,A*7E
$GPGGA,211727.250,4305.4748,N,07739.9958,W,1,08,1.02,160.1,M,-34.4,M,,*50
$GPRMC,211727.500,A,4305.4765,N,07739.9948,W,26.35,22.00,060525,,,A*7B
$GPGGA,211727.750,4305.4783,N,07739.9939,W,1,08,1.02,160.1,M,-34.4,M,,*55
$GPRMC,211728.000,A,4305.4800,N,07739.9930,W,26.21,21.88,060525,,,A*74
$GPGGA,211728.250,4305.4817,N,07739.9920,W,1,08,1.02,160.0,M,-34.4,M,,*54
$GPRMC,211728.500,A,4305.4834,N,07739.9911,W,25.92,22.16,060525,,,A*7A
$GPGGA,211728.750,4305.4850,N,07739.9902,W,1,08,1.02,159.8,M,-34.4,M,,*50
$GPRMC,211729.000,A,4305.4867,N,07739.9892,W,25.46,22.87,060525,,,A*73
$GPGGA,211729.250,4305.4883,N,07739.9883,W,1,08,1.02,159.7,M,-34.4,M,,*5D
$GPRMC,211729.500,A,4305.4899,N,07739.9873,W,25.13,23.85,060525,,,A*7B
$GPGGA,211729.750,4305.4915,N,07739.9864,W,1,08,1.02,159.6,M,-34.4,M,,*5E
$GPRMC,211730.000,A,4305.4931,N,07739.9854,W,24.87,24.45,060525,,,A*77
$GPGGA,211730.250,4305.4947,N,07739.9844,W,1,08,1.02,159.5,M,-34.4,M,,*55
$GPRMC,211730.500,A,4305.4962,N,07739.9835,W,24.82,24.71,060525,,,A*71
$GPGGA,211730.750,4305.4978,N,07739.9825,W,1,08,1.02,159.3,M,-34.4,M,,*5D
$GPRMC,211731.000,A,4305.4993,N,07739.9815,W,24.58,24.98,060525,,,A*79
$GPGGA,211731.250,4305.5008,N,07739.9805,W,1,08,1.02,159.2,M,-34.4,M,,*55
$GPRMC,211731.500,A,4305.5024,N,07739.9796,W,24.55,25.03,060525,,,A*72
$GPGGA,211731.750,4305.5039,N,07739.9786,W,1,08,1.02,159.2,M,-34.4,M,,*56
$GPRMC,211732.000,A,4305.5055,N,07739.9776,W,24.48,24.66,060525,,,A*72
$GPGGA,211732.250,4305.5070,N,07739.9767,W,1,08,1.02,159.2,M,-34.4,M,,*52
$GPRMC,211732.500,A,4305.5086,N,07739.9758,W,24.40,23.93,060525,,,A*70
$GPGGA,211732.750,4305.5101,N,07739.9749,W,1,08,1.02,159.4,M,-34.4,M,,*5A
$GPRMC,211733.000,A,4305.5117,N,07739.9740,W,23.99,23.09,060525,,,A*74
$GPGGA,211733.250,4305.5132,N,07739.9732,W,1,08,1.02,159.5,M,-34.4,M,,*53
$GPRMC,211733.500,A,4305.5146,N,07739.9724,W,23.39,22.26,060525,,,A*71
$GPGGA,211733.750,4305.5161,N,07739.9716,W,1,08,1.02,159.7,M,-34.4,M,,*54
$GPRMC,211734.000,A,4305.5176,N,07739.9708,W,22.82,21.70,060525,,,A*7F
$GPGGA,211734.250,4305.5191,N,07739.9700,W,1,08,1.02,159.9,M,-34.4,M,,*50
$GPRMC,211734.500,A,4305.5205,N,07739.9692,W,22.39,21.22,060525,,,A*78
$GPGGA,211734.750,4305.5220,N,07739.9685,W,1,08,1.02,160.0,M,-34.4,M,,*53
$GPRMC,211735.000,A,4305.5233,N,07739.9678,W,21.80,20.51,060525,,,A*79
$GPGGA,211735.250,4305.5247,N,07739.9671,W,1,08,1.02,160.2,M,-34.4,M,,*5F
$GPRMC,211735.500,A,4305.5261,N,07739.9664,W,21.31,20.36,060525,,,A*7D
$GPGGA,211735.750,4305.5275,N,07739.9657,W,1,08,1.02,160.4,M,-34.4,M,,*59
$GPRMC,211736.000,A,4305.5288,N,07739.9650,W,20.79,20.89,060525,,,A*72
$GPGGA,211736.250,4305.5301,N,07739.9643,W,1,08,1.02,160.5,M,-34.4,M,,*59
$GPRMC,211736.500,A,4305.5315,N,07739.9635,W,20.61,21.25,060525,,,A*7F
$GPGGA,211736.750,4305.5329,N,07739.9628,W,1,08,1.02,160.6,M,-34.4,M,,*58
$GPRMC,211737.000,A,4305.5342,N,07739.9621,W,20.43,21.35,060525,,,A*7D
$GPGGA,211737.250,4305.5355,N,07739.9614,W,1,08,1.02,160.7,M,-34.4,M,,*59
$GPRMC,211737.500,A,4305.5368,N,07739.9607,W,20.23,22.03,060525,,,A*74
$GPGGA,211737.750,4305.5381,N,07739.9600,W,1,08,1.02,160.5,M,-34.4,M,,*52
$GPRMC,211738.000,A,4305.5394,N,07739.9592,W,19.75,22.62,060525,,,A*7C
$GPGGA,211738.250,4305.5406,N,07739.9585,W,1,08,1.02,160.4,M,-34.4,M,,*5F
$GPRMC,211738.500,A,4305.5418,N,07739.9578,W,19.05,22.47,060525,,,A*7E
$GPGGA,211738.750,4305.5429,N,07739.9572,W,1,08,1.02,160.3,M,-34.4,M,,*58
$GPRMC,211739.000,A,4305.5440,N,07739.9566,W,17.77,21.95,060525,,,A*7F
$GPGGA,211739.250,4305.5451,N,07739.9561,W,1,08,1.02,160.4,M,-34.4,M,,*56
$GPRMC,211739.500,A,4305.5460,N,07739.9556,W,16.15,21.58,060525,,,A*7F
$GPGGA,211739.750,4305.5468,N,07739.9552,W,1,08,1.02,160.3,M,-34.4,M,,*5E
$GPRMC,211740.000,A,4305.5475,N,07739.9549,W,13.61,22.06,060525,,,A*70
$GPGGA,211740.250,4305.5481,N,07739.9545,W,1,08,1.02,160.1,M,-34.4,M,,*56
$GPRMC,211740.500,A,4305.5487,N,07739.9543,W,11.58,22.09,060525,,,A*75
$GPGGA,211740.750,4305.5491,N,07739.9540,W,1,08,1.02,159.9,M,-34.4,M,,*55
$GPRMC,211741.000,A,4305.5495,N,07739.9538,W,9.61,22.07,060525,,,A*43
$GPGGA,211741.250,4305.5499,N,07739.9536,W,1,08,1.02,159.8,M,-34.4,M,,*59
$GPRMC,211741.500,A,4305.5502,N,07739.9534,W,7.68,20.59,060525,,,A*4B
$GPGGA,211741.750,4305.5505,N,07739.9533,W,1,08,1.02,159.7,M,-34.4,M,,*52
$GPRMC,211742.000,A,4305.5506,N,07739.9532,W,5.79,21.69,060525,,,A*4F
$GPGGA,211742.250,4305.5508,N,07739.9531,W,1,08,1.02,159.5,M,-34.4,M,,*59
$GPRMC,211742.500,A,4305.5508,N,07739.9531,W,3.81,21.96,060525,,,A*46
$GPGGA,211742.750,4305.5508,N,07739.9530,W,1,08,0.99,159.4,M,-34.4,M,,*5F
$GPRMC,211743.000,A,4305.5508,N,07739.9530,W,2.13,23.05,060525,,,A*41
$GPGGA,211743.250,4305.5507,N,07739.9529,W,1,08,0.99,159.5,M,-34.4,M,,*5D
$GPRMC,211748.000,A,4305.5511,N,07739.9525,W,3.06,32.49,060525,,,A*4B
$GPGGA,211748.250,4305.5513,N,07739.9522,W,1,08,0.99,161.3,M,-34.4,M,,*55
$GPRMC,211748.500,A,4305.5515,N,07739.9518,W,4.23,49.05,060525,,,A*40
$GPGGA,211748.750,4305.5517,N,07739.9513,W,1,08,1.02,161.3,M,-34.4,M,,*55
$GPRMC,211749.000,A,4305.5521,N,07739.9507,W,6.66,54.30,060525,,,A*44
$GPGGA,211749.250,4305.5524,N,07739.9502,W,1,08,0.99,161.3,M,-34.4,M,,*52
$GPRMC,211749.500,A,4305.5527,N,07739.9491,W,9.65,60.04,060525,,,A*45
$GPGGA,211749.750,4305.5531,N,07739.9480,W,1,08,1.02,161.3,M,-34.4,M,,*5B
$GPRMC,211750.000,A,4305.5533,N,07739.9467,W,12.44,65.31,060525,,,A*7E
$GPGGA,211750.250,4305.5533,N,07739.9453,W,1,08,0.99,161.3,M,-34.4,M,,*59
$GPRMC,211750.500,A,4305.5534,N,07739.9439,W,14.34,72.83,060525,,,A*79
$GPGGA,211750.750,4305.5535,N,07739.9424,W,1,08,1.02,161.5,M,-34.4,M,,*5F
$GPRMC,211751.000,A,4305.5535,N,07739.9408,W,16.96,81.49,060525,,,A*7E
$GPGGA,211751.250,4305.5536,N,07739.9390,W,1,08,1.02,161.6,M,-34.4,M,,*53
$GPRMC,211751.500,A,4305.5537,N,07739.9371,W,19.21,83.41,060525,,,A*79
$GPGGA,211751.750,4305.5538,N,07739.9351,W,1,08,1.02,161.8,M,-34.4,M,,*5B
$GPRMC,211752.000,A,4305.5539,N,07739.9330,W,21.44,83.18,060525,,,A*70
$GPGGA,211752.250,4305.5541,N,07739.9308,W,1,08,1.02,162.0,M,-34.4,M,,*54
$GPRMC,211752.500,A,4305.5542,N,07739.9286,W,23.08,83.71,060525,,,A*70
$GPGGA,211752.750,4305.5544,N,07739.9262,W,1,08,1.02,162.3,M,-34.4,M,,*5A
$GPRMC,211753.000,A,4305.5545,N,07739.9239,W,24.41,83.51,060525,,,A*7F
$GPGGA,211753.250,4305.5547,N,07739.9215,W,1,08,1.02,162.5,M,-34.4,M,,*5B
$GPRMC,211753.500,A,4305.5549,N,07739.9190,W,25.37,83.86,060525,,,A*7C
$GPGGA,211753.750,4305.5551,N,07739.9165,W,1,08,1.02,162.7,M,-34.4,M,,*5F
$GPRMC,211754.000,A,4305.5553,N,07739.9139,W,26.25,83.88,060525,,,A*78
$GPGGA,211754.250,4305.5555,N,07739.9113,W,1,08,1.02,162.9,M,-34.4,M,,*56
$GPRMC,211754.500,A,4305.5556,N,07739.9087,W,27.03,84.47,060525,,,A*7D
