Vers 72
USE_SERIAL_FEEDBACK=true
DEVELOPMENT_MODE=false
USE_RMC_ONLY=false

$GPRMC,134738.250,A,4308.4721,N,07726.4383,W,0.06,19.99,060525,,,A*4C
$GPGGA,134738.500,4308.4721,N,07726.4383,W,1,07,1.57,148.2,M,-34.4,M,,*53
$GPRMC,134738.750,A,4308.4720,N,07726.4383,W,0.03,91.95,060525,,,A*41
$GPGGA,134739.000,4308.4720,N,07726.4383,W,1,07,1.57,148.2,M,-34.4,M,,*56
$GPRMC,134811.500,A,4308.4731,N,07726.4393,W,3.22,273.00,060525,,,A*71
$GPGGA,134811.750,4308.4731,N,07726.4398,W,1,08,1.26,148.7,M,-34.4,M,,*57
$GPRMC,134812.000,A,4308.4732,N,07726.4406,W,6.55,273.73,060525,,,A*7E
$GPGGA,134812.250,4308.4733,N,07726.4416,W,1,08,1.51,148.9,M,-34.4,M,,*5C
$GPRMC,134812.500,A,4308.4734,N,07726.4428,W,10.06,277.95,060525,,,A*4C
$GPGGA,134812.750,4308.4735,N,07726.4440,W,1,08,1.51,149.0,M,-34.4,M,,*54
$GPRMC,134813.000,A,4308.4737,N,07726.4453,W,12.63,277.03,060525,,,A*49
$GPGGA,134813.250,4308.4738,N,07726.4467,W,1,08,1.51,149.3,M,-34.4,M,,*5B
$GPRMC,134813.500,A,4308.4739,N,07726.4482,W,14.20,277.44,060525,,,A*4C
$GPGGA,134813.750,4308.4740,N,07726.4497,W,1,08,1.51,149.5,M,-34.4,M,,*58
$GPRMC,134814.000,A,4308.4742,N,07726.4513,W,15.79,277.45,060525,,,A*47
$GPGGA,134814.250,4308.4744,N,07726.4529,W,1,08,1.51,149.7,M,-34.4,M,,*58
$GPRMC,134814.500,A,4308.4746,N,07726.4545,W,16.72,278.37,060525,,,A*47
$GPGGA,134814.750,4308.4747,N,07726.4563,W,1,08,1.51,149.8,M,-34.4,M,,*5F
$GPRMC,134815.000,A,4308.4749,N,07726.4581,W,18.23,278.35,060525,,,A*4C
$GPGGA,134815.250,4308.4751,N,07726.4600,W,1,08,1.51,150.0,M,-34.4,M,,*5A
$GPRMC,134815.500,A,4308.4753,N,07726.4620,W,19.67,278.67,060525,,,A*4C
$GPGGA,134815.750,4308.4755,N,07726.4640,W,1,08,1.51,150.2,M,-34.4,M,,*5D
$GPRMC,134816.000,A,4308.4757,N,07726.4662,W,21.40,278.24,060525,,,A*41
$GPGGA,134816.250,4308.4760,N,07726.4684,W,1,08,1.51,150.4,M,-34.4,M,,*53
$GPRMC,134816.500,A,4308.4762,N,07726.4707,W,23.14,278.25,060525,,,A*42
$GPGGA,134816.750,4308.4764,N,07726.4731,W,1,08,1.51,150.6,M,-34.4,M,,*5F
$GPRMC,134817.000,A,4308.4766,N,07726.4755,W,24.53,277.27,060525,,,A*4C
$GPGGA,134817.250,4308.4768,N,07726.4780,W,1,08,1.51,150.8,M,-34.4,M,,*53
$GPRMC,134817.500,A,4308.4771,N,07726.4805,W,25.55,277.36,060525,,,A*42
$GPGGA,134817.750,4308.4773,N,07726.4831,W,1,08,1.51,151.0,M,-34.4,M,,*50
$GPRMC,134818.000,A,4308.4775,N,07726.4857,W,26.89,277.02,060525,,,A*4E
$GPGGA,134818.250,4308.4777,N,07726.4884,W,1,08,1.51,151.2,M,-34.4,M,,*52
$GPRMC,134818.500,A,4308.4780,N,07726.4912,W,28.18,276.77,060525,,,A*44
$GPGGA,134818.750,4308.4782,N,07726.4940,W,1,08,1.51,151.3,M,-34.4,M,,*55
$GPRMC,134819.000,A,4308.4784,N,07726.4968,W,29.41,276.28,060525,,,A*4E
$GPGGA,134819.250,4308.4787,N,07726.4998,W,1,08,1.51,151.5,M,-34.4,M,,*57
$GPRMC,134819.500,A,4308.4789,N,07726.5028,W,30.81,276.34,060525,,,A*43
$GPGGA,134819.750,4308.4791,N,07726.5059,W,1,08,1.51,151.7,M,-34.4,M,,*52
$GPRMC,134820.000,A,4308.4793,N,07726.5090,W,32.13,275.75,060525,,,A*4B
$GPGGA,134820.250,4308.4795,N,07726.5122,W,1,08,1.51,151.9,M,-34.4,M,,*5A
$GPRMC,134820.500,A,4308.4798,N,07726.5154,W,33.25,275.18,060525,,,A*43
$GPGGA,134820.750,4308.4799,N,07726.5187,W,1,08,1.51,152.2,M,-34.4,M,,*54
$GPRMC,134821.000,A,4308.4801,N,07726.5221,W,34.42,274.53,060525,,,A*41
$GPGGA,134821.250,4308.4803,N,07726.5255,W,1,08,1.51,152.5,M,-34.4,M,,*57
$GPRMC,134821.500,A,4308.4805,N,07726.5290,W,35.52,274.25,060525,,,A*4B
$GPGGA,134821.750,4308.4807,N,07726.5325,W,1,08,1.51,152.7,M,-34.4,M,,*52
$GPRMC,134822.000,A,4308.4808,N,07726.5360,W,36.44,273.32,060525,,,A*4B
$GPGGA,134822.250,4308.4809,N,07726.5396,W,1,08,1.51,153.0,M,-34.4,M,,*54
$GPRMC,134822.500,A,4308.4811,N,07726.5432,W,36.84,273.05,060525,,,A*4E
$GPGGA,134822.750,4308.4812,N,07726.5468,W,1,08,1.51,153.2,M,-34.4,M,,*5F
$GPRMC,134823.000,A,4308.4813,N,07726.5504,W,37.21,272.69,060525,,,A*49
$GPGGA,134823.250,4308.4814,N,07726.5542,W,1,08,1.51,153.3,M,-34.4,M,,*55
$GPRMC,134823.500,A,4308.4816,N,07726.5579,W,37.49,272.97,060525,,,A*4C
$GPGGA,134823.750,4308.4817,N,07726.5617,W,1,08,1.51,153.5,M,-34.4,M,,*56
$GPRMC,134824.000,A,4308.4819,N,07726.5655,W,39.16,272.89,060525,,,A*47
$GPGGA,134824.250,4308.4820,N,07726.5694,W,1,08,1.51,153.6,M,-34.4,M,,*58
$GPRMC,134824.500,A,4308.4821,N,07726.5733,W,40.10,272.80,060525,,,A*49
$GPGGA,134824.750,4308.4822,N,07726.5772,W,1,08,1.51,153.7,M,-34.4,M,,*57
$GPRMC,134825.000,A,4308.4824,N,07726.5811,W,40.62,272.30,060525,,,A*49
$GPGGA,134825.250,4308.4825,N,07726.5850,W,1,08,1.51,153.6,M,-34.4,M,,*5A
$GPRMC,134825.500,A,4308.4827,N,07726.5890,W,41.11,272.62,060525,,,A*44
$GPGGA,134825.750,4308.4828,N,07726.5930,W,1,08,1.51,153.8,M,-34.4,M,,*5B
$GPRMC,134826.000,A,4308.4829,N,07726.5970,W,41.38,272.28,060525,,,A*46
$GPGGA,134826.250,4308.4830,N,07726.6010,W,1,08,1.51,154.0,M,-34.4,M,,*53
$GPRMC,134826.500,A,4308.4831,N,07726.6051,W,41.59,272.21,060525,,,A*4D
$GPGGA,134826.750,4308.4832,N,07726.6092,W,1,08,1.51,154.4,M,-34.4,M,,*5A
$GPRMC,134827.000,A,4308.4833,N,07726.6133,W,41.75,272.11,060525,,,A*43
$GPGGA,134827.250,4308.4834,N,07726.6174,W,1,08,1.51,154.7,M,-34.4,M,,*52
$GPRMC,134827.500,A,4308.4835,N,07726.6215,W,41.94,271.56,060525,,,A*48
$GPGGA,134827.750,4308.4836,N,07726.6257,W,1,08,1.51,154.9,M,-34.4,M,,*59
$GPRMC,134828.000,A,4308.4836,N,07726.6298,W,42.17,270.27,060525,,,A*4B
$GPGGA,134828.250,4308.4835,N,07726.6341,W,1,08,1.51,155.2,M,-34.4,M,,*5C
$GPRMC,134828.500,A,4308.4835,N,07726.6384,W,42.43,269.33,060525,,,A*4D
$GPGGA,134828.750,4308.4834,N,07726.6427,W,1,08,1.51,155.6,M,-34.4,M,,*5B
$GPRMC,134829.000,A,4308.4833,N,07726.6469,W,42.71,268.08,060525,,,A*43
$GPGGA,134829.250,4308.4831,N,07726.6512,W,1,08,1.51,155.9,M,-34.4,M,,*52
$GPRMC,134829.500,A,4308.4830,N,07726.6556,W,44.44,267.09,060525,,,A*46
$GPGGA,134829.750,4308.4828,N,07726.6599,W,1,08,1.51,156.3,M,-34.4,M,,*55
$GPRMC,134830.000,A,4308.4825,N,07726.6643,W,44.90,266.36,060525,,,A*4C
$GPGGA,134830.250,4308.4823,N,07726.6687,W,1,08,1.51,156.7,M,-34.4,M,,*5B
$GPRMC,134830.500,A,4308.4821,N,07726.6731,W,45.18,265.74,060525,,,A*4D
$GPGGA,134830.750,4308.4818,N,07726.6774,W,1,08,1.51,157.1,M,-34.4,M,,*5C
$GPRMC,134831.000,A,4308.4816,N,07726.6818,W,45.66,265.32,060525,,,A*42
$GPGGA,134831.250,4308.4813,N,07726.6861,W,1,08,1.51,157.5,M,-34.4,M,,*5C
$GPRMC,134831.500,A,4308.4810,N,07726.6905,W,45.68,265.11,060525,,,A*43
$GPGGA,134831.750,4308.4808,N,07726.6948,W,1,08,1.51,157.9,M,-34.4,M,,*55
$GPRMC,134832.000,A,4308.4805,N,07726.6991,W,45.30,265.15,060525,,,A*45
$GPGGA,134832.250,4308.4803,N,07726.7034,W,1,08,1.51,158.2,M,-34.4,M,,*5F
$GPRMC,134832.500,A,4308.4800,N,07726.7077,W,45.21,265.42,060525,,,A*47
$GPGGA,134832.750,4308.4798,N,07726.7119,W,1,08,1.51,158.7,M,-34.4,M,,*5C
$GPRMC,134833.000,A,4308.4795,N,07726.7161,W,44.94,265.72,060525,,,A*4A
$GPGGA,134833.250,4308.4793,N,07726.7203,W,1,08,1.51,159.2,M,-34.4,M,,*5F
$GPRMC,134833.500,A,4308.4791,N,07726.7246,W,44.22,265.89,060525,,,A*44
$GPGGA,134833.750,4308.4789,N,07726.7288,W,1,08,1.51,159.6,M,-34.4,M,,*56
$GPRMC,134834.000,A,4308.4787,N,07726.7329,W,43.69,266.25,060525,,,A*44
$GPGGA,134834.250,4308.4785,N,07726.7371,W,1,08,1.51,160.0,M,-34.4,M,,*53
$GPRMC,134834.500,A,4308.4783,N,07726.7412,W,43.39,266.12,060525,,,A*4B
$GPGGA,134834.750,4308.4780,N,07726.7454,W,1,08,1.51,160.4,M,-34.4,M,,*57
$GPRMC,134835.000,A,4308.4779,N,07726.7496,W,42.89,266.49,060525,,,A*42
$GPGGA,134835.250,4308.4777,N,07726.7537,W,1,08,1.51,160.7,M,-34.4,M,,*5C
$GPRMC,134835.500,A,4308.4775,N,07726.7577,W,42.37,266.20,060525,,,A*4F
$GPGGA,134835.750,4308.4773,N,07726.7618,W,1,08,1.51,160.9,M,-34.4,M,,*5D
$GPRMC,134836.000,A,4308.4771,N,07726.7658,W,41.85,266.33,060525,,,A*4B
$GPGGA,134836.250,4308.4769,N,07726.7698,W,1,08,1.51,161.1,M,-34.4,M,,*51
$GPRMC,134836.500,A,4308.4767,N,07726.7737,W,41.42,266.15,060525,,,A*4E
$GPGGA,134836.750,4308.4765,N,07726.7777,W,1,08,1.51,161.3,M,-34.4,M,,*5A
$GPRMC,134837.000,A,4308.4763,N,07726.7816,W,40.92,266.35,060525,,,A*4C
$GPGGA,134837.250,4308.4762,N,07726.7854,W,1,08,1.51,161.5,M,-34.4,M,,*51
$GPRMC,134837.500,A,4308.4760,N,07726.7893,W,40.51,265.66,060525,,,A*4D
$GPGGA,134837.750,4308.4758,N,07726.7931,W,1,08,1.51,161.6,M,-34.4,M,,*5C
$GPRMC,134838.000,A,4308.4755,N,07726.7970,W,40.71,264.97,060525,,,A*40
$GPGGA,134838.250,4308.4753,N,07726.8008,W,1,08,1.51,161.6,M,-34.4,M,,*51
$GPRMC,134838.500,A,4308.4749,N,07726.8047,W,40.72,264.47,060525,,,A*44
$GPGGA,134838.750,4308.4746,N,07726.8086,W,1,08,1.51,161.8,M,-34.4,M,,*58
$GPRMC,134839.000,A,4308.4744,N,07726.8124,W,40.78,264.48,060525,,,A*4C
$GPGGA,134839.250,4308.4741,N,07726.8163,W,1,08,1.51,161.9,M,-34.4,M,,*50
$GPRMC,134839.500,A,4308.4738,N,07726.8201,W,40.75,264.52,060525,,,A*40
$GPGGA,134839.750,4308.4735,N,07726.8239,W,1,08,1.51,161.9,M,-34.4,M,,*5A
$GPRMC,134840.000,A,4308.4733,N,07726.8278,W,40.71,264.70,060525,,,A*4A
$GPGGA,134840.250,4308.4730,N,07726.8316,W,1,08,1.51,162.0,M,-34.4,M,,*52
$GPRMC,134840.500,A,4308.4728,N,07726.8355,W,40.72,265.04,060525,,,A*4A
$GPGGA,134840.750,4308.4725,N,07726.8394,W,1,08,1.51,162.0,M,-34.4,M,,*59
$GPRMC,134841.000,A,4308.4723,N,07726.8432,W,40.69,265.44,060525,,,A*4D
$GPGGA,134841.250,4308.4721,N,07726.8471,W,1,08,1.51,162.0,M,-34.4,M,,*55
$GPRMC,134841.500,A,4308.4719,N,07726.8509,W,40.67,265.96,060525,,,A*49
$GPGGA,134841.750,4308.4717,N,07726.8548,W,1,08,1.51,162.1,M,-34.4,M,,*5F
$GPRMC,134842.000,A,4308.4714,N,07726.8587,W,40.63,265.77,060525,,,A*4F
$GPGGA,134842.250,4308.4712,N,07726.8625,W,1,08,1.51,162.3,M,-34.4,M,,*56
$GPRMC,134842.500,A,4308.4710,N,07726.8663,W,40.30,265.57,060525,,,A*43
$GPGGA,134842.750,4308.4708,N,07726.8702,W,1,08,1.51,162.0,M,-34.4,M,,*5F
$GPRMC,134843.000,A,4308.4705,N,07726.8741,W,40.33,265.18,060525,,,A*4A
$GPGGA,134843.250,4308.4703,N,07726.8781,W,1,08,1.51,161.9,M,-34.4,M,,*51
$GPRMC,134843.500,A,4308.4700,N,07726.8819,W,40.35,264.75,060525,,,A*44
$GPGGA,134843.750,4308.4697,N,07726.8858,W,1,08,1.51,161.9,M,-34.4,M,,*53
$GPRMC,134844.000,A,4308.4694,N,07726.8896,W,40.12,264.43,060525,,,A*4D
$GPGGA,134844.250,4308.4692,N,07726.8934,W,1,08,1.51,161.5,M,-34.4,M,,*53
$GPRMC,134844.500,A,4308.4689,N,07726.8973,W,40.13,264.63,060525,,,A*4D
$GPGGA,134844.750,4308.4687,N,07726.9012,W,1,08,1.51,160.7,M,-34.4,M,,*5D
$GPRMC,134845.000,A,4308.4685,N,07726.9051,W,39.91,264.91,060525,,,A*44
$GPGGA,134845.250,4308.4682,N,07726.9090,W,1,08,1.51,159.9,M,-34.4,M,,*52
$GPRMC,134845.500,A,4308.4680,N,07726.9129,W,39.67,265.26,060525,,,A*4E
$GPGGA,134845.750,4308.4678,N,07726.9167,W,1,08,1.51,159.5,M,-34.4,M,,*57
$GPRMC,134846.000,A,4308.4675,N,07726.9206,W,39.45,265.41,060525,,,A*4D
$GPGGA,134846.250,4308.4673,N,07726.9243,W,1,08,1.51,159.0,M,-34.4,M,,*5A
$GPRMC,134846.500,A,4308.4671,N,07726.9281,W,39.25,265.40,060525,,,A*44
$GPGGA,134846.750,4308.4668,N,07726.9319,W,1,08,1.51,158.7,M,-34.4,M,,*5D
$GPRMC,134847.000,A,4308.4666,N,07726.9357,W,39.18,265.18,060525,,,A*4F
$GPGGA,134847.250,4308.4663,N,07726.9395,W,1,08,1.51,158.2,M,-34.4,M,,*53
$GPRMC,134847.500,A,4308.4660,N,07726.9434,W,39.24,264.92,060525,,,A*42
$GPGGA,134847.750,4308.4658,N,07726.9472,W,1,08,1.51,158.0,M,-34.4,M,,*52
$GPRMC,134848.000,A,4308.4655,N,07726.9510,W,39.29,264.89,060525,,,A*4E
$GPGGA,134848.250,4308.4652,N,07726.9548,W,1,08,1.51,157.7,M,-34.4,M,,*52
$GPRMC,134848.500,A,4308.4650,N,07726.9586,W,39.40,264.51,060525,,,A*4B
$GPGGA,134848.750,4308.4647,N,07726.9623,W,1,08,1.51,157.5,M,-34.4,M,,*5F
$GPRMC,134849.000,A,4308.4644,N,07726.9660,W,39.76,264.16,060525,,,A*47
$GPGGA,134849.250,4308.4641,N,07726.9698,W,1,08,1.51,157.3,M,-34.4,M,,*5B
$GPRMC,134849.500,A,4308.4638,N,07726.9736,W,39.93,264.41,060525,,,A*42
$GPGGA,134849.750,4308.4635,N,07726.9774,W,1,08,1.51,157.1,M,-34.4,M,,*5C
$GPRMC,134850.000,A,4308.4633,N,07726.9812,W,40.13,264.65,060525,,,A*4D
$GPGGA,134850.250,4308.4630,N,07726.9851,W,1,08,1.51,156.8,M,-34.4,M,,*54
$GPRMC,134850.500,A,4308.4627,N,07726.9890,W,40.25,264.81,060525,,,A*48
$GPGGA,134850.750,4308.4624,N,07726.9929,W,1,08,1.51,156.7,M,-34.4,M,,*55
$GPRMC,134851.000,A,4308.4622,N,07726.9968,W,40.43,265.11,060525,,,A*47
$GPGGA,134851.250,4308.4620,N,07727.0007,W,1,08,1.51,156.4,M,-34.4,M,,*5B
$GPRMC,134851.500,A,4308.4617,N,07727.0047,W,40.63,265.16,060525,,,A*4D
$GPGGA,134851.750,4308.4614,N,07727.0087,W,1,08,1.51,156.2,M,-34.4,M,,*57
$GPRMC,134852.000,A,4308.4612,N,07727.0127,W,40.88,265.30,060525,,,A*48
$GPGGA,134852.250,4308.4609,N,07727.0166,W,1,08,1.51,155.9,M,-34.4,M,,*5B
$GPRMC,134852.500,A,4308.4607,N,07727.0206,W,42.11,265.46,060525,,,A*4A
$GPGGA,134852.750,4308.4605,N,07727.0246,W,1,08,1.51,155.5,M,-34.4,M,,*5F
$GPRMC,134853.000,A,4308.4602,N,07727.0285,W,41.87,265.24,060525,,,A*48
$GPGGA,134853.250,4308.4600,N,07727.0325,W,1,08,1.51,155.1,M,-34.4,M,,*5E
$GPRMC,134853.500,A,4308.4598,N,07727.0364,W,41.77,265.90,060525,,,A*43
$GPGGA,134853.750,4308.4596,N,07727.0403,W,1,08,1.51,154.8,M,-34.4,M,,*5C
$GPRMC,134854.000,A,4308.4595,N,07727.0444,W,41.55,267.18,060525,,,A*4B
$GPGGA,134854.250,4308.4594,N,07727.0483,W,1,08,1.51,154.6,M,-34.4,M,,*5A
$GPRMC,134854.500,A,4308.4593,N,07727.0523,W,41.49,268.87,060525,,,A*4C
$GPGGA,134854.750,4308.4593,N,07727.0561,W,1,08,1.51,154.2,M,-34.4,M,,*51
$GPRMC,134855.000,A,4308.4594,N,07727.0601,W,41.51,271.18,060525,,,A*4B
$GPGGA,134855.250,4308.4595,N,07727.0639,W,1,08,1.51,153.6,M,-34.4,M,,*5E
$GPRMC,134855.500,A,4308.4596,N,07727.0678,W,41.54,271.88,060525,,,A*4E
$GPGGA,134855.750,4308.4598,N,07727.0717,W,1,08,1.51,153.1,M,-34.4,M,,*5C
$GPRMC,134856.000,A,4308.4600,N,07727.0756,W,41.33,273.47,060525,,,A*49
$GPGGA,134856.250,4308.4602,N,07727.0795,W,1,08,1.51,152.6,M,-34.4,M,,*56
$GPRMC,134856.500,A,4308.4604,N,07727.0832,W,41.25,274.13,060525,,,A*44
$GPGGA,134856.750,4308.4606,N,07727.0870,W,1,08,1.51,152.0,M,-34.4,M,,*55
$GPRMC,134857.000,A,4308.4608,N,07727.0908,W,40.87,275.08,060525,,,A*46
$GPGGA,134857.250,4308.4611,N,07727.0946,W,1,08,1.51,151.4,M,-34.4,M,,*54
$GPRMC,134857.500,A,4308.4614,N,07727.0984,W,40.50,276.16,060525,,,A*4C
$GPGGA,134857.750,4308.4617,N,07727.1022,W,1,08,1.51,151.2,M,-34.4,M,,*5B
$GPRMC,134858.000,A,4308.4621,N,07727.1060,W,39.96,276.94,060525,,,A*4C
$GPGGA,134858.250,4308.4625,N,07727.1099,W,1,08,1.51,151.1,M,-34.4,M,,*53
$GPRMC,134858.500,A,4308.4629,N,07727.1137,W,39.87,277.51,060525,,,A*4A
$GPGGA,134858.750,4308.4633,N,07727.1175,W,1,08,1.51,151.0,M,-34.4,M,,*53
$GPRMC,134859.000,A,4308.4637,N,07727.1213,W,40.16,278.01,060525,,,A*48
$GPGGA,134859.250,4308.4642,N,07727.1251,W,1,08,1.51,150.7,M,-34.4,M,,*52
$GPRMC,134859.500,A,4308.4646,N,07727.1288,W,40.10,278.62,060525,,,A*4A
$GPGGA,134859.750,4308.4651,N,07727.1326,W,1,08,1.51,150.4,M,-34.4,M,,*57
$GPRMC,134900.000,A,4308.4655,N,07727.1364,W,40.15,279.06,060525,,,A*45
$GPGGA,134900.250,4308.4660,N,07727.1401,W,1,08,1.51,150.0,M,-34.4,M,,*5B
$GPRMC,134900.500,A,4308.4664,N,07727.1438,W,40.31,279.40,060525,,,A*48
$GPGGA,134900.750,4308.4669,N,07727.1475,W,1,08,1.51,149.4,M,-34.4,M,,*58
$GPRMC,134901.000,A,4308.4674,N,07727.1513,W,40.24,279.32,060525,,,A*44
$GPGGA,134901.250,4308.4679,N,07727.1551,W,1,08,1.51,149.1,M,-34.4,M,,*5F
$GPRMC,134901.500,A,4308.4684,N,07727.1589,W,40.31,279.43,060525,,,A*4F
$GPGGA,134901.750,4308.4689,N,07727.1627,W,1,08,1.51,148.9,M,-34.4,M,,*5E
$GPRMC,134902.000,A,4308.4694,N,07727.1665,W,40.35,279.96,060525,,,A*45
$GPGGA,134902.250,4308.4699,N,07727.1703,W,1,08,1.51,148.6,M,-34.4,M,,*51
$GPRMC,134902.500,A,4308.4704,N,07727.1742,W,40.73,280.04,060525,,,A*43
$GPGGA,134902.750,4308.4709,N,07727.1780,W,1,08,1.51,148.4,M,-34.4,M,,*55
$GPRMC,134903.000,A,4308.4713,N,07727.1817,W,40.99,279.91,060525,,,A*40
$GPGGA,134903.250,4308.4718,N,07727.1854,W,1,08,1.51,147.3,M,-34.4,M,,*5F
$GPRMC,134903.500,A,4308.4722,N,07727.1893,W,41.26,278.97,060525,,,A*49
$GPGGA,134903.750,4308.4726,N,07727.1932,W,1,08,1.51,147.2,M,-34.4,M,,*57
$GPRMC,134904.000,A,4308.4730,N,07727.1971,W,41.35,278.52,060525,,,A*4E
$GPGGA,134904.250,4308.4734,N,07727.2010,W,1,08,1.51,146.9,M,-34.4,M,,*56
$GPRMC,134904.500,A,4308.4739,N,07727.2048,W,41.45,279.31,060525,,,A*41
$GPGGA,134904.750,4308.4744,N,07727.2088,W,1,08,1.51,146.4,M,-34.4,M,,*58
$GPRMC,134905.000,A,4308.4749,N,07727.2127,W,41.96,279.69,060525,,,A*49
$GPGGA,134905.250,4308.4754,N,07727.2166,W,1,08,1.51,145.9,M,-34.4,M,,*52
$GPRMC,134905.500,A,4308.4759,N,07727.2205,W,42.05,279.76,060525,,,A*49
$GPGGA,134905.750,4308.4764,N,07727.2243,W,1,08,1.51,145.2,M,-34.4,M,,*5B
$GPRMC,134906.000,A,4308.4769,N,07727.2283,W,42.30,279.65,060525,,,A*46
$GPGGA,134906.250,4308.4773,N,07727.2322,W,1,08,1.51,144.6,M,-34.4,M,,*58
$GPRMC,134906.500,A,4308.4778,N,07727.2362,W,42.61,279.74,060525,,,A*49
$GPGGA,134906.750,4308.4783,N,07727.2403,W,1,08,1.51,144.5,M,-34.4,M,,*55
$GPRMC,134907.000,A,4308.4789,N,07727.2444,W,43.12,279.50,060525,,,A*43
$GPGGA,134907.250,4308.4794,N,07727.2485,W,1,08,1.51,144.1,M,-34.4,M,,*5D
$GPRMC,134907.500,A,4308.4800,N,07727.2525,W,43.53,280.07,060525,,,A*4F
$GPGGA,134907.750,4308.4805,N,07727.2567,W,1,08,1.51,143.8,M,-34.4,M,,*5C
$GPRMC,134908.000,A,4308.4811,N,07727.2608,W,43.54,280.66,060525,,,A*49
$GPGGA,134908.250,4308.4817,N,07727.2649,W,1,08,1.51,143.4,M,-34.4,M,,*56
$GPRMC,134908.500,A,4308.4823,N,07727.2690,W,43.29,280.77,060525,,,A*46
$GPGGA,134908.750,4308.4828,N,07727.2730,W,1,08,1.51,143.2,M,-34.4,M,,*56
$GPRMC,134909.000,A,4308.4834,N,07727.2771,W,43.04,280.49,060525,,,A*48
$GPGGA,134909.250,4308.4839,N,07727.2812,W,1,08,1.51,143.1,M,-34.4,M,,*5E
$GPRMC,134909.500,A,4308.4845,N,07727.2853,W,42.50,280.66,060525,,,A*49
$GPGGA,134909.750,4308.4850,N,07727.2893,W,1,08,1.51,143.1,M,-34.4,M,,*5D
$GPRMC,134910.000,A,4308.4855,N,07727.2933,W,42.00,279.99,060525,,,A*41
$GPGGA,134910.250,4308.4860,N,07727.2972,W,1,08,1.51,143.0,M,-34.4,M,,*5C
$GPRMC,134910.500,A,4308.4864,N,07727.3012,W,41.64,279.32,060525,,,A*4D
$GPGGA,134910.750,4308.4869,N,07727.3052,W,1,08,1.51,143.0,M,-34.4,M,,*5A
$GPRMC,134911.000,A,4308.4874,N,07727.3091,W,41.42,279.33,060525,,,A*46
$GPGGA,134911.250,4308.4878,N,07727.3130,W,1,08,1.51,143.0,M,-34.4,M,,*5B
$GPRMC,134911.500,A,4308.4883,N,07727.3170,W,41.10,279.42,060525,,,A*44
$GPGGA,134911.750,4308.4888,N,07727.3209,W,1,08,1.51,143.0,M,-34.4,M,,*58
$GPRMC,134912.000,A,4308.4892,N,07727.3247,W,40.51,279.29,060525,,,A*4C
$GPGGA,134912.250,4308.4897,N,07727.3285,W,1,08,1.51,142.9,M,-34.4,M,,*5C
$GPRMC,134912.500,A,4308.4902,N,07727.3323,W,39.88,279.58,060525,,,A*4E
$GPGGA,134912.750,4308.4907,N,07727.3361,W,1,08,1.51,142.7,M,-34.4,M,,*54
$GPRMC,134913.000,A,4308.4912,N,07727.3399,W,40.05,279.99,060525,,,A*4C
$GPGGA,134913.250,4308.4917,N,07727.3436,W,1,08,1.51,142.4,M,-34.4,M,,*57
$GPRMC,134913.500,A,4308.4922,N,07727.3474,W,40.03,280.21,060525,,,A*4D
$GPGGA,134913.750,4308.4927,N,07727.3511,W,1,08,1.51,141.6,M,-34.4,M,,*54
$GPRMC,134914.000,A,4308.4933,N,07727.3548,W,39.68,280.21,060525,,,A*42
$GPGGA,134914.250,4308.4939,N,07727.3584,W,1,08,1.51,140.7,M,-34.4,M,,*55
$GPRMC,134914.500,A,4308.4944,N,07727.3621,W,39.70,280.88,060525,,,A*41
$GPGGA,134914.750,4308.4950,N,07727.3657,W,1,08,1.51,140.1,M,-34.4,M,,*54
$GPRMC,134915.000,A,4308.4956,N,07727.3694,W,39.56,281.43,060525,,,A*4A
$GPGGA,134915.250,4308.4961,N,07727.3731,W,1,08,1.51,139.5,M,-34.4,M,,*59
$GPRMC,134915.500,A,4308.4967,N,07727.3768,W,39.07,281.27,060525,,,A*49
$GPGGA,134915.750,4308.4972,N,07727.3804,W,1,08,1.51,138.9,M,-34.4,M,,*5A
$GPRMC,134916.000,A,4308.4977,N,07727.3841,W,39.02,281.01,060525,,,A*4B
$GPGGA,134916.250,4308.4982,N,07727.3876,W,1,08,1.51,138.5,M,-34.4,M,,*5A
$GPRMC,134916.500,A,4308.4988,N,07727.3912,W,38.77,281.15,060525,,,A*4F
$GPGGA,134916.750,4308.4992,N,07727.3948,W,1,08,1.51,137.9,M,-34.4,M,,*51
$GPRMC,134917.000,A,4308.4997,N,07727.3983,W,37.88,280.84,060525,,,A*4B
$GPGGA,134917.250,4308.5002,N,07727.4018,W,1,08,1.51,137.4,M,-34.4,M,,*52
$GPRMC,134917.500,A,4308.5007,N,07727.4053,W,37.66,280.65,060525,,,A*43
$GPGGA,134917.750,4308.5013,N,07727.4089,W,1,08,1.26,136.8,M,-34.4,M,,*52
$GPRMC,134918.000,A,4308.5018,N,07727.4124,W,37.86,280.51,060525,,,A*4F
$GPGGA,134918.250,4308.5023,N,07727.4159,W,1,08,1.51,136.8,M,-34.4,M,,*57
$GPRMC,134918.500,A,4308.5028,N,07727.4194,W,37.46,280.57,060525,,,A*48
$GPGGA,134918.750,4308.5033,N,07727.4229,W,1,08,1.51,136.6,M,-34.4,M,,*59
$GPRMC,134919.000,A,4308.5038,N,07727.4263,W,37.23,279.92,060525,,,A*4A
$GPGGA,134919.250,4308.5043,N,07727.4298,W,1,08,1.51,136.6,M,-34.4,M,,*50
$GPRMC,134919.500,A,4308.5048,N,07727.4333,W,37.21,279.74,060525,,,A*46
$GPGGA,134919.750,4308.5052,N,07727.4367,W,1,08,1.51,136.6,M,-34.4,M,,*54
$GPRMC,134920.000,A,4308.5057,N,07727.4402,W,37.03,279.68,060525,,,A*4F
$GPGGA,134920.250,4308.5061,N,07727.4435,W,1,08,1.51,136.7,M,-34.4,M,,*5A
$GPRMC,134920.500,A,4308.5066,N,07727.4470,W,36.63,279.93,060525,,,A*4E
$GPGGA,134920.750,4308.5070,N,07727.4504,W,1,08,1.51,136.9,M,-34.4,M,,*52
$GPRMC,134921.000,A,4308.5073,N,07727.4538,W,36.42,278.81,060525,,,A*42
$GPGGA,134921.250,4308.5077,N,07727.4571,W,1,08,1.51,137.0,M,-34.4,M,,*5B
$GPRMC,134921.500,A,4308.5080,N,07727.4605,W,36.19,278.21,060525,,,A*42
$GPGGA,134921.750,4308.5084,N,07727.4639,W,1,08,1.51,137.1,M,-34.4,M,,*5C
$GPRMC,134922.000,A,4308.5088,N,07727.4672,W,35.91,278.75,060525,,,A*4E
$GPGGA,134922.250,4308.5091,N,07727.4705,W,1,08,1.51,137.1,M,-34.4,M,,*50
$GPRMC,134922.500,A,4308.5095,N,07727.4738,W,35.33,279.02,060525,,,A*41
$GPGGA,134922.750,4308.5098,N,07727.4772,W,1,08,1.51,137.3,M,-34.4,M,,*5E
$GPRMC,134923.000,A,4308.5102,N,07727.4805,W,35.08,279.04,060525,,,A*45
$GPGGA,134923.250,4308.5106,N,07727.4838,W,1,08,1.51,137.4,M,-34.4,M,,*5A
$GPRMC,134923.500,A,4308.5110,N,07727.4870,W,34.91,279.42,060525,,,A*42
$GPGGA,134923.750,4308.5114,N,07727.4902,W,1,08,1.51,137.3,M,-34.4,M,,*53
$GPRMC,134924.000,A,4308.5118,N,07727.4933,W,33.57,280.17,060525,,,A*45
$GPGGA,134924.250,4308.5123,N,07727.4964,W,1,08,1.51,137.2,M,-34.4,M,,*54
$GPRMC,134924.500,A,4308.5127,N,07727.4994,W,32.84,280.61,060525,,,A*4F
$GPGGA,134924.750,4308.5131,N,07727.5024,W,1,08,1.51,137.0,M,-34.4,M,,*5C
$GPRMC,134925.000,A,4308.5135,N,07727.5053,W,31.97,279.93,060525,,,A*41
$GPGGA,134925.250,4308.5139,N,07727.5083,W,1,08,1.51,136.7,M,-34.4,M,,*5B
$GPRMC,134925.500,A,4308.5143,N,07727.5112,W,31.54,280.17,060525,,,A*44
$GPGGA,134925.750,4308.5146,N,07727.5141,W,1,08,1.51,136.4,M,-34.4,M,,*5A
$GPRMC,134926.000,A,4308.5150,N,07727.5170,W,31.27,279.45,060525,,,A*41
$GPGGA,134926.250,4308.5153,N,07727.5198,W,1,08,1.51,136.1,M,-34.4,M,,*59
$GPRMC,134926.500,A,4308.5157,N,07727.5227,W,31.14,279.14,060525,,,A*46
$GPGGA,134926.750,4308.5161,N,07727.5256,W,1,08,1.51,135.9,M,-34.4,M,,*57
$GPRMC,134927.000,A,4308.5164,N,07727.5285,W,31.11,279.63,060525,,,A*4F
$GPGGA,134927.250,4308.5168,N,07727.5314,W,1,08,1.51,135.5,M,-34.4,M,,*51
$GPRMC,134927.500,A,4308.5171,N,07727.5342,W,31.09,279.97,060525,,,A*46
$GPGGA,134927.750,4308.5174,N,07727.5371,W,1,08,1.26,135.1,M,-34.4,M,,*5E
$GPRMC,134928.000,A,4308.5178,N,07727.5399,W,30.65,280.21,060525,,,A*43
$GPGGA,134928.250,4308.5182,N,07727.5428,W,1,08,1.51,134.9,M,-34.4,M,,*5F
$GPRMC,134928.500,A,4308.5185,N,07727.5456,W,30.40,280.28,060525,,,A*4E
$GPGGA,134928.750,4308.5189,N,07727.5484,W,1,08,1.51,134.9,M,-34.4,M,,*57
$GPRMC,134929.000,A,4308.5192,N,07727.5513,W,30.29,279.76,060525,,,A*4E
$GPGGA,134929.250,4308.5195,N,07727.5542,W,1,08,1.51,134.8,M,-34.4,M,,*54
$GPRMC,134929.500,A,4308.5199,N,07727.5570,W,29.99,279.94,060525,,,A*4A
$GPGGA,134929.750,4308.5202,N,07727.5598,W,1,08,1.51,134.5,M,-34.4,M,,*56
$GPRMC,134930.000,A,4308.5205,N,07727.5626,W,29.64,279.25,060525,,,A*49
$GPGGA,134930.250,4308.5209,N,07727.5653,W,1,08,1.51,134.1,M,-34.4,M,,*50
$GPRMC,134930.500,A,4308.5212,N,07727.5680,W,28.99,279.45,060525,,,A*43
$GPGGA,134930.750,4308.5215,N,07727.5707,W,1,08,1.51,133.8,M,-34.4,M,,*56
$GPRMC,134931.000,A,4308.5218,N,07727.5733,W,28.58,279.51,060525,,,A*4C
$GPGGA,134931.250,4308.5221,N,07727.5760,W,1,08,1.51,133.6,M,-34.4,M,,*5A
$GPRMC,134931.500,A,4308.5224,N,07727.5787,W,28.31,279.79,060525,,,A*4C
$GPGGA,134931.750,4308.5227,N,07727.5814,W,1,08,1.51,133.4,M,-34.4,M,,*57
$GPRMC,134932.000,A,4308.5230,N,07727.5841,W,28.30,279.96,060525,,,A*4A
$GPGGA,134932.250,4308.5233,N,07727.5867,W,1,08,1.51,133.3,M,-34.4,M,,*57
$GPRMC,134932.500,A,4308.5237,N,07727.5892,W,27.90,279.91,060525,,,A*44
$GPGGA,134932.750,4308.5240,N,07727.5918,W,1,08,1.51,133.0,M,-34.4,M,,*5C
$GPRMC,134933.000,A,4308.5243,N,07727.5944,W,27.89,279.73,060525,,,A*4D
$GPGGA,134933.250,4308.5246,N,07727.5970,W,1,08,1.51,132.6,M,-34.4,M,,*57
$GPRMC,134933.500,A,4308.5249,N,07727.5996,W,27.89,279.66,060525,,,A*49
$GPGGA,134933.750,4308.5252,N,07727.6022,W,1,08,1.51,132.4,M,-34.4,M,,*58
$GPRMC,134934.000,A,4308.5255,N,07727.6048,W,27.89,279.21,060525,,,A*4C
$GPGGA,134934.250,4308.5258,N,07727.6074,W,1,08,1.51,132.0,M,-34.4,M,,*57
$GPRMC,134934.500,A,4308.5262,N,07727.6101,W,28.09,279.12,060525,,,A*46
$GPGGA,134934.750,4308.5264,N,07727.6127,W,1,08,1.51,131.8,M,-34.4,M,,*51
$GPRMC,134935.000,A,4308.5268,N,07727.6153,W,27.92,279.10,060525,,,A*40
$GPGGA,134935.250,4308.5271,N,07727.6180,W,1,08,1.51,131.5,M,-34.4,M,,*51
$GPRMC,134935.500,A,4308.5274,N,07727.6206,W,27.98,278.96,060525,,,A*4E
$GPGGA,134935.750,4308.5277,N,07727.6232,W,1,08,1.51,131.3,M,-34.4,M,,*5E
$GPRMC,134936.000,A,4308.5280,N,07727.6258,W,28.43,277.29,060525,,,A*4A
$GPGGA,134936.250,4308.5283,N,07727.6284,W,1,08,1.51,131.2,M,-34.4,M,,*5F
$GPRMC,134936.500,A,4308.5285,N,07727.6311,W,28.78,277.02,060525,,,A*47
$GPGGA,134936.750,4308.5288,N,07727.6338,W,1,08,1.51,131.3,M,-34.4,M,,*56
$GPRMC,134937.000,A,4308.5290,N,07727.6364,W,28.89,276.92,060525,,,A*43
$GPGGA,134937.250,4308.5292,N,07727.6391,W,1,08,1.51,131.5,M,-34.4,M,,*5C
$GPRMC,134937.500,A,4308.5295,N,07727.6418,W,28.98,276.98,060525,,,A*45
$GPGGA,134937.750,4308.5297,N,07727.6445,W,1,08,1.51,131.6,M,-34.4,M,,*51
$GPRMC,134938.000,A,4308.5300,N,07727.6472,W,29.08,277.39,060525,,,A*4C
$GPGGA,134938.250,4308.5302,N,07727.6499,W,1,08,1.51,131.6,M,-34.4,M,,*57
$GPRMC,134938.500,A,4308.5305,N,07727.6526,W,29.41,277.15,060525,,,A*4F
$GPGGA,134938.750,4308.5307,N,07727.6554,W,1,08,1.51,131.7,M,-34.4,M,,*56
$GPRMC,134939.000,A,4308.5308,N,07727.6582,W,29.35,276.50,060525,,,A*4B
$GPGGA,134939.250,4308.5310,N,07727.6610,W,1,08,1.51,131.8,M,-34.4,M,,*58
$GPRMC,134939.500,A,4308.5312,N,07727.6637,W,29.23,275.99,060525,,,A*49
$GPGGA,134939.750,4308.5314,N,07727.6665,W,1,08,1.51,132.0,M,-34.4,M,,*50
$GPRMC,134940.000,A,4308.5316,N,07727.6693,W,29.06,276.13,060525,,,A*4E
$GPGGA,134940.250,4308.5317,N,07727.6721,W,1,08,1.51,132.3,M,-34.4,M,,*5A
$GPRMC,134940.500,A,4308.5319,N,07727.6748,W,28.88,276.15,060525,,,A*42
$GPGGA,134940.750,4308.5321,N,07727.6775,W,1,08,1.51,132.5,M,-34.4,M,,*5D
$GPRMC,134941.000,A,4308.5322,N,07727.6802,W,28.68,275.42,060525,,,A*40
$GPGGA,134941.250,4308.5324,N,07727.6830,W,1,08,1.51,132.9,M,-34.4,M,,*5E
$GPRMC,134941.500,A,4308.5326,N,07727.6857,W,28.86,275.17,060525,,,A*41
$GPGGA,134941.750,4308.5327,N,07727.6885,W,1,08,1.51,133.1,M,-34.4,M,,*5F
$GPRMC,134942.000,A,4308.5329,N,07727.6912,W,28.35,275.15,060525,,,A*42
$GPGGA,134942.250,4308.5330,N,07727.6939,W,1,08,1.51,133.4,M,-34.4,M,,*5C
$GPRMC,134942.500,A,4308.5331,N,07727.6966,W,28.10,275.14,060525,,,A*4B
$GPGGA,134942.750,4308.5333,N,07727.6993,W,1,08,1.51,133.5,M,-34.4,M,,*5B
$GPRMC,134943.000,A,4308.5334,N,07727.7020,W,28.22,274.44,060525,,,A*45
$GPGGA,134943.250,4308.5335,N,07727.7047,W,1,08,1.51,133.7,M,-34.4,M,,*5A
$GPRMC,134943.500,A,4308.5336,N,07727.7073,W,28.49,272.90,060525,,,A*46
$GPGGA,134943.750,4308.5337,N,07727.7098,W,1,08,1.51,134.0,M,-34.4,M,,*5F
$GPRMC,134944.000,A,4308.5339,N,07727.7124,W,28.52,274.24,060525,,,A*4B
$GPGGA,134944.250,4308.5340,N,07727.7150,W,1,08,1.51,134.1,M,-34.4,M,,*59
$GPRMC,134944.500,A,4308.5341,N,07727.7175,W,28.36,274.49,060525,,,A*4C
$GPGGA,134944.750,4308.5343,N,07727.7201,W,1,08,1.51,134.2,M,-34.4,M,,*5B
$GPRMC,134945.000,A,4308.5344,N,07727.7227,W,28.18,274.78,060525,,,A*47
$GPGGA,134945.250,4308.5345,N,07727.7252,W,1,08,1.51,134.4,M,-34.4,M,,*59
$GPRMC,134945.500,A,4308.5346,N,07727.7278,W,27.99,274.78,060525,,,A*4C
$GPGGA,134945.750,4308.5348,N,07727.7304,W,1,08,1.51,134.6,M,-34.4,M,,*51
$GPRMC,134946.000,A,4308.5349,N,07727.7329,W,27.81,274.51,060525,,,A*42
$GPGGA,134946.250,4308.5350,N,07727.7354,W,1,08,1.51,134.8,M,-34.4,M,,*55
$GPRMC,134946.500,A,4308.5351,N,07727.7379,W,26.18,274.03,060525,,,A*4D
$GPGGA,134946.750,4308.5352,N,07727.7403,W,1,08,1.51,135.1,M,-34.4,M,,*5F
$GPRMC,134947.000,A,4308.5352,N,07727.7428,W,25.59,273.24,060525,,,A*4D
$GPGGA,134947.250,4308.5353,N,07727.7451,W,1,08,1.51,135.5,M,-34.4,M,,*59
$GPRMC,134947.500,A,4308.5354,N,07727.7474,W,24.32,273.01,060525,,,A*4C
$GPGGA,134947.750,4308.5355,N,07727.7496,W,1,08,1.51,135.8,M,-34.4,M,,*5C
$GPRMC,134948.000,A,4308.5356,N,07727.7517,W,22.91,273.22,060525,,,A*4E
$GPGGA,134948.250,4308.5356,N,07727.7537,W,1,08,1.51,135.8,M,-34.4,M,,*5F
$GPRMC,134948.500,A,4308.5357,N,07727.7557,W,20.91,272.62,060525,,,A*49
$GPGGA,134948.750,4308.5357,N,07727.7575,W,1,08,1.51,136.3,M,-34.4,M,,*55
$GPRMC,134949.000,A,4308.5358,N,07727.7592,W,18.92,272.76,060525,,,A*46
$GPGGA,134949.250,4308.5359,N,07727.7609,W,1,08,1.51,136.5,M,-34.4,M,,*51
$GPRMC,134949.500,A,4308.5360,N,07727.7625,W,17.31,273.41,060525,,,A*44
$GPGGA,134949.750,4308.5360,N,07727.7640,W,1,08,1.51,136.8,M,-34.4,M,,*5E
$GPRMC,134950.000,A,4308.5362,N,07727.7652,W,15.90,273.61,060525,,,A*40
$GPGGA,134950.250,4308.5363,N,07727.7666,W,1,08,1.51,137.0,M,-34.4,M,,*5D
$GPRMC,134950.500,A,4308.5364,N,07727.7678,W,14.37,274.01,060525,,,A*46
$GPGGA,134950.750,4308.5366,N,07727.7689,W,1,08,1.51,137.0,M,-34.4,M,,*5C
$GPRMC,134951.000,A,4308.5367,N,07727.7699,W,12.38,273.15,060525,,,A*45
$GPGGA,134951.250,4308.5369,N,07727.7708,W,1,08,1.51,136.8,M,-34.4,M,,*56
$GPRMC,134951.500,A,4308.5370,N,07727.7718,W,11.16,272.61,060525,,,A*43
$GPGGA,134951.750,4308.5371,N,07727.7727,W,1,08,1.51,136.7,M,-34.4,M,,*58
$GPRMC,134952.000,A,4308.5371,N,07727.7735,W,10.19,271.31,060525,,,A*43
$GPGGA,134952.250,4308.5372,N,07727.7744,W,1,08,1.51,136.8,M,-34.4,M,,*57
$GPRMC,134952.500,A,4308.5372,N,07727.7752,W,9.82,271.88,060525,,,A*7C
$GPGGA,134952.750,4308.5373,N,07727.7761,W,1,08,1.51,136.9,M,-34.4,M,,*55
$GPRMC,134953.000,A,4308.5373,N,07727.7770,W,9.54,272.37,060525,,,A*75
$GPGGA,134953.250,4308.5374,N,07727.7779,W,1,08,1.51,137.0,M,-34.4,M,,*57
$GPRMC,134953.500,A,4308.5374,N,07727.7787,W,8.84,271.57,060525,,,A*76
$GPGGA,134953.750,4308.5374,N,07727.7794,W,1,08,1.51,137.2,M,-34.4,M,,*53
$GPRMC,134954.000,A,4308.5374,N,07727.7801,W,7.82,269.67,060525,,,A*76
$GPGGA,134954.250,4308.5374,N,07727.7808,W,1,08,1.51,137.2,M,-34.4,M,,*5B
$GPRMC,134954.500,A,4308.5375,N,07727.7813,W,6.60,269.59,060525,,,A*71
$GPGGA,134954.750,4308.5375,N,07727.7818,W,1,08,1.51,137.3,M,-34.4,M,,*5F
$GPRMC,134955.000,A,4308.5376,N,07727.7822,W,5.00,269.76,060525,,,A*7C
$GPGGA,134955.250,4308.5377,N,07727.7826,W,1,08,1.51,137.3,M,-34.4,M,,*54
$GPRMC,134955.500,A,4308.5377,N,07727.7829,W,4.10,269.67,060525,,,A*73
$GPGGA,134955.750,4308.5377,N,07727.7831,W,1,08,1.51,137.2,M,-34.4,M,,*56
$GPRMC,134956.000,A,4308.5378,N,07727.7833,W,3.19,267.43,060525,,,A*77
$GPGGA,134956.250,4308.5378,N,07727.7835,W,1,08,1.25,137.1,M,-34.4,M,,*5B
$GPRMC,134956.500,A,4308.5378,N,07727.7837,W,2.93,266.64,060525,,,A*71
$GPGGA,134956.750,4308.5378,N,07727.7839,W,1,08,1.25,137.2,M,-34.4,M,,*51
$GPRMC,134957.000,A,4308.5378,N,07727.7842,W,2.90,266.46,060525,,,A*74
$GPGGA,134957.250,4308.5377,N,07727.7845,W,1,08,1.25,137.2,M,-34.4,M,,*51
$GPRMC,134957.500,A,4308.5377,N,07727.7849,W,3.70,264.80,060525,,,A*72
$GPGGA,134957.750,4308.5377,N,07727.7852,W,1,08,1.25,137.4,M,-34.4,M,,*54
$GPRMC,134958.000,A,4308.5377,N,07727.7856,W,4.45,269.17,060525,,,A*74
$GPGGA,134958.250,4308.5376,N,07727.7860,W,1,08,1.51,137.4,M,-34.4,M,,*5D
$GPRMC,134958.500,A,4308.5376,N,07727.7863,W,4.97,270.62,060525,,,A*73
$GPGGA,134958.750,4308.5375,N,07727.7868,W,1,08,1.51,137.6,M,-34.4,M,,*51
$GPRMC,134959.000,A,4308.5375,N,07727.7873,W,5.27,273.33,060525,,,A*78
$GPGGA,134959.250,4308.5375,N,07727.7878,W,1,08,1.51,137.7,M,-34.4,M,,*55
$GPRMC,134959.500,A,4308.5375,N,07727.7883,W,5.44,275.59,060525,,,A*7D
$GPGGA,134959.750,4308.5374,N,07727.7888,W,1,08,1.51,137.7,M,-34.4,M,,*5E
$GPRMC,135000.000,A,4308.5374,N,07727.7894,W,5.42,273.59,060525,,,A*7B
$GPGGA,135000.250,4308.5373,N,07727.7900,W,1,09,1.07,137.7,M,-34.4,M,,*5B
$GPRMC,135000.500,A,4308.5372,N,07727.7906,W,5.18,272.97,060525,,,A*7E
$GPGGA,135000.750,4308.5371,N,07727.7912,W,1,09,1.06,137.8,M,-34.4,M,,*51
$GPRMC,135001.000,A,4308.5371,N,07727.7917,W,5.09,274.17,060525,,,A*77
$GPGGA,135001.250,4308.5370,N,07727.7923,W,1,09,1.07,138.0,M,-34.4,M,,*50
$GPRMC,135001.500,A,4308.5370,N,07727.7929,W,5.58,271.63,060525,,,A*7C
$GPGGA,135001.750,4308.5370,N,07727.7935,W,1,09,1.07,138.2,M,-34.4,M,,*50
$GPRMC,135002.000,A,4308.5369,N,07727.7941,W,6.27,269.40,060525,,,A*7F
$GPGGA,135002.250,4308.5369,N,07727.7948,W,1,09,1.07,138.3,M,-34.4,M,,*55
$GPRMC,135002.500,A,4308.5369,N,07727.7954,W,6.51,270.66,060525,,,A*73
$GPGGA,135002.750,4308.5369,N,07727.7961,W,1,09,1.07,138.5,M,-34.4,M,,*5D
$GPRMC,135003.000,A,4308.5370,N,07727.7968,W,6.73,273.07,060525,,,A*74
$GPGGA,135003.250,4308.5371,N,07727.7974,W,1,09,1.07,138.6,M,-34.4,M,,*57
$GPRMC,135003.500,A,4308.5371,N,07727.7981,W,6.89,274.57,060525,,,A*70
$GPGGA,135003.750,4308.5372,N,07727.7988,W,1,09,1.07,138.7,M,-34.4,M,,*53
$GPRMC,135004.000,A,4308.5372,N,07727.7994,W,6.68,276.13,060525,,,A*78
$GPGGA,135004.250,4308.5373,N,07727.8001,W,1,09,1.06,138.8,M,-34.4,M,,*59
$GPRMC,135004.500,A,4308.5373,N,07727.8007,W,6.47,277.04,060525,,,A*7A
$GPGGA,135004.750,4308.5374,N,07727.8015,W,1,09,1.07,139.0,M,-34.4,M,,*56
$GPRMC,135005.000,A,4308.5374,N,07727.8022,W,6.92,276.10,060525,,,A*72
$GPGGA,135005.250,4308.5374,N,07727.8029,W,1,09,1.07,139.1,M,-34.4,M,,*5C
$GPRMC,135005.500,A,4308.5372,N,07727.8037,W,7.49,273.38,060525,,,A*7D
$GPGGA,135005.750,4308.5370,N,07727.8044,W,1,09,1.07,139.1,M,-34.4,M,,*56
$GPRMC,135006.000,A,4308.5370,N,07727.8052,W,8.85,271.39,060525,,,A*76
$GPGGA,135006.250,4308.5370,N,07727.8061,W,1,09,1.07,139.2,M,-34.4,M,,*54
$GPRMC,135006.500,A,4308.5370,N,07727.8071,W,10.16,271.83,060525,,,A*40
$GPGGA,135006.750,4308.5371,N,07727.8082,W,1,09,1.07,139.5,M,-34.4,M,,*5A
$GPRMC,135007.000,A,4308.5371,N,07727.8093,W,11.93,271.66,060525,,,A*4E
$GPGGA,135007.250,4308.5372,N,07727.8105,W,1,09,1.07,139.7,M,-34.4,M,,*51
$GPRMC,135007.500,A,4308.5373,N,07727.8118,W,13.28,271.57,060525,,,A*4B
$GPGGA,135007.750,4308.5373,N,07727.8133,W,1,09,1.06,140.0,M,-34.4,M,,*58
$GPRMC,135008.000,A,4308.5374,N,07727.8148,W,15.55,271.23,060525,,,A*4C
$GPGGA,135008.250,4308.5374,N,07727.8165,W,1,09,1.07,140.1,M,-34.4,M,,*56
$GPRMC,135008.500,A,4308.5374,N,07727.8182,W,17.13,271.67,060525,,,A*4F
$GPGGA,135008.750,4308.5375,N,07727.8200,W,1,09,1.06,140.3,M,-34.4,M,,*51
$GPRMC,135009.000,A,4308.5375,N,07727.8218,W,18.65,272.55,060525,,,A*46
$GPGGA,135009.250,4308.5376,N,07727.8237,W,1,09,1.07,140.5,M,-34.4,M,,*55
$GPRMC,135009.500,A,4308.5377,N,07727.8257,W,20.18,273.63,060525,,,A*4F
$GPGGA,135009.750,4308.5378,N,07727.8277,W,1,09,1.06,140.9,M,-34.4,M,,*57
$GPRMC,135010.000,A,4308.5379,N,07727.8298,W,21.64,273.64,060525,,,A*42
$GPGGA,135010.250,4308.5380,N,07727.8320,W,1,09,1.06,141.2,M,-34.4,M,,*54
$GPRMC,135010.500,A,4308.5382,N,07727.8342,W,23.20,272.69,060525,,,A*4B
$GPGGA,135010.750,4308.5383,N,07727.8366,W,1,09,1.06,141.5,M,-34.4,M,,*57
$GPRMC,135011.000,A,4308.5383,N,07727.8390,W,24.88,271.72,060525,,,A*4D
$GPGGA,135011.250,4308.5385,N,07727.8415,W,1,09,1.06,141.7,M,-34.4,M,,*54
$GPRMC,135011.500,A,4308.5386,N,07727.8441,W,26.51,271.26,060525,,,A*41
$GPGGA,135011.750,4308.5387,N,07727.8467,W,1,09,1.06,141.9,M,-34.4,M,,*58
$GPRMC,135012.000,A,4308.5387,N,07727.8494,W,27.89,271.02,060525,,,A*4C
$GPGGA,135012.250,4308.5388,N,07727.8522,W,1,09,1.06,142.1,M,-34.4,M,,*5A
$GPRMC,135012.500,A,4308.5389,N,07727.8549,W,28.66,270.77,060525,,,A*4B
$GPGGA,135012.750,4308.5389,N,07727.8577,W,1,09,1.07,142.4,M,-34.4,M,,*5A
$GPRMC,135013.000,A,4308.5390,N,07727.8606,W,29.23,271.25,060525,,,A*49
$GPGGA,135013.250,4308.5392,N,07727.8634,W,1,09,1.07,142.6,M,-34.4,M,,*52
$GPRMC,135013.500,A,4308.5392,N,07727.8663,W,29.48,271.36,060525,,,A*42
$GPGGA,135013.750,4308.5393,N,07727.8692,W,1,09,1.07,142.9,M,-34.4,M,,*55
$GPRMC,135014.000,A,4308.5394,N,07727.8721,W,29.75,271.18,060525,,,A*43
$GPGGA,135014.250,4308.5395,N,07727.8751,W,1,09,1.06,142.9,M,-34.4,M,,*5E
$GPRMC,135014.500,A,4308.5396,N,07727.8781,W,31.07,271.82,060525,,,A*41
$GPGGA,135014.750,4308.5397,N,07727.8812,W,1,09,1.06,142.9,M,-34.4,M,,*51
$GPRMC,135015.000,A,4308.5398,N,07727.8843,W,31.97,271.29,060525,,,A*42
$GPGGA,135015.250,4308.5399,N,07727.8875,W,1,09,1.07,142.9,M,-34.4,M,,*5B
$GPRMC,135015.500,A,4308.5399,N,07727.8906,W,32.70,270.81,060525,,,A*4F
$GPGGA,135015.750,4308.5400,N,07727.8938,W,1,09,1.06,143.0,M,-34.4,M,,*58
$GPRMC,135016.000,A,4308.5400,N,07727.8970,W,33.04,270.87,060525,,,A*4B
$GPGGA,135016.250,4308.5401,N,07727.9003,W,1,09,1.06,142.9,M,-34.4,M,,*57
$GPRMC,135016.500,A,4308.5401,N,07727.9035,W,33.35,271.18,060525,,,A*43
$GPGGA,135016.750,4308.5402,N,07727.9069,W,1,09,1.07,142.9,M,-34.4,M,,*5C
$GPRMC,135017.000,A,4308.5402,N,07727.9102,W,34.20,271.04,060525,,,A*4F
$GPGGA,135017.250,4308.5403,N,07727.9136,W,1,09,1.07,142.7,M,-34.4,M,,*5C
$GPRMC,135017.500,A,4308.5403,N,07727.9169,W,34.36,271.16,060525,,,A*42
$GPGGA,135017.750,4308.5404,N,07727.9204,W,1,09,1.06,142.5,M,-34.4,M,,*5F
$GPRMC,135018.000,A,4308.5405,N,07727.9238,W,35.30,271.66,060525,,,A*49
$GPGGA,135018.250,4308.5405,N,07727.9272,W,1,09,1.06,142.0,M,-34.4,M,,*50
$GPRMC,135018.500,A,4308.5406,N,07727.9306,W,35.55,271.52,060525,,,A*47
$GPGGA,135018.750,4308.5406,N,07727.9340,W,1,09,1.06,141.5,M,-34.4,M,,*50
$GPRMC,135019.000,A,4308.5407,N,07727.9375,W,35.63,271.27,060525,,,A*41
$GPGGA,135019.250,4308.5407,N,07727.9409,W,1,09,1.06,141.1,M,-34.4,M,,*5B
$GPRMC,135019.500,A,4308.5408,N,07727.9444,W,35.66,271.06,060525,,,A*48
$GPGGA,135019.750,4308.5408,N,07727.9478,W,1,09,1.07,140.7,M,-34.4,M,,*51
$GPRMC,135020.000,A,4308.5409,N,07727.9512,W,35.65,271.49,060525,,,A*4C
$GPGGA,135020.250,4308.5410,N,07727.9547,W,1,09,1.06,140.1,M,-34.4,M,,*5D
$GPRMC,135020.500,A,4308.5411,N,07727.9581,W,35.91,271.84,060525,,,A*40
$GPGGA,135020.750,4308.5412,N,07727.9617,W,1,09,1.07,139.5,M,-34.4,M,,*57
$GPRMC,135021.000,A,4308.5413,N,07727.9652,W,36.33,271.93,060525,,,A*46
$GPGGA,135021.250,4308.5414,N,07727.9687,W,1,09,1.06,138.8,M,-34.4,M,,*51
$GPRMC,135021.500,A,4308.5415,N,07727.9723,W,36.43,271.73,060525,,,A*4B
$GPGGA,135021.750,4308.5416,N,07727.9758,W,1,09,1.06,138.1,M,-34.4,M,,*5C
$GPRMC,135022.000,A,4308.5417,N,07727.9795,W,36.68,271.96,060525,,,A*40
$GPGGA,135022.250,4308.5418,N,07727.9831,W,1,09,1.06,137.3,M,-34.4,M,,*59
$GPRMC,135022.500,A,4308.5418,N,07727.9868,W,38.38,271.94,060525,,,A*4E
$GPGGA,135022.750,4308.5419,N,07727.9905,W,1,09,1.07,136.6,M,-34.4,M,,*5E
$GPRMC,135023.000,A,4308.5420,N,07727.9943,W,39.49,271.75,060525,,,A*41
$GPGGA,135023.250,4308.5421,N,07727.9981,W,1,09,1.06,135.9,M,-34.4,M,,*50
$GPRMC,135023.500,A,4308.5422,N,07728.0020,W,40.40,272.03,060525,,,A*49
$GPGGA,135023.750,4308.5423,N,07728.0059,W,1,09,1.06,135.2,M,-34.4,M,,*56
$GPRMC,135024.000,A,4308.5425,N,07728.0099,W,41.44,271.98,060525,,,A*4A
$GPGGA,135024.250,4308.5425,N,07728.0139,W,1,09,1.06,134.8,M,-34.4,M,,*5E
$GPRMC,135024.500,A,4308.5426,N,07728.0180,W,42.19,271.76,060525,,,A*4E
$GPGGA,135024.750,4308.5427,N,07728.0220,W,1,09,1.06,134.3,M,-34.4,M,,*59
$GPRMC,135025.000,A,4308.5428,N,07728.0261,W,42.81,271.30,060525,,,A*4B
$GPGGA,135025.250,4308.5429,N,07728.0303,W,1,09,1.06,134.0,M,-34.4,M,,*50
$GPRMC,135025.500,A,4308.5429,N,07728.0344,W,43.32,271.55,060525,,,A*43
$GPGGA,135025.750,4308.5430,N,07728.0386,W,1,09,1.06,133.7,M,-34.4,M,,*50
$GPRMC,135026.000,A,4308.5431,N,07728.0427,W,43.33,271.52,060525,,,A*48
$GPGGA,135026.250,4308.5432,N,07728.0468,W,1,09,1.06,133.3,M,-34.4,M,,*57
$GPRMC,135026.500,A,4308.5432,N,07728.0510,W,43.31,271.08,060525,,,A*46
$GPGGA,135026.750,4308.5433,N,07728.0551,W,1,09,1.06,133.1,M,-34.4,M,,*5A
$GPRMC,135027.000,A,4308.5433,N,07728.0591,W,43.20,270.98,060525,,,A*42
$GPGGA,135027.250,4308.5434,N,07728.0632,W,1,09,1.07,132.9,M,-34.4,M,,*57
$GPRMC,135027.500,A,4308.5434,N,07728.0672,W,42.41,271.26,060525,,,A*4C
$GPGGA,135027.750,4308.5435,N,07728.0712,W,1,09,1.06,132.8,M,-34.4,M,,*50
$GPRMC,135028.000,A,4308.5435,N,07728.0753,W,42.18,270.88,060525,,,A*4C
$GPGGA,135028.250,4308.5435,N,07728.0793,W,1,09,1.06,132.9,M,-34.4,M,,*52
$GPRMC,135028.500,A,4308.5435,N,07728.0833,W,41.64,270.79,060525,,,A*46
$GPGGA,135028.750,4308.5436,N,07728.0873,W,1,09,1.07,132.9,M,-34.4,M,,*54
$GPRMC,135029.000,A,4308.5437,N,07728.0912,W,41.34,271.26,060525,,,A*4C
$GPGGA,135029.250,4308.5437,N,07728.0952,W,1,09,1.06,132.7,M,-34.4,M,,*5C
$GPRMC,135029.500,A,4308.5438,N,07728.0991,W,41.10,271.62,060525,,,A*4B
$GPGGA,135029.750,4308.5439,N,07728.1031,W,1,09,1.06,132.7,M,-34.4,M,,*5A
$GPRMC,135030.000,A,4308.5440,N,07728.1070,W,40.85,271.97,060525,,,A*49
$GPGGA,135030.250,4308.5441,N,07728.1110,W,1,09,1.06,132.6,M,-34.4,M,,*5B
$GPRMC,135030.500,A,4308.5442,N,07728.1149,W,40.55,272.12,060525,,,A*46
$GPGGA,135030.750,4308.5443,N,07728.1188,W,1,09,1.06,132.4,M,-34.4,M,,*5F
$GPRMC,135031.000,A,4308.5444,N,07728.1226,W,40.62,271.99,060525,,,A*4A
$GPGGA,135031.250,4308.5445,N,07728.1265,W,1,09,1.06,132.2,M,-34.4,M,,*5B
$GPRMC,135031.500,A,4308.5446,N,07728.1304,W,40.86,271.95,060525,,,A*4A
$GPGGA,135031.750,4308.5447,N,07728.1344,W,1,09,1.06,132.0,M,-34.4,M,,*5C
$GPRMC,135032.000,A,4308.5449,N,07728.1383,W,41.11,272.37,060525,,,A*48
$GPGGA,135032.250,4308.5450,N,07728.1422,W,1,09,1.06,131.9,M,-34.4,M,,*51
$GPRMC,135032.500,A,4308.5451,N,07728.1461,W,41.01,272.41,060525,,,A*4F
$GPGGA,135032.750,4308.5452,N,07728.1500,W,1,09,1.06,131.8,M,-34.4,M,,*56
$GPRMC,135033.000,A,4308.5453,N,07728.1540,W,40.77,271.97,060525,,,A*43
$GPGGA,135033.250,4308.5454,N,07728.1579,W,1,09,1.06,131.7,M,-34.4,M,,*55
$GPRMC,135033.500,A,4308.5455,N,07728.1617,W,40.51,271.58,060525,,,A*46
$GPGGA,135033.750,4308.5455,N,07728.1656,W,1,09,1.06,131.6,M,-34.4,M,,*5E
$GPRMC,135034.000,A,4308.5456,N,07728.1694,W,40.41,270.98,060525,,,A*40
$GPGGA,135034.250,4308.5456,N,07728.1732,W,1,09,1.06,131.5,M,-34.4,M,,*5F
$GPRMC,135034.500,A,4308.5457,N,07728.1771,W,40.36,271.25,060525,,,A*49
$GPGGA,135034.750,4308.5457,N,07728.1810,W,1,09,1.06,131.4,M,-34.4,M,,*55
$GPRMC,135035.000,A,4308.5457,N,07728.1848,W,40.36,271.05,060525,,,A*4A
$GPGGA,135035.250,4308.5458,N,07728.1887,W,1,09,1.06,131.3,M,-34.4,M,,*57
$GPRMC,135035.500,A,4308.5459,N,07728.1925,W,40.58,271.24,060525,,,A*40
$GPGGA,135035.750,4308.5459,N,07728.1964,W,1,09,1.06,131.2,M,-34.4,M,,*5E
$GPRMC,135036.000,A,4308.5460,N,07728.2003,W,40.66,271.21,060525,,,A*4A
$GPGGA,135036.250,4308.5460,N,07728.2042,W,1,09,1.06,131.1,M,-34.4,M,,*5F
$GPRMC,135036.500,A,4308.5461,N,07728.2081,W,40.80,271.30,060525,,,A*4C
$GPGGA,135036.750,4308.5462,N,07728.2121,W,1,09,1.06,131.1,M,-34.4,M,,*5C
$GPRMC,135037.000,A,4308.5463,N,07728.2160,W,40.46,271.67,060525,,,A*4C
$GPGGA,135037.250,4308.5464,N,07728.2199,W,1,09,1.06,131.1,M,-34.4,M,,*5D
$GPRMC,135037.500,A,4308.5464,N,07728.2239,W,40.24,271.35,060525,,,A*42
$GPGGA,135037.750,4308.5465,N,07728.2277,W,1,09,1.06,130.9,M,-34.4,M,,*53
$GPRMC,135038.000,A,4308.5466,N,07728.2315,W,40.04,271.57,060525,,,A*43
$GPGGA,135038.250,4308.5467,N,07728.2354,W,1,09,1.02,131.2,M,-34.4,M,,*55
$GPRMC,135038.500,A,4308.5468,N,07728.2391,W,39.36,271.58,060525,,,A*44
$GPGGA,135038.750,4308.5468,N,07728.2429,W,1,09,1.06,131.0,M,-34.4,M,,*54
$GPRMC,135039.000,A,4308.5469,N,07728.2469,W,39.14,271.47,060525,,,A*4F
$GPGGA,135039.250,4308.5469,N,07728.2506,W,1,09,1.06,131.3,M,-34.4,M,,*5E
$GPRMC,135039.500,A,4308.5470,N,07728.2544,W,38.85,271.60,060525,,,A*40
$GPGGA,135039.750,4308.5471,N,07728.2581,W,1,09,1.06,131.3,M,-34.4,M,,*5D
$GPRMC,135040.000,A,4308.5472,N,07728.2618,W,38.61,271.57,060525,,,A*4D
$GPGGA,135040.250,4308.5472,N,07728.2656,W,1,09,1.06,131.5,M,-34.4,M,,*5A
$GPRMC,135040.500,A,4308.5473,N,07728.2693,W,38.56,270.95,060525,,,A*41
$GPGGA,135040.750,4308.5473,N,07728.2730,W,1,09,1.06,131.4,M,-34.4,M,,*5E
$GPRMC,135041.000,A,4308.5474,N,07728.2767,W,38.56,271.46,060525,,,A*47
$GPGGA,135041.250,4308.5474,N,07728.2804,W,1,09,1.06,131.3,M,-34.4,M,,*52
$GPRMC,135041.500,A,4308.5475,N,07728.2841,W,38.63,271.51,060525,,,A*48
$GPGGA,135041.750,4308.5475,N,07728.2878,W,1,09,1.06,131.3,M,-34.4,M,,*5D
$GPRMC,135042.000,A,4308.5476,N,07728.2915,W,38.64,271.89,060525,,,A*4F
$GPGGA,135042.250,4308.5477,N,07728.2952,W,1,09,1.06,131.3,M,-34.4,M,,*50
$GPRMC,135042.500,A,4308.5477,N,07728.2989,W,38.68,271.47,060525,,,A*40
$GPGGA,135042.750,4308.5478,N,07728.3026,W,1,09,1.06,131.2,M,-34.4,M,,*50
$GPRMC,135043.000,A,4308.5478,N,07728.3063,W,38.66,271.20,060525,,,A*48
$GPGGA,135043.250,4308.5478,N,07728.3100,W,1,09,1.06,131.1,M,-34.4,M,,*52
$GPRMC,135043.500,A,4308.5479,N,07728.3138,W,38.72,271.23,060525,,,A*45
$GPGGA,135043.750,4308.5480,N,07728.3175,W,1,09,1.06,131.0,M,-34.4,M,,*53
$GPRMC,135044.000,A,4308.5480,N,07728.3212,W,38.45,271.60,060525,,,A*49
$GPGGA,135044.250,4308.5481,N,07728.3248,W,1,09,1.06,130.9,M,-34.4,M,,*55
$GPRMC,135044.500,A,4308.5482,N,07728.3285,W,38.21,271.54,060525,,,A*45
$GPGGA,135044.750,4308.5482,N,07728.3322,W,1,09,1.06,130.7,M,-34.4,M,,*50
$GPRMC,135045.000,A,4308.5483,N,07728.3358,W,38.11,271.29,060525,,,A*48
$GPGGA,135045.250,4308.5483,N,07728.3394,W,1,09,1.06,130.6,M,-34.4,M,,*59
$GPRMC,135045.500,A,4308.5484,N,07728.3430,W,37.55,271.86,060525,,,A*49
$GPGGA,135045.750,4308.5485,N,07728.3466,W,1,09,1.06,130.4,M,-34.4,M,,*52
$GPRMC,135046.000,A,4308.5486,N,07728.3502,W,37.41,271.93,060525,,,A*4C
$GPGGA,135046.250,4308.5486,N,07728.3538,W,1,09,1.06,130.3,M,-34.4,M,,*5A
$GPRMC,135046.500,A,4308.5487,N,07728.3573,W,37.20,271.84,060525,,,A*4F
$GPGGA,135046.750,4308.5488,N,07728.3608,W,1,09,1.06,130.2,M,-34.4,M,,*50
$GPRMC,135047.000,A,4308.5488,N,07728.3643,W,37.07,271.75,060525,,,A*4F
$GPGGA,135047.250,4308.5489,N,07728.3678,W,1,09,1.06,130.1,M,-34.4,M,,*51
$GPRMC,135047.500,A,4308.5490,N,07728.3712,W,36.93,271.47,060525,,,A*4B
$GPGGA,135047.750,4308.5490,N,07728.3747,W,1,09,1.06,130.0,M,-34.4,M,,*50
$GPRMC,135048.000,A,4308.5491,N,07728.3781,W,36.77,271.69,060525,,,A*4C
$GPGGA,135048.250,4308.5492,N,07728.3815,W,1,09,1.06,129.9,M,-34.4,M,,*51
$GPRMC,135048.500,A,4308.5492,N,07728.3849,W,35.68,271.89,060525,,,A*42
$GPGGA,135048.750,4308.5493,N,07728.3883,W,1,09,1.06,129.9,M,-34.4,M,,*5A
$GPRMC,135049.000,A,4308.5493,N,07728.3916,W,35.35,271.78,060525,,,A*4A
$GPGGA,135049.250,4308.5494,N,07728.3950,W,1,09,1.06,129.9,M,-34.4,M,,*56
$GPRMC,135049.500,A,4308.5495,N,07728.3983,W,35.01,271.85,060525,,,A*40
$GPGGA,135049.750,4308.5495,N,07728.4016,W,1,09,1.06,129.9,M,-34.4,M,,*5E
$GPRMC,135050.000,A,4308.5495,N,07728.4049,W,34.80,271.17,060525,,,A*46
$GPGGA,135050.250,4308.5496,N,07728.4083,W,1,09,1.06,129.9,M,-34.4,M,,*5C
$GPRMC,135050.500,A,4308.5496,N,07728.4116,W,34.72,271.24,060525,,,A*46
$GPGGA,135050.750,4308.5497,N,07728.4148,W,1,09,1.06,129.9,M,-34.4,M,,*5E
$GPRMC,135051.000,A,4308.5497,N,07728.4181,W,34.51,271.66,060525,,,A*4A
$GPGGA,135051.250,4308.5498,N,07728.4213,W,1,09,1.06,129.9,M,-34.4,M,,*58
$GPRMC,135051.500,A,4308.5498,N,07728.4245,W,33.18,272.07,060525,,,A*45
$GPGGA,135051.750,4308.5499,N,07728.4276,W,1,09,1.06,129.8,M,-34.4,M,,*5E
$GPRMC,135052.000,A,4308.5499,N,07728.4307,W,31.93,272.05,060525,,,A*46
$GPGGA,135052.250,4308.5500,N,07728.4337,W,1,09,1.06,129.9,M,-34.4,M,,*5C
$GPRMC,135052.500,A,4308.5501,N,07728.4366,W,30.54,273.22,060525,,,A*4A
$GPGGA,135052.750,4308.5502,N,07728.4394,W,1,09,1.06,130.0,M,-34.4,M,,*53
$GPRMC,135053.000,A,4308.5503,N,07728.4421,W,28.31,273.50,060525,,,A*47
$GPGGA,135053.250,4308.5504,N,07728.4446,W,1,09,1.06,130.0,M,-34.4,M,,*59
$GPRMC,135053.500,A,4308.5505,N,07728.4471,W,26.36,273.56,060525,,,A*4E
$GPGGA,135053.750,4308.5506,N,07728.4495,W,1,09,1.06,130.0,M,-34.4,M,,*50
$GPRMC,135054.000,A,4308.5507,N,07728.4517,W,24.05,273.30,060525,,,A*4D
$GPGGA,135054.250,4308.5508,N,07728.4537,W,1,09,1.06,130.0,M,-34.4,M,,*55
$GPRMC,135054.500,A,4308.5508,N,07728.4557,W,21.90,272.45,060525,,,A*49
$GPGGA,135054.750,4308.5508,N,07728.4575,W,1,09,1.06,130.1,M,-34.4,M,,*57
$GPRMC,135055.000,A,4308.5508,N,07728.4591,W,19.26,271.75,060525,,,A*41
$GPGGA,135055.250,4308.5508,N,07728.4607,W,1,09,1.06,130.1,M,-34.4,M,,*55
$GPRMC,135055.500,A,4308.5508,N,07728.4622,W,16.88,272.34,060525,,,A*42
$GPGGA,135055.750,4308.5508,N,07728.4637,W,1,09,1.06,130.4,M,-34.4,M,,*56
$GPRMC,135056.000,A,4308.5509,N,07728.4647,W,15.18,272.19,060525,,,A*43
$GPGGA,135056.250,4308.5509,N,07728.4659,W,1,09,1.06,130.4,M,-34.4,M,,*59
$GPRMC,135056.500,A,4308.5509,N,07728.4671,W,14.34,272.88,060525,,,A*44
$GPGGA,135056.750,4308.5509,N,07728.4683,W,1,09,1.06,130.3,M,-34.4,M,,*5C
$GPRMC,135057.000,A,4308.5509,N,07728.4696,W,14.29,272.07,060525,,,A*42
$GPGGA,135057.250,4308.5509,N,07728.4708,W,1,09,1.06,130.3,M,-34.4,M,,*5A
$GPRMC,135057.500,A,4308.5509,N,07728.4720,W,13.65,271.61,060525,,,A*47
$GPGGA,135057.750,4308.5509,N,07728.4731,W,1,09,1.06,130.2,M,-34.4,M,,*54
$GPRMC,135058.000,A,4308.5509,N,07728.4742,W,12.46,270.86,060525,,,A*41
$GPGGA,135058.250,4308.5509,N,07728.4752,W,1,09,1.06,130.1,M,-34.4,M,,*58
$GPRMC,135058.500,A,4308.5509,N,07728.4762,W,11.38,270.41,060525,,,A*47
$GPGGA,135058.750,4308.5509,N,07728.4772,W,1,09,1.06,130.1,M,-34.4,M,,*5F
$GPRMC,135059.000,A,4308.5509,N,07728.4782,W,10.51,270.07,060525,,,A*41
$GPGGA,135059.250,4308.5509,N,07728.4791,W,1,09,1.06,130.0,M,-34.4,M,,*57
$GPRMC,135059.500,A,4308.5509,N,07728.4800,W,9.63,268.67,060525,,,A*77
$GPGGA,135059.750,4308.5509,N,07728.4809,W,1,09,1.06,129.8,M,-34.4,M,,*5C
$GPRMC,135100.000,A,4308.5510,N,07728.4817,W,8.97,269.32,060525,,,A*7A
$GPGGA,135100.250,4308.5510,N,07728.4825,W,1,09,1.06,129.7,M,-34.4,M,,*5D
$GPRMC,135100.500,A,4308.5511,N,07728.4833,W,8.85,270.39,060525,,,A*78
$GPGGA,135100.750,4308.5511,N,07728.4842,W,1,09,1.06,129.6,M,-34.4,M,,*59
$GPRMC,135101.000,A,4308.5511,N,07728.4850,W,8.94,271.14,060525,,,A*77
$GPGGA,135101.250,4308.5511,N,07728.4859,W,1,09,1.06,129.4,M,-34.4,M,,*55
$GPRMC,135101.500,A,4308.5512,N,07728.4868,W,9.60,271.05,060525,,,A*70
$GPGGA,135101.750,4308.5512,N,07728.4878,W,1,09,1.06,129.3,M,-34.4,M,,*57
$GPRMC,135102.000,A,4308.5513,N,07728.4888,W,10.55,271.76,060525,,,A*43
$GPGGA,135102.250,4308.5514,N,07728.4900,W,1,09,1.06,129.1,M,-34.4,M,,*5B
$GPRMC,135102.500,A,4308.5514,N,07728.4911,W,11.83,272.60,060525,,,A*4E
$GPGGA,135102.750,4308.5515,N,07728.4923,W,1,09,1.06,129.0,M,-34.4,M,,*5F
$GPRMC,135103.000,A,4308.5515,N,07728.4935,W,12.95,272.20,060525,,,A*4D
$GPGGA,135103.250,4308.5516,N,07728.4948,W,1,09,1.06,129.0,M,-34.4,M,,*55
$GPRMC,135103.500,A,4308.5516,N,07728.4961,W,14.10,271.65,060525,,,A*43
$GPGGA,135103.750,4308.5518,N,07728.4976,W,1,09,1.06,129.0,M,-34.4,M,,*53
$GPRMC,135104.000,A,4308.5519,N,07728.4991,W,15.39,271.47,060525,,,A*4B
$GPGGA,135104.250,4308.5520,N,07728.5008,W,1,09,1.06,129.0,M,-34.4,M,,*5B
$GPRMC,135104.500,A,4308.5521,N,07728.5024,W,16.21,271.46,060525,,,A*48
$GPGGA,135104.750,4308.5521,N,07728.5042,W,1,09,1.06,129.0,M,-34.4,M,,*51
$GPRMC,135105.000,A,4308.5522,N,07728.5059,W,17.30,271.35,060525,,,A*40
$GPGGA,135105.250,4308.5523,N,07728.5079,W,1,09,1.06,128.9,M,-34.4,M,,*57
$GPRMC,135105.500,A,4308.5523,N,07728.5097,W,18.51,270.70,060525,,,A*4E
$GPGGA,135105.750,4308.5524,N,07728.5116,W,1,09,1.06,129.0,M,-34.4,M,,*55
$GPRMC,135106.000,A,4308.5524,N,07728.5136,W,19.82,270.71,060525,,,A*4B
$GPGGA,135106.250,4308.5524,N,07728.5156,W,1,09,1.06,129.2,M,-34.4,M,,*55
$GPRMC,135106.500,A,4308.5524,N,07728.5176,W,20.47,270.39,060525,,,A*45
$GPGGA,135106.750,4308.5524,N,07728.5196,W,1,09,1.06,129.3,M,-34.4,M,,*5D
$GPRMC,135107.000,A,4308.5524,N,07728.5216,W,21.19,270.07,060525,,,A*43
$GPGGA,135107.250,4308.5524,N,07728.5238,W,1,09,1.06,129.4,M,-34.4,M,,*59
$GPRMC,135107.500,A,4308.5524,N,07728.5259,W,22.00,269.61,060525,,,A*4E
$GPGGA,135107.750,4308.5523,N,07728.5282,W,1,09,1.06,129.5,M,-34.4,M,,*5B
$GPRMC,135108.000,A,4308.5523,N,07728.5305,W,23.13,268.86,060525,,,A*40
$GPGGA,135108.250,4308.5522,N,07728.5329,W,1,09,1.06,129.5,M,-34.4,M,,*50
$GPRMC,135108.500,A,4308.5522,N,07728.5352,W,23.74,268.62,060525,,,A*4D
$GPGGA,135108.750,4308.5521,N,07728.5377,W,1,09,1.06,129.3,M,-34.4,M,,*5B
$GPRMC,135109.000,A,4308.5521,N,07728.5401,W,24.41,268.89,060525,,,A*4F
$GPGGA,135109.250,4308.5521,N,07728.5427,W,1,09,1.06,129.2,M,-34.4,M,,*5C
$GPRMC,135109.500,A,4308.5520,N,07728.5451,W,25.19,269.68,060525,,,A*4C
$GPGGA,135109.750,4308.5521,N,07728.5478,W,1,09,1.06,129.2,M,-34.4,M,,*53
$GPRMC,135110.000,A,4308.5521,N,07728.5504,W,26.59,270.46,060525,,,A*42
$GPGGA,135110.250,4308.5521,N,07728.5530,W,1,09,1.06,129.3,M,-34.4,M,,*52
$GPRMC,135110.500,A,4308.5520,N,07728.5556,W,27.21,269.88,060525,,,A*45
$GPGGA,135110.750,4308.5520,N,07728.5583,W,1,09,1.06,129.5,M,-34.4,M,,*58
$GPRMC,135111.000,A,4308.5520,N,07728.5610,W,27.71,270.01,060525,,,A*4C
$GPGGA,135111.250,4308.5519,N,07728.5637,W,1,09,1.06,129.8,M,-34.4,M,,*57
$GPRMC,135111.500,A,4308.5519,N,07728.5665,W,28.48,269.90,060525,,,A*44
$GPGGA,135111.750,4308.5518,N,07728.5693,W,1,09,1.06,129.9,M,-34.4,M,,*5C
$GPRMC,135112.000,A,4308.5518,N,07728.5721,W,29.16,269.34,060525,,,A*46
$GPGGA,135112.250,4308.5517,N,07728.5750,W,1,09,1.06,129.8,M,-34.4,M,,*5A
$GPRMC,135112.500,A,4308.5517,N,07728.5778,W,29.55,269.05,060525,,,A*45
$GPGGA,135112.750,4308.5516,N,07728.5807,W,1,09,1.06,129.7,M,-34.4,M,,*5C
$GPRMC,135113.000,A,4308.5516,N,07728.5836,W,29.86,269.86,060525,,,A*40
$GPGGA,135113.250,4308.5517,N,07728.5865,W,1,09,1.06,129.8,M,-34.4,M,,*52
$GPRMC,135113.500,A,4308.5516,N,07728.5895,W,30.12,270.06,060525,,,A*49
$GPGGA,135113.750,4308.5516,N,07728.5924,W,1,09,1.06,129.9,M,-34.4,M,,*53
$GPRMC,135114.000,A,4308.5516,N,07728.5954,W,30.33,270.15,060525,,,A*46
$GPGGA,135114.250,4308.5516,N,07728.5984,W,1,09,1.06,130.0,M,-34.4,M,,*5A
$GPRMC,135114.500,A,4308.5516,N,07728.6013,W,30.85,269.61,060525,,,A*4C
$GPGGA,135114.750,4308.5515,N,07728.6042,W,1,09,1.06,130.1,M,-34.4,M,,*5D
$GPRMC,135115.000,A,4308.5515,N,07728.6072,W,30.60,268.82,060525,,,A*4B
$GPGGA,135115.250,4308.5514,N,07728.6101,W,1,09,1.06,130.3,M,-34.4,M,,*5C
$GPRMC,135115.500,A,4308.5513,N,07728.6130,W,29.98,268.30,060525,,,A*49
$GPGGA,135115.750,4308.5512,N,07728.6158,W,1,09,1.06,130.3,M,-34.4,M,,*53
$GPRMC,135116.000,A,4308.5512,N,07728.6186,W,29.74,268.59,060525,,,A*4E
$GPGGA,135116.250,4308.5511,N,07728.6215,W,1,09,1.06,130.4,M,-34.4,M,,*5B
$GPRMC,135116.500,A,4308.5511,N,07728.6243,W,29.65,269.06,060525,,,A*49
$GPGGA,135116.750,4308.5510,N,07728.6272,W,1,09,1.06,130.5,M,-34.4,M,,*5F
$GPRMC,135117.000,A,4308.5510,N,07728.6301,W,29.89,269.04,060525,,,A*4B
$GPGGA,135117.250,4308.5510,N,07728.6330,W,1,09,1.06,130.6,M,-34.4,M,,*5F
$GPRMC,135117.500,A,4308.5509,N,07728.6359,W,30.08,269.42,060525,,,A*48
$GPGGA,135117.750,4308.5509,N,07728.6388,W,1,09,1.06,130.6,M,-34.4,M,,*51
$GPRMC,135118.000,A,4308.5510,N,07728.6418,W,30.31,270.03,060525,,,A*4F
$GPGGA,135118.250,4308.5510,N,07728.6448,W,1,09,1.06,130.4,M,-34.4,M,,*5A
$GPRMC,135118.500,A,4308.5509,N,07728.6478,W,30.50,270.13,060525,,,A*42
$GPGGA,135118.750,4308.5509,N,07728.6507,W,1,09,1.06,130.2,M,-34.4,M,,*5B
$GPRMC,135119.000,A,4308.5508,N,07728.6537,W,31.49,269.63,060525,,,A*4B
$GPGGA,135119.250,4308.5508,N,07728.6567,W,1,09,1.06,129.9,M,-34.4,M,,*5B
$GPRMC,135119.500,A,4308.5509,N,07728.6598,W,31.74,270.19,060525,,,A*41
$GPGGA,135119.750,4308.5509,N,07728.6629,W,1,09,1.06,129.5,M,-34.4,M,,*5A
$GPRMC,135120.000,A,4308.5509,N,07728.6660,W,32.41,270.07,060525,,,A*40
$GPGGA,135120.250,4308.5509,N,07728.6692,W,1,09,1.06,129.1,M,-34.4,M,,*51
$GPRMC,135120.500,A,4308.5509,N,07728.6724,W,32.68,270.10,060525,,,A*49
$GPGGA,135120.750,4308.5509,N,07728.6756,W,1,09,1.06,128.7,M,-34.4,M,,*5A
$GPRMC,135121.000,A,4308.5509,N,07728.6789,W,32.78,270.66,060525,,,A*4A
$GPGGA,135121.250,4308.5510,N,07728.6821,W,1,09,1.06,128.4,M,-34.4,M,,*5A
$GPRMC,135121.500,A,4308.5510,N,07728.6852,W,32.74,270.22,060525,,,A*42
$GPGGA,135121.750,4308.5509,N,07728.6884,W,1,09,1.06,128.0,M,-34.4,M,,*5C
$GPRMC,135122.000,A,4308.5509,N,07728.6916,W,32.70,269.49,060525,,,A*4C
$GPGGA,135122.250,4308.5509,N,07728.6947,W,1,09,1.06,127.6,M,-34.4,M,,*5D
$GPRMC,135122.500,A,4308.5509,N,07728.6979,W,32.63,269.71,060525,,,A*49
$GPGGA,135122.750,4308.5509,N,07728.7010,W,1,09,1.06,127.3,M,-34.4,M,,*57
$GPRMC,135123.000,A,4308.5508,N,07728.7042,W,32.61,269.57,060525,,,A*4A
$GPGGA,135123.250,4308.5508,N,07728.7073,W,1,09,1.06,127.1,M,-34.4,M,,*55
$GPRMC,135123.500,A,4308.5508,N,07728.7104,W,32.75,269.66,060525,,,A*4B
$GPGGA,135123.750,4308.5508,N,07728.7136,W,1,09,1.06,126.8,M,-34.4,M,,*58
$GPRMC,135124.000,A,4308.5508,N,07728.7167,W,32.79,269.29,060525,,,A*4B
$GPGGA,135124.250,4308.5507,N,07728.7198,W,1,09,1.06,126.4,M,-34.4,M,,*5D
$GPRMC,135124.500,A,4308.5507,N,07728.7230,W,32.55,269.60,060525,,,A*43
$GPGGA,135124.750,4308.5507,N,07728.7261,W,1,09,1.06,126.1,M,-34.4,M,,*58
$GPRMC,135125.000,A,4308.5507,N,07728.7291,W,32.32,269.86,060525,,,A*45
$GPGGA,135125.250,4308.5507,N,07728.7322,W,1,09,1.06,125.6,M,-34.4,M,,*5E
$GPRMC,135125.500,A,4308.5507,N,07728.7353,W,32.30,270.05,060525,,,A*4E
$GPGGA,135125.750,4308.5507,N,07728.7384,W,1,09,1.06,125.2,M,-34.4,M,,*53
$GPRMC,135126.000,A,4308.5507,N,07728.7415,W,32.54,269.98,060525,,,A*43
$GPGGA,135126.250,4308.5506,N,07728.7447,W,1,09,1.06,124.9,M,-34.4,M,,*56
$GPRMC,135126.500,A,4308.5505,N,07728.7478,W,32.59,269.19,060525,,,A*4B
$GPGGA,135126.750,4308.5505,N,07728.7509,W,1,09,1.06,124.6,M,-34.4,M,,*54
$GPRMC,135127.000,A,4308.5504,N,07728.7541,W,32.63,269.09,060525,,,A*4D
$GPGGA,135127.250,4308.5504,N,07728.7572,W,1,09,1.06,124.3,M,-34.4,M,,*58
$GPRMC,135127.500,A,4308.5503,N,07728.7604,W,32.64,269.00,060525,,,A*43
$GPGGA,135127.750,4308.5502,N,07728.7635,W,1,09,1.06,124.0,M,-34.4,M,,*58
$GPRMC,135128.000,A,4308.5502,N,07728.7667,W,32.61,268.96,060525,,,A*46
$GPGGA,135128.250,4308.5501,N,07728.7698,W,1,09,1.06,123.7,M,-34.4,M,,*56
$GPRMC,135128.500,A,4308.5501,N,07728.7729,W,32.58,268.96,060525,,,A*41
$GPGGA,135128.750,4308.5500,N,07728.7760,W,1,09,1.06,123.4,M,-34.4,M,,*57
$GPRMC,135129.000,A,4308.5500,N,07728.7792,W,32.60,269.06,060525,,,A*47
$GPGGA,135129.250,4308.5499,N,07728.7823,W,1,09,1.06,123.3,M,-34.4,M,,*5D
$GPRMC,135129.500,A,4308.5498,N,07728.7855,W,32.95,269.06,060525,,,A*4C
$GPGGA,135129.750,4308.5498,N,07728.7887,W,1,09,1.06,123.3,M,-34.4,M,,*57
$GPRMC,135130.000,A,4308.5498,N,07728.7919,W,33.25,269.35,060525,,,A*42
$GPGGA,135130.250,4308.5498,N,07728.7951,W,1,09,1.06,123.2,M,-34.4,M,,*51
$GPRMC,135130.500,A,4308.5498,N,07728.7983,W,33.37,269.74,060525,,,A*42
$GPGGA,135130.750,4308.5498,N,07728.8016,W,1,09,1.06,123.1,M,-34.4,M,,*52
$GPRMC,135131.000,A,4308.5498,N,07728.8048,W,33.54,269.96,060525,,,A*4E
$GPGGA,135131.250,4308.5497,N,07728.8080,W,1,09,1.06,123.0,M,-34.4,M,,*57
$GPRMC,135131.500,A,4308.5498,N,07728.8113,W,33.63,270.22,060525,,,A*47
$GPGGA,135131.750,4308.5497,N,07728.8146,W,1,09,1.06,122.8,M,-34.4,M,,*50
$GPRMC,135132.000,A,4308.5497,N,07728.8178,W,34.11,269.49,060525,,,A*44
$GPGGA,135132.250,4308.5497,N,07728.8211,W,1,09,1.06,122.7,M,-34.4,M,,*58
$GPRMC,135132.500,A,4308.5498,N,07728.8244,W,34.17,270.60,060525,,,A*47
$GPGGA,135132.750,4308.5498,N,07728.8277,W,1,09,1.06,122.7,M,-34.4,M,,*52
$GPRMC,135133.000,A,4308.5498,N,07728.8310,W,34.12,270.73,060525,,,A*44
$GPGGA,135133.250,4308.5499,N,07728.8343,W,1,09,1.06,122.8,M,-34.4,M,,*5E
$GPRMC,135133.500,A,4308.5500,N,07728.8376,W,34.07,270.60,060525,,,A*47
$GPGGA,135133.750,4308.5500,N,07728.8408,W,1,09,1.06,122.8,M,-34.4,M,,*52
$GPRMC,135134.000,A,4308.5501,N,07728.8441,W,34.00,270.84,060525,,,A*4A
$GPGGA,135134.250,4308.5501,N,07728.8474,W,1,09,1.06,122.8,M,-34.4,M,,*5A
$GPRMC,135134.500,A,4308.5501,N,07728.8507,W,34.01,270.50,060525,,,A*44
$GPGGA,135134.750,4308.5502,N,07728.8539,W,1,09,1.06,122.7,M,-34.4,M,,*5B
$GPRMC,135135.000,A,4308.5502,N,07728.8572,W,34.22,270.61,060525,,,A*42
$GPGGA,135135.250,4308.5503,N,07728.8606,W,1,09,1.06,122.5,M,-34.4,M,,*53
$GPRMC,135135.500,A,4308.5503,N,07728.8638,W,34.59,271.61,060525,,,A*46
