Vers 72
USE_SERIAL_FEEDBACK=true
DEVELOPMENT_MODE=false
USE_RMC_ONLY=false

$GPGGA,021558.750,4305.2536,N,07740.6001,W,1,03,28.76,183.3,M,-A,021603.000,4305.2601,N,07740.5934,W,1,03,2.22,183.2,M,-34.4,M,,*57
$GPRMC,021603.000,A,4305.2601,N,07740.5934,W,8.07,48.06,060525,,,A*43
$GPGGA,021603.250,4305.2603,N,07740.5920,W,1,03,2.22,183.2,M,-34.4,M,,*57
$GPRMC,021603.250,A,4305.2603,N,07740.5920,W,9.04,57.05,060525,,,A*4C
$GPGGA,021603.500,4305.2605,N,07740.5909,W,1,03,2.22,183.2,M,-34.4,M,,*58
$GPRMC,021603.500,A,4305.2605,N,07740.5909,W,9.62,61.67,060525,,,A*42
$GPGGA,021603.750,4305.2609,N,07740.5899,W,1,03,2.22,183.1,M,-34.4,M,,*58
$GPRMC,021603.750,A,4305.2609,N,07740.5899,W,10.27,63.04,060525,,,A*7F
$GPGGA,021604.000,4305.2613,N,07740.5888,W,1,03,2.22,183.1,M,-34.4,M,,*56
$GPRMC,021604.000,A,4305.2613,N,07740.5888,W,11.10,64.13,060525,,,A*75
$GPGGA,021604.250,4305.2616,N,07740.5877,W,1,03,2.22,183.0,M,-34.4,M,,*55
$GPRMC,021604.250,A,4305.2616,N,07740.5877,W,11.49,66.57,060525,,,A*79
$GPGGA,021604.500,4305.2618,N,07740.5866,W,1,03,2.22,182.9,M,-34.4,M,,*51
$GPRMC,021604.500,A,4305.2618,N,07740.5866,W,11.79,68.33,060525,,,A*7A
$GPGGA,021604.750,4305.2620,N,07740.5854,W,1,03,2.22,182.9,M,-34.4,M,,*5C
$GPRMC,021604.750,A,4305.2620,N,07740.5854,W,11.87,69.03,060525,,,A*74
$GPGGA,021605.000,4305.2618,N,07740.5841,W,1,03,2.22,182.8,M,-34.4,M,,*51
$GPRMC,021605.000,A,4305.2618,N,07740.5841,W,12.03,73.78,060525,,,A*70
$GPGGA,021605.250,4305.2616,N,07740.5828,W,1,03,2.22,182.8,M,-34.4,M,,*57
$GPRMC,021605.250,A,4305.2616,N,07740.5828,W,12.42,78.15,060525,,,A*73
$GPGGA,021605.500,4305.2614,N,07740.5814,W,1,03,2.22,182.7,M,-34.4,M,,*57
$GPRMC,021605.500,A,4305.2614,N,07740.5814,W,12.86,82.62,060525,,,A*71
$GPGGA,021605.750,4305.2614,N,07740.5801,W,1,03,2.22,182.7,M,-34.4,M,,*54
$GPRMC,021605.750,A,4305.2614,N,07740.5801,W,13.19,83.44,060525,,,A*70
$GPGGA,021606.000,4305.2614,N,07740.5787,W,1,03,2.22,182.6,M,-34.4,M,,*55
$GPRMC,021606.000,A,4305.2614,N,07740.5787,W,13.65,84.20,060525,,,A*7E
$GPGGA,021606.500,4305.2614,N,07740.5759,W,1,03,2.22,182.5,M,-34.4,M,,*50
$GPRMC,021606.500,A,4305.2614,N,07740.5759,W,14.48,85.31,060525,,,A*71
$GPGGA,021606.750,4305.2614,N,07740.5744,W,1,03,2.22,182.5,M,-34.4,M,,*5B
$GPRMC,021606.750,A,4305.2614,N,07740.5744,W,14.83,85.53,060525,,,A*79
$GPGGA,021607.000,4305.2614,N,07740.5729,W,1,03,2.22,182.4,M,-34.4,M,,*52
$GPRMC,021607.000,A,4305.2614,N,07740.5729,W,15.24,86.41,060525,,,A*7D
$GPGGA,021607.250,4305.2614,N,07740.5714,W,1,03,2.22,182.4,M,-34.4,M,,*5B
$GPRMC,021607.250,A,4305.2614,N,07740.5714,W,15.63,87.53,060525$GPGGA,021607.500,4305.2614,N,07740.5698,W,1,03,2.22,182.3,M,-34.4,M,,*5B
$GPRMC,021607.750,A,4305.2614,N,07740.5683,W,15.99,87.66,060525,,,A*7C
$GPGGA,021608.000,4305.2614,N,07740.5666,W,1,03,2.22,182.2,M,-34.4,M,,*51
$GPRMC,021608.250,A,4305.2615,N,07740.5650,W,17.04,87.25,060525,,,A*78
$GPGGA,021608.500,4305.2615,N,07740.5633,W,1,03,2.22,182.1,M,-34.4,M,,*56
$GPRMC,021608.750,A,4305.2615,N,07740.5616,W,17.63,87.12,060525,,,A*7A
$GPGGA,021609.000,4305.2615,N,07740.5599,W,1,03,2.22,182.0,M,-34.4,M,,*50
$GPRMC,021609.250,A,4305.2615,N,07740.5583,W,17.65,87.76,060525,,,A*75
$GPGGA,021609.500,4305.2614,N,07740.5565,W,1,03,2.22,181.9,M,-34.4,M,,*5D
$GPRMC,021609.750,A,4305.2613,N,07740.5548,W,17.92,89.38,060525,,,A*7D
$GPGGA,021610.000,4305.2613,N,07740.5531,W,1,03,2.22,181.8,M,-34.4,M,,*57
$GPRMC,021610.250,A,4305.2612,N,07740.5514,W,18.23,89.38,060525,,,A*7D
$GPGGA,021610.500,4305.2610,N,07740.5496,W,1,03,2.22,181.7,M,-34.4,M,,*52
$GPRMC,021610.750,A,4305.2608,N,07740.5479,W,18.21,91.67,060525,,,A*78
$GPGGA,021611.000,4305.2606,N,07740.5462,W,1,03,2.22,181.6,M,-34.4,M,,*5B
$GPRMC,021611.250,A,4305.2605,N,07740.5444,W,18.17,92.42,060525,,,A*7E
$GPGGA,021611.500,4305.2604,N,07740.5427,W,1,03,2.22,181.5,M,-34.4,M,,*5E
$GPRMC,021611.750,A,4305.2603,N,07740.5410,W,18.22,91.89,060525,,,A*7E
$GPGGA,021612.000,4305.2603,N,07740.5392,W,1,03,2.22,181.4,M,-34.4,M,,*57
$GPRMC,021612.145,A,4305.2603,N,07740.5382,W,18.01,90.45,060525,,,A*73
$GPGGA,021612.500,4305.2602,N,07740.5359,W,1,03,2.22,181.4,M,-34.4,M,,*54
$GPRMC,021612.750,A,4305.2602,N,07740.5344,W,16.70,90.87,060525,,,A*7C
$GPGGA,021613.000,4305.2600,N,07740.5331,W,1,03,2.22,181.3,M,-34.4,M,,*5B
$GPRMC,021613.250,A,4305.2599,N,07740.5320,W,13.98,94.01,060525,,,A*72
$GPGGA,021613.500,4305.2597,N,07740.5310,W,1,03,2.22,181.2,M,-34.4,M,,*51
$GPRMC,021613.750,A,4305.2597,N,07740.5298,W,12.85,95.94,060525,,,A*7B
$GPGGA,021614.000,4305.2595,N,07740.5289,W,1,03,2.22,181.1,M,-34.4,M,,*53
$GPRMC,021614.250,A,4305.2594,N,07740.5280,W,11.24,97.65,060525,,,A*77
$GPGGA,021614.500,4305.2594,N,07740.5271,W,1,03,2.22,181.0,M,-34.4,M,,*51
$GPRMC,021614.750,A,4305.2595,N,07740.5261,W,10.98,92.89,060525,,,A*7D
$GPGGA,021615.000,4305.2594,N,07740.5252,W,1,03,2.22,180.9,M,-34.4,M,,*5C
$GPRMC,021615.250,A,4305.2594,N,07740.5244,W,10.32,92.84,060525,,,A*72
$GPGGA,021615.500,4305.2593,N,07740.5235,W,1,03,2.22,180.8,M,-34.4,M,,*5E
$GPRMC,021615.750,A,4305.2593,N,07740.5226,W,10.26,93.64,060525,,,A*7E
$GPGGA,021616.000,4305.2592,N,07740.5216,W,1,03,2.22,180.7,M,-34.4,M,,*57
$GPRMC,021616.250,A,4305.2592,N,07740.5206,W,10.40,93.83,060525,,,A*72
$GPGGA,021616.500,4305.2592,N,07740.5197,W,1,03,2.22,180.6,M,-34.4,M,,*59
$GPRMC,021616.750,A,4305.2591,N,07740.5186,W,10.83,94.29,060525,,,A*77
$GPGGA,021617.000,4305.2592,N,07740.5175,W,1,03,2.22,180.5,M,-34.4,M,,*52
$GPRMC,021617.250,A,4305.2592,N,07740.5163,W,11.79,92.12,060525,,,A*71
$GPGGA,021617.500,4305.2593,N,07740.5150,W,1,03,2.22,180.4,M,-34.4,M,,*50
$GPRMC,021617.750,A,4305.2593,N,07740.5138,W,12.53,91.03,060525,,,A*73
$GPGGA,021618.000,4305.2594,N,07740.5126,W,1,03,2.22,180.3,M,-34.4,M,,*5B
$GPRMC,021618.145,A,4305.2595,N,07740.5119,W,12.70,89.94,060525,,,A*7D
$GPGGA,021618.500,4305.2595,N,07740.5101,W,1,03,2.22,180.2,M,-34.4,M,,*5B
$GPRMC,021618.750,A,4305.2595,N,07740.5088,W,13.34,91.49,060525,,,A*7E
$GPGGA,021619.000,4305.2595,N,07740.5075,W,1,03,2.21,180.1,M,-34.4,M,,*5D
$GPRMC,021619.250,A,4305.2595,N,07740.5061,W,13.98,91.73,060525,,,A*72
$GPGGA,021619.500,4305.2594,N,07740.5047,W,1,03,2.21,180.0,M,-34.4,M,,*59
$GPRMC,021619.750,A,4305.2594,N,07740.5033,W,14.48,92.06,060525,,,A*7A
$GPGGA,021620.000,4305.2594,N,07740.5019,W,1,03,2.21,179.9,M,-34.4,M,,*52
$GPRMC,021620.250,A,4305.2595,N,07740.5005,W,14.53,91.40,060525,,,A*7A
$GPGGA,021620.500,4305.2595,N,07740.4991,W,1,03,2.21,179.8,M,-34.4,M,,*5F
$GPRMC,021620.750,A,4305.2596,N,07740.4978,W,14.52,91.02,060525,,,A*79
$GPGGA,021621.000,4305.2595,N,07740.4964,W,1,03,2.21,179.7,M,-34.4,M,,*5E
$GPRMC,021621.250,A,4305.2595,N,07740.4952,W,13.86,92.35,060525,,,A*7F
$GPGGA,021621.500,4305.2594,N,07740.4940,W,1,03,2.21,179.6,M,-34.4,M,,*5D
$GPRMC,021621.750,A,4305.2593,N,07740.4927,W,13.40,93.71,060525,,,A*75
$GPGGA,021622.000,4305.2593,N,07740.4915,W,1,03,2.21,179.5,M,-34.4,M,,*5F
$GPRMC,021622.250,A,4305.2591,N,07740.4903,W,13.09,95.54,060525,,,A*7B
$GPGGA,021622.500,4305.2588,N,07740.4891,W,1,03,2.21,179.5,M,-34.4,M,,*5D
$GPRMC,021622.750,A,4305.2585,N,07740.4879,W,12.80,100.38,060525,,,A*40
$GPGGA,021623.000,4305.2580,N,07740.4867,W,1,03,2.21,179.4,M,-34.4,M,,*59
$GPRMC,021623.250,A,4305.2576,N,07740.4857,W,12.46,107.99,060525,,,A*42
$GPGGA,021623.500,4305.2572,N,07740.4846,W,1,03,2.21,179.3,M,-34.4,M,,*55
$GPRMC,021623.750,A,4305.2568,N,07740.4835,W,12.37,112.14,060525,,,A*4B
$GPGGA,021624.000,4305.2564,N,07740.4825,W,1,03,2.21,179.2,M,-34.4,M,,*54
$GPRMC,021624.140,A,4305.2561,N,07740.4820,W,11.94,116.04,060525,,,A*49
$GPGGA,021624.500,4305.2556,N,07740.4806,W,1,03,2.21,179.1,M,-34.4,M,,*52
$GPRMC,021624.750,A,4305.2552,N,07740.4797,W,11.86,118.04,060525,,,A*40
$GPGGA,021625.000,4305.2548,N,07740.4788,W,1,03,2.21,179.0,M,-34.4,M,,*51
$GPRMC,021625.250,A,4305.2543,N,07740.4778,W,11.78,119.22,060525,,,A*41
$GPGGA,021625.500,4305.2539,N,07740.4769,W,1,03,2.21,178.9,M,-34.4,M,,*55
$GPRMC,021625.750,A,4305.2535,N,07740.4758,W,12.21,119.06,060525,,,A*4E
$GPGGA,021626.000,4305.2532,N,07740.4747,W,1,03,2.21,178.8,M,-34.4,M,,*55
$GPRMC,021626.250,A,4305.2529,N,07740.4737,W,12.37,115.85,060525,,,A*4C
$GPGGA,021626.500,4305.2528,N,07740.4725,W,1,03,2.21,178.7,M,-34.4,M,,*50
$GPRMC,021626.750,A,4305.2525,N,07740.4714,W,12.50,110.12,060525,,,A*4E
$GPGGA,021627.000,4305.2523,N,07740.4703,W,1,03,2.21,178.6,M,-34.4,M,,*5A
$GPRMC,021627.250,A,4305.2522,N,07740.4692,W,12.38,107.12,060525,,,A*4A
$GPGGA,021627.500,4305.2521,N,07740.4681,W,1,03,2.21,178.5,M,-34.4,M,,*55
$GPRMC,021627.750,A,4305.2520,N,07740.4669,W,12.50,102.18,060525,,,A*48
$GPGGA,021628.000,4305.2521,N,07740.4658,W,1,03,2.21,178.4,M,-34.4,M,,*5A
$GPRMC,021628.250,A,4305.2522,N,07740.4646,W,12.52,94.54,060525,,,A*79
$GPGGA,021628.500,4305.2523,N,07740.4634,W,1,03,2.21,178.3,M,-34.4,M,,*50
$GPRMC,021628.750,A,4305.2525,N,07740.4622,W,12.83,89.30,060525,,,A*7B
$GPGGA,021629.000,4305.2528,N,07740.4610,W,1,03,2.21,178.2,M,-34.4,M,,*58
$GPRMC,021629.250,A,4305.2535,N,07740.4600,W,12.48,79.13,060525,,,A*77
$GPGGA,021629.500,4305.2545,N,07740.4589,W,1,03,2.21,178.2,M,-34.4,M,,*55
$GPRMC,021629.750,A,4305.2551,N,07740.4577,W,13.38,67.24,060525,,,A*7E
$GPGGA,021630.000,4305.2557,N,07740.4566,W,1,03,2.21,178.1,M,-34.4,M,,*59
$GPRMC,021630.500,A,4305.2569,N,07740.4543,W,13.99,61.75,060525,,,A*74
$GPGGA,021630.750,4305.2574,N,07740.4532,W,1,04,2.13,177.8,M,-34.4,M,,*5B
$GPRMC,021631.000,A,4305.2579,N,07740.4520,W,13.96,61.19,060525,,,A*71
$GPGGA,021631.250,4305.2583,N,07740.4509,W,1,04,2.13,177.7,M,-34.4,M,,*50
$GPRMC,021631.500,A,4305.2589,N,07740.4498,W,13.88,60.75,060525,,,A*7D
$GPGGA,021631.750,4305.2594,N,07740.4486,W,1,04,2.12,177.6,M,-34.4,M,,*55
$GPRMC,021632.000,A,4305.2599,N,07740.4474,W,13.86,60.79,060525,,,A*7A
$GPGGA,021632.250,4305.2604,N,07740.4463,W,1,04,2.12,177.5,M,-34.4,M,,*51
$GPRMC,021632.500,A,4305.2608,N,07740.4450,W,13.74,62.62,060525,,,A*77
$GPGGA,021632.750,4305.2612,N,07740.4436,W,1,04,2.12,177.4,M,-34.4,M,,*52
$GPRMC,021633.000,A,4305.2616,N,07740.4423,W,14.06,65.46,060525,,,A*7B
$GPGGA,021633.250,4305.2619,N,07740.4411,W,1,04,2.12,177.3,M,-34.4,M,,*5F
$GPRMC,021633.500,A,4305.2622,N,07740.4397,W,13.88,69.07,060525,,,A*79
$GPGGA,021633.750,4305.2624,N,07740.4384,W,1,04,2.12,177.2,M,-34.4,M,,*5E
$GPRMC,021634.000,A,4305.2624,N,07740.4370,W,14.27,74.34,060525,,,A*7A
$GPGGA,021634.250,4305.2623,N,07740.4355,W,1,04,2.32,177.2,M,-34.4,M,,*55
$GPRMC,021634.500,A,4305.2623,N,07740.4340,W,14.68,79.42,060525,,,A*7C
$GPGGA,021634.750,4305.2623,N,07740.4326,W,1,04,2.12,177.1,M,-34.4,M,,*55
$GPRMC,021635.000,A,4305.2623,N,07740.4312,W,14.68,82.19,060525,,,A*75
$GPGGA,021635.250,4305.2623,N,07740.4297,W,1,04,2.12,177.0,M,-34.4,M,,*5B
$GPRMC,021635.500,A,4305.2623,N,07740.4282,W,15.02,84.33,060525,,,A*7B
$GPGGA,021635.750,4305.2623,N,07740.4268,W,1,04,2.12,177.0,M,-34.4,M,,*5E
$GPRMC,021636.000,A,4305.2622,N,07740.4253,W,15.35,85.92,060525,,,A*7E
$GPGGA,021636.250,4305.2622,N,07740.4238,W,1,04,2.12,176.9,M,-34.4,M,,*54
$GPRMC,021636.500,A,4305.2622,N,07740.4223,W,15.62,86.87,060525,,,A*79
$GPGGA,021636.750,4305.2622,N,07740.4209,W,1,04,2.12,176.8,M,-34.4,M,,*52
$GPRMC,021637.000,A,4305.2622,N,07740.4194,W,15.91,86.94,060525,,,A*7C
$GPGGA,021637.250,4305.2621,N,07740.4179,W,1,04,2.12,176.7,M,-34.4,M,,*5E
$GPRMC,021637.500,A,4305.2621,N,07740.4164,W,15.94,87.78,060525,,,A*73
$GPGGA,021637.750,4305.2622,N,07740.4149,W,1,04,2.12,176.6,M,-34.4,M,,*5A
$GPRMC,021638.000,A,4305.2622,N,07740.4133,W,15.98,88.03,060525,,,A*77
$GPGGA,021638.250,4305.2622,N,07740.4118,W,1,04,2.12,176.6,M,-34.4,M,,*54
$GPRMC,021638.500,A,4305.2621,N,07740.4103,W,15.98,89.21,060525,,,A*73
$GPGGA,021638.750,4305.2621,N,07740.4088,W,1,04,2.12,176.5,M,-34.4,M,,*59
$GPRMC,021639.000,A,4305.2620,N,07740.4074,W,15.76,90.29,060525,,,A*77
$GPGGA,021639.250,4305.2619,N,07740.4059,W,1,04,2.12,176.3,M,-34.4,M,,*5C
$GPRMC,021639.500,A,4305.2618,N,07740.4044,W,15.73,91.32,060525,,,A*74
$GPGGA,021639.750,4305.2617,N,07740.4029,W,1,04,2.12,176.2,M,-34.4,M,,*51
$GPRMC,021640.000,A,4305.2615,N,07740.4014,W,15.62,92.05,060525,,,A*70
$GPGGA,021640.250,4305.2614,N,07740.4000,W,1,04,2.32,176.1,M,-34.4,M,,*53
$GPRMC,021640.500,A,4305.2614,N,07740.3986,W,15.34,92.16,060525,,,A*70
$GPGGA,021640.750,4305.2613,N,07740.3972,W,1,04,2.12,176.0,M,-34.4,M,,*59
$GPRMC,021641.000,A,4305.2613,N,07740.3958,W,15.32,91.42,060525,,,A*74
$GPGGA,021641.250,4305.2612,N,07740.3943,W,1,04,2.32,175.9,M,-34.4,M,,*56
$GPRMC,021641.500,A,4305.2612,N,07740.3928,W,15.60,90.48,060525,,,A*7B
$GPGGA,021641.750,4305.2612,N,07740.3913,W,1,04,2.12,175.8,M,-34.4,M,,*55
$GPRMC,021642.000,A,4305.2612,N,07740.3898,W,16.02,89.60,060525,,,A*72
$GPGGA,021642.250,4305.2612,N,07740.3882,W,1,04,2.12,175.7,M,-34.4,M,,*55
$GPRMC,021642.500,A,4305.2612,N,07740.3865,W,16.75,88.58,060525,,,A*7F
$GPGGA,021642.750,4305.2612,N,07740.3849,W,1,04,2.12,175.6,M,-34.4,M,,*56
$GPRMC,021643.000,A,4305.2612,N,07740.3831,W,17.42,87.65,060525,,,A*7E
$GPGGA,021643.250,4305.2613,N,07740.3814,W,1,04,2.12,175.5,M,-34.4,M,,*58
$GPRMC,021643.500,A,4305.2614,N,07740.3797,W,17.97,86.31,060525,,,A*76
$GPGGA,021643.750,4305.2614,N,07740.3779,W,1,04,2.12,175.5,M,-34.4,M,,*5E
$GPRMC,021644.000,A,4305.2614,N,07740.3761,W,18.47,86.07,060525,,,A*7A
$GPGGA,021644.250,4305.2615,N,07740.3743,W,1,04,2.12,175.4,M,-34.4,M,,*55
$GPRMC,021644.500,A,4305.2615,N,07740.3724,W,18.77,86.30,060525,,,A*78
$GPGGA,021644.750,4305.2615,N,07740.3706,W,1,04,2.12,175.3,M,-34.4,M,,*56
$GPRMC,021645.000,A,4305.2615,N,07740.3687,W,19.18,86.73,060525,,,A*7B
$GPGGA,021645.250,4305.2615,N,07740.3668,W,1,04,2.12,175.2,M,-34.4,M,,*5A
$GPRMC,021645.500,A,4305.2616,N,07740.3649,W,19.62,86.82,060525,,,A*7C
$GPGGA,021645.750,4305.2616,N,07740.3630,W,1,04,2.12,175.2,M,-34.4,M,,*51
$GPRMC,021646.000,A,4305.2617,N,07740.3610,W,19.96,86.88,060525,,,A*76
$GPGGA,021646.250,4305.2617,N,07740.3591,W,1,04,2.12,175.1,M,-34.4,M,,*5D
$GPRMC,021646.500,A,4305.2617,N,07740.3571,W,20.28,86.94,060525,,,A*75
$GPGGA,021646.750,4305.2618,N,07740.3551,W,1,04,2.12,175.0,M,-34.4,M,,*5A
$GPRMC,021647.000,A,4305.2619,N,07740.3531,W,20.53,86.57,060525,,,A*78
$GPGGA,021647.250,4305.2621,N,07740.3511,W,1,04,2.32,174.9,M,-34.4,M,,*5A
$GPRMC,021647.500,A,4305.2622,N,07740.3490,W,20.77,85.90,060525,,,A*71
$GPGGA,021647.750,4305.2623,N,07740.3470,W,1,04,2.12,174.9,M,-34.4,M,,*59
$GPRMC,021648.000,A,4305.2625,N,07740.3449,W,21.17,85.55,060525,,,A*76
$GPGGA,021648.250,4305.2626,N,07740.3428,W,1,04,2.12,174.8,M,-34.4,M,,*5A
$GPRMC,021648.500,A,4305.2627,N,07740.3408,W,21.29,85.29,060525,,,A*72
$GPGGA,021648.750,4305.2629,N,07740.3387,W,1,04,2.12,174.7,M,-34.4,M,,*5D
$GPRMC,021649.000,A,4305.2630,N,07740.3366,W,21.42,85.07,060525,,,A*7E
$GPGGA,021649.250,4305.2632,N,07740.3345,W,1,04,2.12,174.6,M,-34.4,M,,*5C
$GPRMC,021649.500,A,4305.2633,N,07740.3324,W,21.61,84.56,060525,,,A*7A
$GPGGA,021649.750,4305.2635,N,07740.3304,W,1,04,2.12,174.5,M,-34.4,M,,*58
$GPRMC,021650.000,A,4305.2638,N,07740.3283,W,21.60,84.19,060525,,,A*7A
$GPGGA,021650.250,4305.2640,N,07740.3262,W,1,04,2.12,174.4,M,-34.4,M,,*57
$GPRMC,021650.500,A,4305.2643,N,07740.3242,W,21.69,83.45,060525,,,A*79
$GPGGA,021650.750,4305.2645,N,07740.3221,W,1,04,2.12,174.3,M,-34.4,M,,*57
$GPRMC,021651.000,A,4305.2647,N,07740.3200,W,22.02,83.33,060525,,,A*70
$GPGGA,021651.250,4305.2648,N,07740.3179,W,1,04,2.32,174.2,M,-34.4,M,,*53
$GPRMC,021651.500,A,4305.2650,N,07740.3158,W,22.45,83.16,060525,,,A*79
$GPGGA,021651.750,4305.2652,N,07740.3136,W,1,04,2.12,174.1,M,-34.4,M,,*57
$GPRMC,021652.000,A,4305.2655,N,07740.3115,W,22.71,82.51,060525,,,A*76
$GPGGA,021652.250,4305.2657,N,07740.3093,W,1,04,2.12,173.9,M,-34.4,M,,*55
$GPRMC,021652.500,A,4305.2660,N,07740.3072,W,22.67,81.91,060525,,,A*7D
$GPGGA,021652.750,4305.2662,N,07740.3051,W,1,04,2.12,173.8,M,-34.4,M,,*59
$GPRMC,021653.000,A,4305.2664,N,07740.3030,W,22.40,81.73,060525,,,A*72
$GPGGA,021653.250,4305.2666,N,07740.3009,W,1,04,2.12,173.7,M,-34.4,M,,*5B
$GPRMC,021653.500,A,4305.2669,N,07740.2989,W,22.28,81.62,060525,,,A*7E
$GPGGA,021653.750,4305.2671,N,07740.2968,W,1,04,2.12,173.6,M,-34.4,M,,*56
$GPRMC,021654.000,A,4305.2674,N,07740.2947,W,22.24,81.20,060525,,,A*78
$GPGGA,021654.250,4305.2677,N,07740.2927,W,1,04,2.12,173.5,M,-34.4,M,,*5A
$GPRMC,021654.500,A,4305.2681,N,07740.2906,W,22.14,80.66,060525,,,A*72
$GPGGA,021654.750,4305.2684,N,07740.2885,W,1,04,2.12,173.4,M,-34.4,M,,*5B
$GPRMC,021655.000,A,4305.2688,N,07740.2865,W,22.17,79.78,060525,,,A*71
$GPGGA,021655.250,4305.2692,N,07740.2844,W,1,04,2.12,173.2,M,-34.4,M,,*53
$GPRMC,021655.500,A,4305.2696,N,07740.2823,W,22.51,78.71,060525,,,A*73
$GPGGA,021655.750,4305.2700,N,07740.2803,W,1,04,2.12,173.1,M,-34.4,M,,*5C
$GPRMC,021656.000,A,4305.2703,N,07740.2782,W,22.54,77.87,060525,,,A*7F
$GPGGA,021656.250,4305.2708,N,07740.2762,W,1,04,2.12,173.0,M,-34.4,M,,*5B
$GPRMC,021656.500,A,4305.2712,N,07740.2743,W,22.47,76.87,060525,,,A*74
$GPGGA,021656.750,4305.2715,N,07740.2722,W,1,04,2.12,172.9,M,-34.4,M,,*5E
$GPRMC,021657.000,A,4305.2719,N,07740.2703,W,22.28,76.01,060525,,,A*78
$GPGGA,021657.250,4305.2724,N,07740.2683,W,1,04,2.12,172.8,M,-34.4,M,,*53
$GPRMC,021657.500,A,4305.2729,N,07740.2663,W,22.32,74.81,060525,,,A*78
$GPGGA,021657.750,4305.2734,N,07740.2642,W,1,04,2.12,172.8,M,-34.4,M,,*5A
$GPRMC,021658.000,A,4305.2739,N,07740.2622,W,22.40,74.15,060525,,,A*7E
$GPGGA,021658.250,4305.2745,N,07740.2602,W,1,04,2.32,172.7,M,-34.4,M,,*5F
$GPRMC,021658.500,A,4305.2751,N,07740.2582,W,22.43,73.08,060525,,,A*74
$GPGGA,021658.750,4305.2756,N,07740.2561,W,1,04,2.12,172.5,M,-34.4,M,,*5E
$GPRMC,021659.000,A,4305.2763,N,07740.2541,W,22.45,72.52,060525,,,A*76
$GPGGA,021659.250,4305.2771,N,07740.2521,W,1,04,2.32,172.3,M,-34.4,M,,*5F
$GPRMC,021659.500,A,4305.2779,N,07740.2502,W,22.71,70.16,060525,,,A*7A
$GPGGA,021659.750,4305.2786,N,07740.2482,W,1,04,2.12,172.1,M,-34.4,M,,*5A
$GPRMC,021700.000,A,4305.2794,N,07740.2462,W,22.95,69.10,060525,,,A*72
$GPGGA,021700.250,4305.2801,N,07740.2443,W,1,05,2.20,171.7,M,-34.4,M,,*5A
$GPRMC,021700.500,A,4305.2809,N,07740.2423,W,23.02,67.87,060525,,,A*76
$GPGGA,021700.750,4305.2816,N,07740.2403,W,1,05,2.20,171.2,M,-34.4,M,,*58
$GPRMC,021701.000,A,4305.2823,N,07740.2383,W,23.12,66.93,060525,,,A*72
$GPGGA,021701.250,4305.2831,N,07740.2364,W,1,05,2.20,171.0,M,-34.4,M,,*5D
$GPRMC,021701.500,A,4305.2840,N,07740.2344,W,23.43,65.71,060525,,,A*72
$GPGGA,021701.750,4305.2849,N,07740.2324,W,1,05,2.20,170.7,M,-34.4,M,,*55
$GPRMC,021702.000,A,4305.2859,N,07740.2305,W,23.77,63.87,060525,,,A*71
$GPGGA,021702.250,4305.2869,N,07740.2285,W,1,05,2.20,170.3,M,-34.4,M,,*5F
$GPRMC,021702.500,A,4305.2878,N,07740.2264,W,24.22,62.30,060525,,,A*7B
$GPGGA,021702.750,4305.2888,N,07740.2244,W,1,05,2.20,170.0,M,-34.4,M,,*5B
$GPRMC,021703.000,A,4305.2897,N,07740.2224,W,24.45,61.14,060525,,,A*7E
$GPGGA,021703.250,4305.2908,N,07740.2204,W,1,05,2.20,169.8,M,-34.4,M,,*52
$GPRMC,021703.500,A,4305.2917,N,07740.2184,W,24.54,60.41,060525,,,A*7A
$GPGGA,021703.750,4305.2926,N,07740.2165,W,1,05,2.20,169.5,M,-34.4,M,,*52
$GPRMC,021704.000,A,4305.2934,N,07740.2145,W,24.59,60.22,060525,,,A*7C
$GPGGA,021704.250,4305.2942,N,07740.2125,W,1,05,2.20,169.2,M,-34.4,M,,*51
$GPRMC,021704.500,A,4305.2950,N,07740.2106,W,24.21,60.12,060525,,,A*70
$GPGGA,021704.750,4305.2958,N,07740.2086,W,1,05,2.20,168.9,M,-34.4,M,,*5D
$GPRMC,021705.000,A,4305.2967,N,07740.2067,W,24.19,59.68,060525,,,A*7A
$GPGGA,021705.250,4305.2976,N,07740.2047,W,1,05,2.20,168.6,M,-34.4,M,,*57
$GPRMC,021705.500,A,4305.2985,N,07740.2028,W,24.26,59.45,060525,,,A*7B
$GPGGA,021705.750,4305.2994,N,07740.2009,W,1,05,2.04,168.3,M,-34.4,M,,*57
$GPRMC,021706.000,A,4305.3003,N,07740.1990,W,24.32,59.20,060525,,,A*74
$GPGGA,021706.250,4305.3013,N,07740.1971,W,1,05,2.20,168.0,M,-34.4,M,,*56
$GPRMC,021706.500,A,4305.3022,N,07740.1951,W,24.44,58.80,060525,,,A*75
$GPGGA,021706.750,4305.3031,N,07740.1932,W,1,05,2.04,167.7,M,-34.4,M,,*5A
$GPRMC,021707.000,A,4305.3039,N,07740.1912,W,24.50,59.09,060525,,,A*79
$GPGGA,021707.250,4305.3047,N,07740.1892,W,1,05,2.20,167.5,M,-34.4,M,,*50
$GPRMC,021707.500,A,4305.3055,N,07740.1872,W,24.25,59.89,060525,,,A*7B
$GPGGA,021707.750,4305.3064,N,07740.1853,W,1,05,2.04,167.2,M,-34.4,M,,*58
$GPRMC,021708.000,A,4305.3073,N,07740.1833,W,24.26,59.90,060525,,,A*7B
$GPGGA,021708.250,4305.3083,N,07740.1814,W,1,05,2.20,166.9,M,-34.4,M,,*54
$GPRMC,021708.500,A,4305.3092,N,07740.1795,W,24.41,59.48,060525,,,A*76
$GPGGA,021708.750,4305.3101,N,07740.1775,W,1,05,2.04,166.5,M,-34.4,M,,*58
$GPRMC,021709.000,A,4305.3110,N,07740.1755,W,24.60,59.99,060525,,,A*7A
$GPGGA,021709.250,4305.3118,N,07740.1735,W,1,05,2.19,166.2,M,-34.4,M,,*5B
$GPRMC,021709.500,A,4305.3128,N,07740.1715,W,24.55,60.07,060525,,,A*7B
$GPGGA,021709.750,4305.3137,N,07740.1695,W,1,05,2.04,166.1,M,-34.4,M,,*57
$GPRMC,021710.000,A,4305.3146,N,07740.1675,W,24.49,59.79,060525,,,A*77
$GPGGA,021710.250,4305.3155,N,07740.1656,W,1,05,2.20,165.9,M,-34.4,M,,*5C
$GPRMC,021710.500,A,4305.3163,N,07740.1636,W,24.12,59.97,060525,,,A*7C
$GPGGA,021710.750,4305.3172,N,07740.1617,W,1,05,2.19,165.9,M,-34.4,M,,*53
$GPRMC,021711.000,A,4305.3181,N,07740.1598,W,23.87,59.87,060525,,,A*79
$GPGGA,021711.250,4305.3191,N,07740.1579,W,1,05,2.19,165.8,M,-34.4,M,,*50
$GPRMC,021711.500,A,4305.3200,N,07740.1560,W,23.72,59.35,060525,,,A*72
$GPGGA,021711.750,4305.3208,N,07740.1540,W,1,05,2.19,165.7,M,-34.4,M,,*53
$GPRMC,021712.000,A,4305.3216,N,07740.1522,W,23.41,60.01,060525,,,A*78
$GPGGA,021712.250,4305.3225,N,07740.1503,W,1,05,2.19,165.6,M,-34.4,M,,*5C
$GPRMC,021712.500,A,4305.3233,N,07740.1485,W,22.96,59.69,060525,,,A*79
$GPGGA,021712.750,4305.3242,N,07740.1467,W,1,05,2.19,165.3,M,-34.4,M,,*5E
$GPRMC,021713.000,A,4305.3251,N,07740.1449,W,22.70,59.69,060525,,,A*71
$GPGGA,021713.250,4305.3259,N,07740.1431,W,1,05,2.19,165.0,M,-34.4,M,,*50
$GPRMC,021713.500,A,4305.3267,N,07740.1414,W,22.34,59.85,060525,,,A*7B
$GPGGA,021713.750,4305.3275,N,07740.1397,W,1,05,2.19,164.6,M,-34.4,M,,*57
$GPRMC,021714.000,A,4305.3282,N,07740.1380,W,21.75,60.01,060525,,,A*78
$GPGGA,021714.250,4305.3289,N,07740.1363,W,1,05,2.19,164.4,M,-34.4,M,,*5F
$GPRMC,021714.500,A,4305.3296,N,07740.1346,W,21.21,60.49,060525,,,A*7F
$GPGGA,021714.750,4305.3304,N,07740.1329,W,1,05,2.04,164.2,M,-34.4,M,,*5A
$GPRMC,021715.000,A,4305.3311,N,07740.1312,W,21.12,60.42,060525,,,A*7F
$GPGGA,021715.250,4305.3319,N,07740.1295,W,1,05,2.19,164.1,M,-34.4,M,,*5B
$GPRMC,021715.500,A,4305.3327,N,07740.1279,W,20.82,60.35,060525,,,A*7B
$GPGGA,021715.750,4305.3334,N,07740.1262,W,1,05,2.04,164.0,M,-34.4,M,,*54
$GPRMC,021716.000,A,4305.3341,N,07740.1244,W,20.57,61.27,060525,,,A*79
$GPGGA,021716.250,4305.3347,N,07740.1227,W,1,05,2.19,164.0,M,-34.4,M,,*5B
$GPRMC,021716.500,A,4305.3353,N,07740.1209,W,20.35,62.90,060525,,,A*7D
$GPGGA,021716.750,4305.3359,N,07740.1192,W,1,05,2.04,164.0,M,-34.4,M,,*50
$GPRMC,021717.000,A,4305.3364,N,07740.1174,W,20.23,64.26,060525,,,A*78
$GPGGA,021717.250,4305.3369,N,07740.1156,W,1,05,2.19,163.9,M,-34.4,M,,*5D
$GPRMC,021717.500,A,4305.3374,N,07740.1139,W,20.24,65.66,060525,,,A*77
$GPGGA,021717.750,4305.3380,N,07740.1121,W,1,05,2.04,163.8,M,-34.4,M,,*52
$GPRMC,021718.000,A,4305.3385,N,07740.1102,W,20.50,66.44,060525,,,A*7B
$GPGGA,021718.250,4305.3391,N,07740.1084,W,1,05,2.19,163.8,M,-34.4,M,,*5A
$GPRMC,021718.500,A,4305.3395,N,07740.1065,W,20.56,67.68,060525,,,A*76
$GPGGA,021718.750,4305.3399,N,07740.1046,W,1,05,2.04,163.7,M,-34.4,M,,*5A
$GPRMC,021719.000,A,4305.3402,N,07740.1028,W,20.35,69.97,060525,,,A*79
$GPGGA,021719.250,4305.3404,N,07740.1010,W,1,05,2.19,163.6,M,-34.4,M,,*53
$GPRMC,021719.500,A,4305.3405,N,07740.0991,W,19.56,73.51,060525,,,A*7F
$GPGGA,021719.750,4305.3406,N,07740.0973,W,1,05,2.04,163.6,M,-34.4,M,,*55
$GPRMC,021720.000,A,4305.3408,N,07740.0955,W,19.15,77.07,060525,,,A*75
$GPGGA,021720.250,4305.3410,N,07740.0937,W,1,05,2.19,163.5,M,-34.4,M,,*52
$GPRMC,021720.500,A,4305.3412,N,07740.0919,W,18.68,78.29,060525,,,A*7B
$GPGGA,021720.750,4305.3413,N,07740.0902,W,1,05,2.19,163.3,M,-34.4,M,,*54
$GPRMC,021721.000,A,4305.3415,N,07740.0884,W,18.19,80.07,060525,,,A*70
$GPGGA,021721.250,4305.3416,N,07740.0867,W,1,05,2.19,163.2,M,-34.4,M,,*56
$GPRMC,021721.500,A,4305.3417,N,07740.0850,W,17.83,81.88,060525,,,A*74
$GPGGA,021721.750,4305.3418,N,07740.0834,W,1,05,2.04,163.1,M,-34.4,M,,*54
$GPRMC,021722.000,A,4305.3419,N,07740.0817,W,17.52,82.46,060525,,,A*72
$GPGGA,021722.250,4305.3421,N,07740.0801,W,1,05,2.19,163.0,M,-34.4,M,,*53
$GPRMC,021722.500,A,4305.3423,N,07740.0785,W,17.13,81.97,060525,,,A*70
$GPGGA,021722.750,4305.3425,N,07740.0769,W,1,05,2.19,162.8,M,-34.4,M,,*5A
$GPRMC,021723.000,A,4305.3427,N,07740.0753,W,16.84,81.40,060525,,,A*7E
$GPGGA,021723.250,4305.3429,N,07740.0738,W,1,05,2.19,162.7,M,-34.4,M,,*59
$GPRMC,021723.500,A,4305.3433,N,07740.0723,W,16.63,79.85,060525,,,A*7E
$GPGGA,021723.750,4305.3438,N,07740.0708,W,1,05,2.19,162.6,M,-34.4,M,,*5E
$GPRMC,021724.000,A,4305.3444,N,07740.0694,W,16.42,75.31,060525,,,A*71
$GPGGA,021724.250,4305.3451,N,07740.0680,W,1,05,2.19,162.4,M,-34.4,M,,*50
$GPRMC,021724.500,A,4305.3457,N,07740.0666,W,16.35,70.48,060525,,,A*70
$GPGGA,021724.750,4305.3462,N,07740.0652,W,1,05,2.19,162.3,M,-34.4,M,,*5D
$GPRMC,021725.000,A,4305.3467,N,07740.0639,W,16.09,67.25,060525,,,A*7F
$GPGGA,021725.250,4305.3472,N,07740.0627,W,1,05,2.19,162.2,M,-34.4,M,,*5B
$GPRMC,021725.500,A,4305.3478,N,07740.0616,W,15.47,62.77,060525,,,A*72
$GPGGA,021725.750,4305.3484,N,07740.0604,W,1,05,2.19,162.1,M,-34.4,M,,*55
$GPRMC,021726.000,A,4305.3497,N,07740.0596,W,15.17,53.13,060525,,,A*7B
$GPGGA,021726.250,4305.3508,N,07740.0588,W,1,05,2.19,161.8,M,-34.4,M,,*5B
$GPRMC,021726.500,A,4305.3520,N,07740.0581,W,15.00,40.30,060525,,,A*70
$GPGGA,021726.750,4305.3530,N,07740.0572,W,1,05,2.04,161.7,M,-34.4,M,,*53
$GPRMC,021727.000,A,4305.3541,N,07740.0565,W,15.74,34.93,060525,,,A*70
$GPGGA,021727.250,4305.3552,N,07740.0558,W,1,05,2.19,161.7,M,-34.4,M,,*57
$GPRMC,021727.500,A,4305.3562,N,07740.0551,W,16.34,29.97,060525,,,A*7C
$GPGGA,021727.750,4305.3572,N,07740.0544,W,1,05,2.03,161.6,M,-34.4,M,,*57
$GPRMC,021728.000,A,4305.3581,N,07740.0537,W,16.51,27.86,060525,,,A*76
$GPGGA,021728.250,4305.3591,N,07740.0530,W,1,05,2.19,161.5,M,-34.4,M,,*5B
$GPRMC,021728.500,A,4305.3601,N,07740.0524,W,16.81,25.24,060525,,,A*7D
$GPGGA,021728.750,4305.3612,N,07740.0518,W,1,05,2.03,161.4,M,-34.4,M,,*56
$GPRMC,021729.000,A,4305.3622,N,07740.0512,W,16.91,23.99,060525,,,A*7C
$GPGGA,021729.250,4305.3632,N,07740.0505,W,1,05,2.19,161.3,M,-34.4,M,,*50
$GPRMC,021729.500,A,4305.3642,N,07740.0499,W,17.18,23.91,060525,,,A*75
$GPGGA,021729.750,4305.3653,N,07740.0493,W,1,05,2.03,161.2,M,-34.4,M,,*56
$GPRMC,021730.000,A,4305.3663,N,07740.0486,W,17.40,24.75,060525,,,A*75
$GPGGA,021730.250,4305.3674,N,07740.0480,W,1,05,2.19,161.1,M,-34.4,M,,*54
$GPRMC,021730.500,A,4305.3685,N,07740.0474,W,17.90,25.06,060525,,,A*7D
$GPGGA,021730.750,4305.3696,N,07740.0467,W,1,05,2.03,161.1,M,-34.4,M,,*5F
$GPRMC,021731.000,A,4305.3707,N,07740.0460,W,18.36,25.35,060525,,,A*74
$GPGGA,021731.250,4305.3719,N,07740.0453,W,1,05,2.19,161.1,M,-34.4,M,,*51
$GPRMC,021731.500,A,4305.3730,N,07740.0446,W,18.94,25.18,060525,,,A*76
$GPGGA,021731.750,4305.3742,N,07740.0439,W,1,05,2.03,161.1,M,-34.4,M,,*5D
$GPRMC,021732.000,A,4305.3753,N,07740.0431,W,19.17,25.60,060525,,,A*70
$GPGGA,021732.250,4305.3765,N,07740.0423,W,1,05,2.19,161.0,M,-34.4,M,,*5F
$GPRMC,021732.500,A,4305.3776,N,07740.0416,W,19.42,25.89,060525,,,A*70
$GPGGA,021732.750,4305.3788,N,07740.0408,W,1,05,2.03,161.1,M,-34.4,M,,*5A
$GPRMC,021733.000,A,4305.3800,N,07740.0399,W,19.63,26.21,060525,,,A*78
$GPGGA,021733.250,4305.3812,N,07740.0391,W,1,05,2.19,161.0,M,-34.4,M,,*5F
$GPRMC,021733.500,A,4305.3825,N,07740.0384,W,20.14,25.38,060525,,,A*77
$GPGGA,021733.750,4305.3838,N,07740.0377,W,1,05,2.19,161.0,M,-34.4,M,,*5A
$GPRMC,021734.000,A,4305.3851,N,07740.0369,W,20.40,24.15,060525,,,A*7A
$GPGGA,021734.250,4305.3864,N,07740.0362,W,1,05,2.19,161.0,M,-34.4,M,,*55
$GPRMC,021734.500,A,4305.3877,N,07740.0355,W,20.85,23.96,060525,,,A*71
$GPGGA,021734.750,4305.3890,N,07740.0347,W,1,05,2.03,161.0,M,-34.4,M,,*57
$GPRMC,021735.000,A,4305.3904,N,07740.0340,W,20.95,24.03,060525,,,A*7E
$GPGGA,021735.250,4305.3917,N,07740.0333,W,1,05,2.19,161.0,M,-34.4,M,,*55
$GPRMC,021735.500,A,4305.3930,N,07740.0326,W,21.35,24.22,060525,,,A*74
$GPGGA,021735.750,4305.3944,N,07740.0318,W,1,05,2.03,160.9,M,-34.4,M,,*5C
$GPRMC,021736.000,A,4305.3958,N,07740.0310,W,21.59,24.13,060525,,,A*71
$GPGGA,021736.250,4305.3972,N,07740.0303,W,1,05,2.19,160.9,M,-34.4,M,,*5E
$GPRMC,021736.500,A,4305.3985,N,07740.0295,W,21.80,24.08,060525,,,A*76
$GPGGA,021736.750,4305.3999,N,07740.0288,W,1,05,2.03,160.9,M,-34.4,M,,*57
$GPRMC,021737.000,A,4305.4013,N,07740.0280,W,21.87,24.28,060525,,,A*72
$GPGGA,021737.250,4305.4027,N,07740.0272,W,1,05,2.19,160.8,M,-34.4,M,,*57
$GPRMC,021737.500,A,4305.4041,N,07740.0264,W,21.87,24.61,060525,,,A*77
$GPGGA,021737.750,4305.4055,N,07740.0256,W,1,05,2.03,160.8,M,-34.4,M,,*5A
$GPRMC,021738.000,A,4305.4069,N,07740.0248,W,22.07,24.89,060525,,,A*74
$GPGGA,021738.250,4305.4083,N,07740.0240,W,1,05,2.19,160.8,M,-34.4,M,,*57
$GPRMC,021738.500,A,4305.4099,N,07740.0232,W,22.61,24.66,060525,,,A*72
$GPGGA,021738.750,4305.4113,N,07740.0224,W,1,05,2.03,160.7,M,-34.4,M,,*5C
$GPRMC,021739.000,A,4305.4129,N,07740.0216,W,23.04,24.36,060525,,,A*7D
$GPGGA,021739.250,4305.4144,N,07740.0209,W,1,05,2.19,160.7,M,-34.4,M,,*5E
$GPRMC,021739.500,A,4305.4159,N,07740.0201,W,23.24,23.93,060525,,,A*73
$GPGGA,021739.750,4305.4174,N,07740.0193,W,1,05,2.03,160.7,M,-34.4,M,,*53
$GPRMC,021740.000,A,4305.4189,N,07740.0186,W,23.16,23.56,060525,,,A*71
$GPGGA,021740.250,4305.4204,N,07740.0179,W,1,05,2.19,160.7,M,-34.4,M,,*53
$GPRMC,021740.500,A,4305.4218,N,07740.0173,W,22.73,23.22,060525,,,A*74
$GPGGA,021740.750,4305.4233,N,07740.0165,W,1,05,2.03,160.7,M,-34.4,M,,*54
$GPRMC,021741.000,A,4305.4247,N,07740.0158,W,22.71,24.01,060525,,,A*77
$GPGGA,021741.250,4305.4261,N,07740.0151,W,1,05,2.19,160.7,M,-34.4,M,,*5B
$GPRMC,021741.500,A,4305.4276,N,07740.0143,W,22.73,24.00,060525,,,A*79
$GPGGA,021741.750,4305.4291,N,07740.0135,W,1,05,2.03,160.7,M,-34.4,M,,*58
$GPRMC,021742.000,A,4305.4306,N,07740.0127,W,22.80,24.17,060525,,,A*71
$GPGGA,021742.250,4305.4320,N,07740.0118,W,1,05,2.19,160.7,M,-34.4,M,,*51
$GPRMC,021742.500,A,4305.4335,N,07740.0110,W,23.08,24.46,060525,,,A*75
$GPGGA,021742.750,4305.4349,N,07740.0101,W,1,05,2.19,160.7,M,-34.4,M,,*53
$GPRMC,021743.000,A,4305.4364,N,07740.0092,W,23.12,24.61,060525,,,A*70
$GPGGA,021743.250,4305.4379,N,07740.0083,W,1,05,2.19,160.7,M,-34.4,M,,*5F
$GPRMC,021743.500,A,4305.4394,N,07740.0075,W,23.41,24.93,060525,,,A*78
$GPGGA,021743.750,4305.4408,N,07740.0066,W,1,05,2.19,160.7,M,-34.4,M,,*50
$GPRMC,021744.000,A,4305.4423,N,07740.0057,W,23.70,24.65,060525,,,A*7A
$GPGGA,021744.250,4305.4438,N,07740.0048,W,1,05,2.19,160.7,M,-34.4,M,,*5D
$GPRMC,021744.500,A,4305.4454,N,07740.0040,W,23.97,24.63,060525,,,A*76
$GPGGA,021744.750,4305.4469,N,07740.0031,W,1,05,2.03,160.7,M,-34.4,M,,*59
$GPRMC,021745.000,A,4305.4484,N,07740.0023,W,24.04,24.41,060525,,,A*77
$GPGGA,021745.250,4305.4499,N,07740.0015,W,1,05,2.19,160.7,M,-34.4,M,,*5F
$GPRMC,021745.500,A,4305.4515,N,07740.0008,W,23.98,23.92,060525,,,A*79
$GPGGA,021745.750,4305.4530,N,07739.9999,W,1,05,2.03,160.8,M,-34.4,M,,*56
$GPRMC,021746.000,A,4305.4545,N,07739.9991,W,23.75,23.93,060525,,,A*76
$GPGGA,021746.250,4305.4560,N,07739.9983,W,1,05,2.19,160.7,M,-34.4,M,,*5A
$GPRMC,021746.500,A,4305.4576,N,07739.9975,W,23.77,23.84,060525,,,A*7D
$GPGGA,021746.750,4305.4591,N,07739.9966,W,1,05,2.03,160.7,M,-34.4,M,,*51
$GPRMC,021747.000,A,4305.4607,N,07739.9958,W,23.86,23.46,060525,,,A*73
$GPGGA,021747.250,4305.4623,N,07739.9950,W,1,05,2.19,160.6,M,-34.4,M,,*50
$GPRMC,021747.500,A,4305.4638,N,07739.9942,W,24.12,23.13,060525,,,A*7B
$GPGGA,021747.750,4305.4654,N,07739.9934,W,1,05,2.03,160.6,M,-34.4,M,,*5C
$GPRMC,021748.000,A,4305.4671,N,07739.9926,W,24.47,22.84,060525,,,A*71
$GPGGA,021748.250,4305.4687,N,07739.9918,W,1,05,2.19,160.7,M,-34.4,M,,*5C
$GPRMC,021748.500,A,4305.4704,N,07739.9911,W,25.25,22.87,060525,,,A*75
$GPGGA,021748.750,4305.4720,N,07739.9902,W,1,05,2.19,160.8,M,-34.4,M,,*51
$GPRMC,021749.000,A,4305.4738,N,07739.9893,W,25.93,23.10,060525,,,A*77
$GPGGA,021749.250,4305.4755,N,07739.9885,W,1,05,2.19,160.9,M,-34.4,M,,*58
$GPRMC,021749.500,A,4305.4772,N,07739.9876,W,26.17,23.38,060525,,,A*72
$GPGGA,021749.750,4305.4789,N,07739.9867,W,1,05,2.03,161.0,M,-34.4,M,,*53
$GPRMC,021750.000,A,4305.4807,N,07739.9858,W,26.44,23.57,060525,,,A*71
$GPGGA,021750.250,4305.4824,N,07739.9849,W,1,05,2.19,161.2,M,-34.4,M,,*53
$GPRMC,021750.500,A,4305.4841,N,07739.9840,W,27.11,24.46,060525,,,A*79
$GPGGA,021750.750,4305.4858,N,07739.9830,W,1,05,2.03,161.3,M,-34.4,M,,*59
$GPRMC,021751.000,A,4305.4876,N,07739.9821,W,27.45,24.21,060525,,,A*7E
$GPGGA,021751.250,4305.4894,N,07739.9813,W,1,05,2.19,161.4,M,-34.4,M,,*50
$GPRMC,021751.500,A,4305.4911,N,07739.9805,W,27.64,24.09,060525,,,A*74
$GPGGA,021751.750,4305.4929,N,07739.9794,W,1,05,2.03,161.5,M,-34.4,M,,*58
$GPRMC,021752.000,A,4305.4947,N,07739.9784,W,27.72,24.47,060525,,,A*7A
$GPGGA,021752.250,4305.4964,N,07739.9773,W,1,05,2.19,161.7,M,-34.4,M,,*57
$GPRMC,021752.500,A,4305.4981,N,07739.9762,W,27.74,25.34,060525,,,A*7E
$GPGGA,021752.750,4305.4999,N,07739.9751,W,1,05,2.03,161.8,M,-34.4,M,,*54
$GPRMC,021753.000,A,4305.5016,N,07739.9740,W,27.77,25.78,060525,,,A*77
$GPGGA,021753.250,4305.5033,N,07739.9729,W,1,05,2.19,162.0,M,-34.4,M,,*57
$GPRMC,021753.500,A,4305.5051,N,07739.9718,W,27.45,25.61,060525,,,A*75
$GPGGA,021753.750,4305.5068,N,07739.9708,W,1,05,2.02,162.1,M,-34.4,M,,*54
$GPRMC,021754.000,A,4305.5085,N,07739.9697,W,27.05,24.82,060525,,,A*70
$GPGGA,021754.250,4305.5102,N,07739.9687,W,1,05,2.19,162.3,M,-34.4,M,,*55
$GPRMC,021754.500,A,4305.5119,N,07739.9678,W,26.45,24.00,060525,,,A*7F
$GPGGA,021754.750,4305.5136,N,07739.9668,W,1,05,2.03,162.4,M,-34.4,M,,*5A
$GPRMC,021755.000,A,4305.5152,N,07739.9659,W,25.96,23.22,060525,,,A*7D
$GPGGA,021755.250,4305.5169,N,07739.9650,W,1,05,2.19,162.6,M,-34.4,M,,*56
$GPRMC,021755.500,A,4305.5185,N,07739.9641,W,25.64,22.63,060525,,,A*72
$GPGGA,021755.750,4305.5201,N,07739.9631,W,1,05,2.03,162.7,M,-34.4,M,,*53
$GPRMC,021756.000,A,4305.5217,N,07739.9622,W,25.23,22.35,060525,,,A*79
$GPGGA,021756.250,4305.5233,N,07739.9613,W,1,05,2.19,162.9,M,-34.4,M,,*51
$GPRMC,021756.500,A,4305.5248,N,07739.9605,W,24.40,22.24,060525,,,A*77
$GPGGA,021756.750,4305.5263,N,07739.9596,W,1,05,2.02,163.0,M,-34.4,M,,*5D
$GPRMC,021757.000,A,4305.5278,N,07739.9588,W,23.71,22.00,060525,,,A*75
$GPGGA,021757.250,4305.5292,N,07739.9580,W,1,05,2.19,163.2,M,-34.4,M,,*58
$GPRMC,021757.500,A,4305.5306,N,07739.9572,W,22.76,21.64,060525,,,A*7A
$GPGGA,021757.750,4305.5320,N,07739.9565,W,1,05,2.18,163.3,M,-34.4,M,,*5E
$GPRMC,021758.000,A,4305.5333,N,07739.9558,W,21.75,21.47,060525,,,A*7F
$GPGGA,021758.250,4305.5346,N,07739.9550,W,1,05,2.18,163.4,M,-34.4,M,,*55
$GPRMC,021758.500,A,4305.5357,N,07739.9543,W,19.98,21.97,060525,,,A*77
$GPGGA,021758.750,4305.5368,N,07739.9535,W,1,05,2.18,163.5,M,-34.4,M,,*5E
$GPRMC,021759.000,A,4305.5378,N,07739.9528,W,18.11,22.87,060525,,,A*71
$GPGGA,021759.250,4305.5387,N,07739.9522,W,1,05,2.18,163.6,M,-34.4,M,,*5E
$GPRMC,021759.500,A,4305.5396,N,07739.9516,W,15.86,23.91,060525,,,A*7C
$GPGGA,021759.750,4305.5404,N,07739.9510,W,1,05,2.02,163.8,M,-34.4,M,,*53
$GPRMC,021800.000,A,4305.5412,N,07739.9505,W,13.90,24.42,060525,,,A*7B
$GPGGA,021800.250,4305.5421,N,07739.9510,W,1,06,1.93,163.5,M,-34.4,M,,*57
$GPRMC,021800.500,A,4305.5428,N,07739.9515,W,11.51,21.45,060525,,,A*7B
$GPGGA,021800.750,4305.5435,N,07739.9518,W,1,06,1.93,162.9,M,-34.4,M,,*52
$GPRMC,021801.000,A,4305.5441,N,07739.9521,W,9.01,18.67,060525,,,A*41
$GPGGA,021801.250,4305.5445,N,07739.9525,W,1,06,1.93,162.6,M,-34.4,M,,*50
$GPRMC,021801.500,A,4305.5449,N,07739.9526,W,6.83,20.77,060525,,,A*44
$GPGGA,021801.750,4305.5453,N,07739.9528,W,1,06,1.93,162.2,M,-34.4,M,,*5B
$GPRMC,021802.000,A,4305.5457,N,07739.9530,W,5.13,24.42,060525,,,A*42
$GPGGA,021802.250,4305.5459,N,07739.9531,W,1,06,1.93,161.8,M,-34.4,M,,*56
$GPRMC,021802.500,A,4305.5461,N,07739.9532,W,3.47,26.59,060525,,,A*4F
$GPGGA,021802.750,4305.5462,N,07739.9532,W,1,06,1.63,161.6,M,-34.4,M,,*59
$GPRMC,021803.000,A,4305.5464,N,07739.9532,W,2.73,28.03,060525,,,A*49
$GPGGA,021803.250,4305.5465,N,07739.9533,W,1,06,1.63,161.4,M,-34.4,M,,*59
$GPRMC,021803.500,A,4305.5465,N,07739.9534,W,1.70,28.03,060525,,,A*4B
$GPGGA,021803.750,4305.5466,N,07739.9535,W,1,06,1.63,161.2,M,-34.4,M,,*5F
$GPRMC,021808.250,A,4305.5470,N,07739.9532,W,2.66,60.44,060525,,,A*4B
$GPGGA,021808.500,4305.5473,N,07739.9526,W,1,06,1.63,161.3,M,-34.4,M,,*54
$GPRMC,021808.750,A,4305.5476,N,07739.9519,W,5.74,62.54,060525,,,A*46
$GPGGA,021809.000,4305.5478,N,07739.9513,W,1,06,1.63,161.3,M,-34.4,M,,*5D
$GPRMC,021809.250,A,4305.5483,N,07739.9500,W,8.98,67.72,060525,,,A*4E
$GPGGA,021809.500,4305.5485,N,07739.9488,W,1,06,1.93,161.2,M,-34.4,M,,*57
$GPRMC,021809.750,A,4305.5492,N,07739.9473,W,12.22,68.38,060525,,,A*75
$GPGGA,021810.000,4305.5497,N,07739.9458,W,1,06,1.93,161.2,M,-34.4,M,,*54
$GPRMC,021810.250,A,4305.5500,N,07739.9442,W,14.66,72.93,060525,,,A*7C
$GPGGA,021810.500,4305.5501,N,07739.9425,W,1,06,1.93,161.2,M,-34.4,M,,*55
$GPRMC,021810.750,A,4305.5503,N,07739.9408,W,16.60,77.89,060525,,,A*7E
$GPGGA,021811.000,4305.5506,N,07739.9390,W,1,06,1.92,161.3,M,-34.4,M,,*5F
$GPRMC,021811.250,A,4305.5508,N,07739.9371,W,18.43,80.56,060525,,,A*7D
$GPGGA,021811.500,4305.5510,N,07739.9351,W,1,06,1.93,161.4,M,-34.4,M,,*56
$GPRMC,021811.750,A,4305.5512,N,07739.9330,W,20.19,82.87,060525,,,A*7C
$GPGGA,021812.000,4305.5514,N,07739.9308,W,1,06,1.93,161.3,M,-34.4,M,,*5F
$GPRMC,021812.250,A,4305.5516,N,07739.9285,W,22.21,83.67,060525,,,A*77
$GPGGA,021812.500,4305.5516,N,07739.9260,W,1,06,1.93,161.3,M,-34.4,M,,*57
$GPRMC,021812.750,A,4305.5517,N,07739.9236,W,24.28,85.27,060525,,,A*76
$GPGGA,021813.000,4305.5519,N,07739.9210,W,1,06,1.93,161.2,M,-34.4,M,,*5A
$GPRMC,021813.250,A,4305.5521,N,07739.9184,W,25.99,85.49,060525,,,A*7E
$GPGGA,021813.500,4305.5523,N,07739.9158,W,1,06,1.93,161.1,M,-34.4,M,,*5A
$GPRMC,021813.750,A,4305.5525,N,07739.9131,W,27.59,84.55,060525,,,A*73
$GPGGA,021814.000,4305.5527,N,07739.9103,W,1,06,1.93,161.1,M,-34.4,M,,*52
$GPRMC,021814.250,A,4305.5529,N,07739.9074,W,29.13,84.43,060525,,,A*7A
$GPGGA,021814.500,4305.5531,N,07739.9044,W,1,06,1.93,161.2,M,-34.4,M,,*51
$GPRMC,021814.750,A,4305.5533,N,07739.9015,W,30.29,85.12,060525,,,A*77
$GPGGA,021815.000,4305.5535,N,07739.8984,W,1,06,1.93,161.3,M,-34.4,M,,*54
$GPRMC,021815.250,A,4305.5539,N,07739.8953,W,31.51,84.21,060525,,,A*7C
$GPGGA,021815.500,4305.5542,N,07739.8921,W,1,06,1.92,161.2,M,-34.4,M,,*5E
$GPRMC,021815.750,A,4305.5545,N,07739.8889,W,32.38,84.39,060525,,,A*71
$GPGGA,021816.000,4305.5547,N,07739.8857,W,1,06,1.93,161.2,M,-34.4,M,,*5C
$GPRMC,021816.250,A,4305.5548,N,07739.8824,W,33.30,84.98,060525,,,A*7F
$GPGGA,021816.500,4305.5550,N,07739.8791,W,1,06,1.92,161.1,M,-34.4,M,,*58
$GPRMC,021816.750,A,4305.5552,N,07739.8757,W,34.32,85.20,060525,,,A*7D
$GPGGA,021817.000,4305.5555,N,07739.8724,W,1,06,1.92,161.0,M,-34.4,M,,*56
$GPRMC,021817.250,A,4305.5557,N,07739.8689,W,35.28,84.73,060525,,,A*73
$GPGGA,021817.500,4305.5560,N,07739.8655,W,1,06,1.92,160.9,M,-34.4,M,,*5A
$GPRMC,021817.750,A,4305.5562,N,07739.8621,W,35.98,84.20,060525,,,A*7F
$GPGGA,021818.000,4305.5565,N,07739.8585,W,1,06,1.93,160.9,M,-34.4,M,,*5A
$GPRMC,021818.250,A,4305.5567,N,07739.8550,W,36.61,84.26,060525,,,A*76
$GPGGA,021818.500,4305.5569,N,07739.8514,W,1,06,1.92,160.9,M,-34.4,M,,*5A
$GPRMC,021818.750,A,4305.5572,N,07739.8478,W,36.88,84.20,060525,,,A*7D
$GPGGA,021819.000,4305.5574,N,07739.8441,W,1,06,1.92,160.9,M,-34.4,M,,*53
$GPRMC,021819.250,A,4305.5576,N,07739.8404,W,37.17,84.18,060525,,,A*7A
$GPGGA,021819.500,4305.5579,N,07739.8367,W,1,06,1.92,161.0,M,-34.4,M,,*50
$GPRMC,021819.750,A,4305.5582,N,07739.8330,W,38.20,84.02,060525,,,A*74
$GPGGA,021820.000,4305.5585,N,07739.8293,W,1,06,1.92,161.2,M,-34.4,M,,*54
$GPRMC,021820.250,A,4305.5588,N,07739.8256,W,38.32,83.96,060525,,,A*79
$GPGGA,021820.500,4305.5590,N,07739.8218,W,1,06,1.92,161.2,M,-34.4,M,,*56
$GPRMC,021820.750,A,4305.5593,N,07739.8180,W,38.77,84.14,060525,,,A*72
$GPGGA,021821.000,4305.5596,N,07739.8143,W,1,06,1.92,161.4,M,-34.4,M,,*5F
$GPRMC,021821.250,A,4305.5598,N,07739.8104,W,38.92,84.38,060525,,,A*74
$GPGGA,021821.500,4305.5600,N,07739.8066,W,1,06,1.92,161.5,M,-34.4,M,,*51
$GPRMC,021821.750,A,4305.5603,N,07739.8028,W,39.14,84.27,060525,,,A*7E
$GPGGA,021822.000,4305.5607,N,07739.7990,W,1,06,1.92,161.6,M,-34.4,M,,*5C
$GPRMC,021822.250,A,4305.5610,N,07739.7952,W,39.30,83.97,060525,,,A*7B
$GPGGA,021822.500,4305.5613,N,07739.7913,W,1,06,1.92,161.8,M,-34.4,M,,*59
$GPRMC,021822.750,A,4305.5616,N,07739.7874,W,40.52,84.15,060525,,,A*7A
$GPGGA,021823.000,4305.5619,N,07739.7835,W,1,06,1.92,162.1,M,-34.4,M,,*58
$GPRMC,021823.250,A,4305.5622,N,07739.7795,W,40.88,84.34,060525,,,A*7D
$GPGGA,021823.500,4305.5625,N,07739.7756,W,1,06,1.92,162.2,M,-34.4,M,,*5B
$GPRMC,021823.750,A,4305.5629,N,07739.7718,W,40.84,84.46,060525,,,A*7F
$GPGGA,021824.000,4305.5632,N,07739.7679,W,1,06,1.92,162.3,M,-34.4,M,,*52
$GPRMC,021824.250,A,4305.5634,N,07739.7639,W,40.97,84.67,060525,,,A*72
$GPGGA,021824.500,4305.5636,N,07739.7600,W,1,06,1.92,162.4,M,-34.4,M,,*5A
$GPRMC,021824.750,A,4305.5639,N,07739.7561,W,41.08,84.60,060525,,,A*74
$GPGGA,021825.000,4305.5641,N,07739.7521,W,1,06,1.92,162.7,M,-34.4,M,,*5D
$GPRMC,021825.250,A,4305.5644,N,07739.7482,W,41.19,84.70,060525,,,A*77
$GPGGA,021825.500,4305.5647,N,07739.7442,W,1,06,1.92,162.9,M,-34.4,M,,*54
$GPRMC,021825.750,A,4305.5650,N,07739.7403,W,41.44,84.47,060525,,,A*72
$GPGGA,021826.000,4305.5652,N,07739.7363,W,1,06,1.92,163.1,M,-34.4,M,,*5B
$GPRMC,021826.250,A,4305.5654,N,07739.7324,W,41.40,84.47,060525,,,A*76
$GPGGA,021826.500,4305.5657,N,07739.7284,W,1,06,1.92,163.4,M,-34.4,M,,*56
$GPRMC,021826.750,A,4305.5659,N,07739.7244,W,41.48,84.70,060525,,,A*75
$GPGGA,021827.000,4305.5661,N,07739.7205,W,1,06,1.92,163.7,M,-34.4,M,,*5D
$GPRMC,021827.250,A,4305.5662,N,07739.7165,W,41.64,85.29,060525,,,A*7A
$GPGGA,021827.500,4305.5664,N,07739.7125,W,1,06,1.92,163.9,M,-34.4,M,,*52
$GPRMC,021827.750,A,4305.5666,N,07739.7086,W,41.62,85.77,060525,,,A*7A
$GPGGA,021828.000,4305.5668,N,07739.7046,W,1,06,1.92,164.1,M,-34.4,M,,*5F
$GPRMC,021828.250,A,4305.5670,N,07739.7006,W,41.80,85.46,060525,,,A*71
$GPGGA,021828.500,4305.5673,N,07739.6966,W,1,06,1.92,164.4,M,-34.4,M,,*5F
$GPRMC,021828.750,A,4305.5675,N,07739.6926,W,41.85,85.05,060525,,,A*79
$GPGGA,021829.000,4305.5677,N,07739.6886,W,1,06,1.92,164.6,M,-34.4,M,,*52
$GPRMC,021829.250,A,4305.5680,N,07739.6846,W,41.81,85.06,060525,,,A*77
$GPGGA,021829.500,4305.5682,N,07739.6806,W,1,06,1.92,165.0,M,-34.4,M,,*52
$GPRMC,021829.750,A,4305.5683,N,07739.6766,W,41.79,85.32,060525,,,A*7C
$GPGGA,021830.000,4305.5685,N,07739.6726,W,1,06,1.92,165.3,M,-34.4,M,,*56
$GPRMC,021830.250,A,4305.5683,N,07739.6688,W,41.75,86.03,060525,,,A*7D
$GPGGA,021830.500,4305.5682,N,07739.6649,W,1,07,1.02,164.7,M,-34.4,M,,*51
$GPRMC,021830.750,A,4305.5683,N,07739.6610,W,41.90,86.37,060525,,,A*75
$GPGGA,021831.000,4305.5684,N,07739.6570,W,1,07,1.02,164.5,M,-34.4,M,,*58
$GPRMC,021831.250,A,4305.5686,N,07739.6530,W,42.13,86.14,060525,,,A*7C
$GPGGA,021831.500,4305.5687,N,07739.6490,W,1,07,1.02,164.3,M,-34.4,M,,*57
$GPRMC,021831.750,A,4305.5687,N,07739.6450,W,42.16,86.66,060525,,,A*7F
$GPGGA,021832.000,4305.5688,N,07739.6410,W,1,07,1.02,164.2,M,-34.4,M,,*57
$GPRMC,021832.250,A,4305.5689,N,07739.6369,W,42.24,86.87,060525,,,A*74
$GPGGA,021832.500,4305.5690,N,07739.6329,W,1,07,1.02,164.3,M,-34.4,M,,*57
$GPRMC,021832.750,A,4305.5691,N,07739.6288,W,42.31,86.78,060525,,,A*72
$GPGGA,021833.000,4305.5692,N,07739.6247,W,1,07,1.02,164.4,M,-34.4,M,,*5F
$GPRMC,021833.250,A,4305.5694,N,07739.6207,W,42.36,86.92,060525,,,A*77
$GPGGA,021833.500,4305.5695,N,07739.6166,W,1,07,1.02,164.7,M,-34.4,M,,*5E
$GPRMC,021833.750,A,4305.5697,N,07739.6125,W,42.45,86.79,060525,,,A*73
$GPGGA,021834.000,4305.5698,N,07739.6085,W,1,07,1.02,164.8,M,-34.4,M,,*52
$GPRMC,021834.250,A,4305.5700,N,07739.6044,W,42.56,86.62,060525,,,A*70
$GPGGA,021834.500,4305.5700,N,07739.6004,W,1,07,1.02,164.9,M,-34.4,M,,*5F
$GPRMC,021834.750,A,4305.5701,N,07739.5963,W,42.64,87.12,060525,,,A*7C
$GPGGA,021835.000,4305.5701,N,07739.5923,W,1,07,1.02,164.9,M,-34.4,M,,*55
$GPRMC,021835.250,A,4305.5702,N,07739.5882,W,42.91,87.27,060525,,,A*79
$GPGGA,021835.500,4305.5703,N,07739.5841,W,1,07,1.02,165.1,M,-34.4,M,,*5E
$GPRMC,021835.750,A,4305.5704,N,07739.5800,W,42.99,87.13,060525,,,A*7F
$GPGGA,021836.000,4305.5706,N,07739.5759,W,1,07,1.02,165.2,M,-34.4,M,,*58
$GPRMC,021836.250,A,4305.5707,N,07739.5718,W,43.08,86.94,060525,,,A*7B
$GPGGA,021836.500,4305.5708,N,07739.5677,W,1,07,1.02,165.5,M,-34.4,M,,*59
$GPRMC,021836.750,A,4305.5710,N,07739.5636,W,43.12,86.46,060525,,,A*71
$GPGGA,021837.000,4305.5712,N,07739.5595,W,1,07,1.02,165.7,M,-34.4,M,,*5B
$GPRMC,021837.250,A,4305.5714,N,07739.5553,W,43.35,86.07,060525,,,A*71
$GPGGA,021837.500,4305.5715,N,07739.5512,W,1,07,1.02,166.0,M,-34.4,M,,*52
$GPRMC,021837.750,A,4305.5717,N,07739.5471,W,43.64,86.29,060525,,,A*7E
$GPGGA,021838.000,4305.5718,N,07739.5429,W,1,07,1.02,166.2,M,-34.4,M,,*5E
$GPRMC,021838.250,A,4305.5720,N,07739.5387,W,43.80,86.41,060525,,,A*7A
$GPGGA,021838.500,4305.5722,N,07739.5346,W,1,07,1.02,166.4,M,-34.4,M,,*5A
$GPRMC,021838.750,A,4305.5723,N,07739.5305,W,43.49,86.61,060525,,,A*71
$GPGGA,021839.000,4305.5724,N,07739.5264,W,1,07,1.02,166.7,M,-34.4,M,,*5A
$GPRMC,021839.250,A,4305.5726,N,07739.5223,W,43.24,87.09,060525,,,A*71
$GPGGA,021839.500,4305.5727,N,07739.5182,W,1,07,1.02,166.9,M,-34.4,M,,*59
$GPRMC,021839.750,A,4305.5728,N,07739.5141,W,42.99,87.56,060525,,,A*70
$GPGGA,021840.000,4305.5729,N,07739.5101,W,1,07,1.02,167.1,M,-34.4,M,,*5E
$GPRMC,021840.250,A,4305.5731,N,07739.5061,W,42.76,87.47,060525,,,A*71
$GPGGA,021840.500,4305.5732,N,07739.5022,W,1,07,1.02,167.1,M,-34.4,M,,*51
$GPRMC,021840.750,A,4305.5734,N,07739.4983,W,42.53,87.48,060525,,,A*7D
$GPGGA,021841.000,4305.5735,N,07739.4943,W,1,07,1.02,167.3,M,-34.4,M,,*5F
$GPRMC,021841.250,A,4305.5737,N,07739.4904,W,42.30,87.38,060525,,,A*77
$GPGGA,021841.500,4305.5738,N,07739.4865,W,1,07,1.02,167.5,M,-34.4,M,,*54
$GPRMC,021841.750,A,4305.5740,N,07739.4827,W,42.06,87.06,060525,,,A*7A
$GPGGA,021842.000,4305.5742,N,07739.4788,W,1,07,1.02,167.7,M,-34.4,M,,*51
$GPRMC,021842.250,A,4305.5744,N,07739.4750,W,41.83,86.65,060525,,,A*7D
$GPGGA,021842.500,4305.5746,N,07739.4712,W,1,07,1.02,167.7,M,-34.4,M,,*53
$GPRMC,021842.750,A,4305.5748,N,07739.4674,W,40.38,86.79,060525,,,A*7F
$GPGGA,021843.000,4305.5749,N,07739.4636,W,1,07,1.02,167.9,M,-34.4,M,,*51
$GPRMC,021843.250,A,4305.5751,N,07739.4598,W,40.08,86.97,060525,,,A*71
$GPGGA,021843.500,4305.5752,N,07739.4561,W,1,07,1.02,168.1,M,-34.4,M,,*58
$GPRMC,021843.750,A,4305.5753,N,07739.4523,W,39.86,87.02,060525,,,A*73
$GPGGA,021844.000,4305.5755,N,07739.4486,W,1,07,1.02,168.3,M,-34.4,M,,*57
$GPRMC,021844.250,A,4305.5757,N,07739.4449,W,39.48,86.90,060525,,,A*70
$GPGGA,021844.500,4305.5759,N,07739.4412,W,1,07,1.02,168.1,M,-34.4,M,,*51
$GPRMC,021844.750,A,4305.5760,N,07739.4375,W,39.14,86.68,060525,,,A*77
$GPGGA,021845.000,4305.5762,N,07739.4339,W,1,07,1.02,168.0,M,-34.4,M,,*52
$GPRMC,021845.250,A,4305.5764,N,07739.4302,W,38.94,86.57,060525,,,A*72
$GPGGA,021845.500,4305.5765,N,07739.4266,W,1,07,1.02,168.0,M,-34.4,M,,*5B
$GPRMC,021845.750,A,4305.5766,N,07739.4229,W,38.91,86.95,060525,,,A*76
$GPGGA,021846.000,4305.5768,N,07739.4193,W,1,07,1.02,167.9,M,-34.4,M,,*5F
$GPRMC,021846.250,A,4305.5769,N,07739.4156,W,38.72,87.06,060525,,,A*72
$GPGGA,021846.500,4305.5771,N,07739.4120,W,1,07,1.02,167.6,M,-34.4,M,,*55
$GPRMC,021846.750,A,4305.5772,N,07739.4084,W,38.45,86.75,060525,,,A*72
$GPGGA,021847.000,4305.5774,N,07739.4048,W,1,07,1.02,167.4,M,-34.4,M,,*59
$GPRMC,021847.250,A,4305.5775,N,07739.4012,W,38.13,87.15,060525,,,A*7A
$GPGGA,021847.500,4305.5776,N,07739.3977,W,1,07,1.02,167.1,M,-34.4,M,,*59
$GPRMC,021847.750,A,4305.5778,N,07739.3941,W,38.09,86.89,060525,,,A*75
$GPGGA,021848.000,4305.5779,N,07739.3905,W,1,07,1.02,167.0,M,-34.4,M,,*58
$GPRMC,021848.250,A,4305.5780,N,07739.3869,W,38.09,86.95,060525,,,A*7E
$GPGGA,021848.500,4305.5781,N,07739.3833,W,1,07,1.02,167.0,M,-34.4,M,,*5E
$GPRMC,021848.750,A,4305.5782,N,07739.3797,W,37.86,87.27,060525,,,A*77
$GPGGA,021849.000,4305.5783,N,07739.3761,W,1,07,1.02,166.9,M,-34.4,M,,*58
$GPRMC,021849.250,A,4305.5784,N,07739.3726,W,37.45,87.50,060525,,,A*70
$GPGGA,021849.500,4305.5785,N,07739.3690,W,1,07,1.02,166.7,M,-34.4,M,,*5A
$GPRMC,021849.750,A,4305.5786,N,07739.3655,W,37.22,87.36,060525,,,A*73
$GPGGA,021850.000,4305.5787,N,07739.3620,W,1,07,1.02,166.5,M,-34.4,M,,*5C
$GPRMC,021850.250,A,4305.5788,N,07739.3585,W,37.12,87.51,060525,,,A*7C
$GPGGA,021850.500,4305.5789,N,07739.3550,W,1,07,1.02,166.3,M,-34.4,M,,*55
$GPRMC,021850.750,A,4305.5790,N,07739.3516,W,36.99,87.82,060525,,,A*76
$GPGGA,021851.000,4305.5791,N,07739.3481,W,1,07,1.02,166.3,M,-34.4,M,,*55
$GPRMC,021851.250,A,4305.5792,N,07739.3446,W,36.88,87.96,060525,,,A*71
$GPGGA,021851.500,4305.5792,N,07739.3412,W,1,07,1.02,166.2,M,-34.4,M,,*58
$GPRMC,021851.750,A,4305.5793,N,07739.3378,W,36.25,88.15,060525,,,A*7C
$GPGGA,021852.000,4305.5794,N,07739.3344,W,1,07,1.02,166.2,M,-34.4,M,,*5C
$GPRMC,021852.250,A,4305.5795,N,07739.3310,W,35.98,88.12,060525,,,A*70
$GPGGA,021852.500,4305.5795,N,07739.3277,W,1,07,1.02,166.1,M,-34.4,M,,*5A
$GPRMC,021852.750,A,4305.5795,N,07739.3244,W,35.40,89.00,060525,,,A*72
$GPGGA,021853.000,4305.5795,N,07739.3210,W,1,07,1.02,166.2,M,-34.4,M,,*5C
$GPRMC,021853.250,A,4305.5795,N,07739.3177,W,35.37,89.89,060525,,,A*74
$GPGGA,021853.500,4305.5794,N,07739.3144,W,1,07,1.02,166.3,M,-34.4,M,,*5B
$GPRMC,021853.750,A,4305.5792,N,07739.3111,W,35.15,91.67,060525,,,A*7F
$GPGGA,021854.000,4305.5791,N,07739.3078,W,1,07,1.02,166.3,M,-34.4,M,,*52
$GPRMC,021854.250,A,4305.5790,N,07739.3046,W,34.61,92.15,060525,,,A*78
$GPGGA,021854.500,4305.5788,N,07739.3014,W,1,07,1.02,166.2,M,-34.4,M,,*54
$GPRMC,021854.750,A,4305.5787,N,07739.2982,W,34.11,92.83,060525,,,A*73
$GPGGA,021855.000,4305.5785,N,07739.2950,W,1,07,1.02,166.3,M,-34.4,M,,*54
$GPRMC,021855.250,A,4305.5783,N,07739.2918,W,33.64,93.89,060525,,,A*7E
$GPGGA,021855.500,4305.5782,N,07739.2887,W,1,07,1.02,166.3,M,-34.4,M,,*5D
$GPRMC,021855.750,A,4305.5780,N,07739.2856,W,33.20,93.96,060525,,,A*7D
$GPGGA,021856.000,4305.5778,N,07739.2826,W,1,07,1.02,166.3,M,-34.4,M,,*55
$GPRMC,021856.250,A,4305.5776,N,07739.2796,W,32.42,94.63,060525,,,A*79
$GPGGA,021856.500,4305.5775,N,07739.2767,W,1,07,1.02,166.1,M,-34.4,M,,*55
$GPRMC,021856.750,A,4305.5774,N,07739.2739,W,31.13,94.10,060525,,,A*78
$GPGGA,021857.000,4305.5774,N,07739.2712,W,1,07,1.02,165.8,M,-34.4,M,,*58
$GPRMC,021857.250,A,4305.5772,N,07739.2684,W,30.09,94.06,060525,,,A*70
$GPGGA,021857.500,4305.5770,N,07739.2657,W,1,07,1.02,165.7,M,-34.4,M,,*56
$GPRMC,021857.750,A,4305.5768,N,07739.2630,W,29.15,95.23,060525,,,A*72
$GPGGA,021858.000,4305.5766,N,07739.2605,W,1,07,1.02,165.5,M,-34.4,M,,*5E
$GPRMC,021858.250,A,4305.5764,N,07739.2580,W,27.28,96.10,060525,,,A*7F
$GPGGA,021858.500,4305.5761,N,07739.2556,W,1,07,1.02,165.4,M,-34.4,M,,*58
$GPRMC,021858.750,A,4305.5758,N,07739.2532,W,26.40,97.90,060525,,,A*7A
$GPGGA,021859.000,4305.5754,N,07739.2508,W,1,07,1.02,165.3,M,-34.4,M,,*56
$GPRMC,021859.250,A,4305.5752,N,07739.2486,W,25.11,99.47,060525,,,A*79
$GPGGA,021859.500,4305.5749,N,07739.2465,W,1,07,1.02,165.3,M,-34.4,M,,*55
$GPRMC,021859.750,A,4305.5745,N,07739.2444,W,23.83,100.92,060525,,,A*40
$GPGGA,021900.000,4305.5742,N,07739.2425,W,1,07,1.02,165.4,M,-34.4,M,,*55
$GPRMC,021900.250,A,4305.5738,N,07739.2407,W,22.11,103.57,060525,,,A*45
$GPGGA,021900.500,4305.5735,N,07739.2390,W,1,08,0.97,165.5,M,-34.4,M,,*5A
$GPRMC,021900.750,A,4305.5733,N,07739.2374,W,20.54,104.67,060525,,,A*4F
$GPGGA,021901.000,4305.5731,N,07739.2359,W,1,08,0.97,165.7,M,-34.4,M,,*5D
$GPRMC,021901.250,A,4305.5729,N,07739.2345,W,18.55,105.48,060525,,,A*44
$GPGGA,021901.500,4305.5735,N,07739.2346,W,1,08,0.97,165.6,M,-34.4,M,,*53
$GPRMC,021901.750,A,4305.5735,N,07739.2337,W,12.51,97.98,060525,,,A*70
$GPGGA,021902.000,4305.5735,N,07739.2328,W,1,08,0.97,165.8,M,-34.4,M,,*53
$GPRMC,021902.250,A,4305.5735,N,07739.2320,W,10.36,95.92,060525,,,A*7B
$GPGGA,021902.500,4305.5734,N,07739.2311,W,1,08,0.97,165.9,M,-34.4,M,,*5C
$GPRMC,021902.750,A,4305.5733,N,07739.2303,W,8.80,95.25,060525,,,A*41
$GPGGA,021903.000,4305.5733,N,07739.2297,W,1,08,0.97,166.1,M,-34.4,M,,*5B
$GPRMC,021903.250,A,4305.5732,N,07739.2292,W,6.70,94.63,060525,,,A*4F
$GPGGA,021903.500,4305.5730,N,07739.2290,W,1,08,0.97,166.2,M,-34.4,M,,*59
$GPRMC,021903.750,A,4305.5728,N,07739.2287,W,5.25,93.84,060525,,,A*48
$GPGGA,021904.000,4305.5726,N,07739.2285,W,1,08,0.97,166.3,M,-34.4,M,,*59
$GPRMC,021904.250,A,4305.5725,N,07739.2283,W,4.07,91.01,060525,,,A*4D
$GPGGA,021904.500,4305.5724,N,07739.2280,W,1,08,0.97,166.6,M,-34.4,M,,*5E
$GPRMC,021904.750,A,4305.5723,N,07739.2277,W,3.18,90.57,060525,,,A*4E
$GPGGA,021905.000,4305.5722,N,07739.2275,W,1,08,0.96,166.8,M,-34.4,M,,*59
$GPRMC,021905.250,A,4305.5720,N,07739.2273,W,2.98,90.32,060525,,,A*47
$GPGGA,021905.500,4305.5719,N,07739.2270,W,1,08,0.96,167.0,M,-34.4,M,,*58
$GPRMC,021905.750,A,4305.5718,N,07739.2267,W,3.33,90.78,060525,,,A*42
$GPGGA,021906.000,4305.5717,N,07739.2264,W,1,08,0.96,167.3,M,-34.4,M,,*56
$GPRMC,021906.250,A,4305.5716,N,07739.2260,W,4.13,92.50,060525,,,A*40
$GPGGA,021906.500,4305.5714,N,07739.2256,W,1,08,0.97,167.4,M,-34.4,M,,*57
$GPRMC,021906.750,A,4305.5713,N,07739.2252,W,5.00,97.10,060525,,,A*43
$GPGGA,021907.000,4305.5711,N,07739.2247,W,1,08,0.97,167.5,M,-34.4,M,,*57
$GPRMC,021907.250,A,4305.5711,N,07739.2242,W,5.65,100.18,060525,,,A*70
$GPGGA,021907.500,4305.5710,N,07739.2237,W,1,08,0.97,167.5,M,-34.4,M,,*54
$GPRMC,021907.750,A,4305.5709,N,07739.2232,W,6.15,100.44,060525,,,A*76
$GPGGA,021908.000,4305.5709,N,07739.2226,W,1,08,0.97,167.5,M,-34.4,M,,*56
$GPRMC,021908.250,A,4305.5708,N,07739.2221,W,6.42,99.48,060525,,,A*40
$GPGGA,021908.500,4305.5707,N,07739.2215,W,1,08,0.97,167.6,M,-34.4,M,,*5E
$GPRMC,021908.750,A,4305.5707,N,07739.2210,W,6.31,97.69,060525,,,A*41
$GPGGA,021909.000,4305.5706,N,07739.2205,W,1,08,0.97,167.7,M,-34.4,M,,*5B
$GPRMC,021909.250,A,4305.5706,N,07739.2200,W,6.22,97.23,060525,,,A*49
$GPGGA,021909.500,4305.5705,N,07739.2195,W,1,08,0.97,167.7,M,-34.4,M,,*57
$GPRMC,021909.750,A,4305.5705,N,07739.2190,W,6.02,96.88,060525,,,A*47
$GPGGA,021910.000,4305.5705,N,07739.2185,W,1,08,0.97,167.8,M,-34.4,M,,*54
$GPRMC,021910.250,A,4305.5704,N,07739.2180,W,6.01,97.62,060525,,,A*4C
$GPGGA,021910.500,4305.5703,N,07739.2175,W,1,08,0.97,168.0,M,-34.4,M,,*5F
$GPRMC,021910.750,A,4305.5703,N,07739.2169,W,6.22,98.04,060525,,,A*47
$GPGGA,021911.000,4305.5702,N,07739.2163,W,1,08,0.97,168.0,M,-34.4,M,,*5D
$GPRMC,021911.250,A,4305.5702,N,07739.2156,W,7.18,97.07,060525,,,A*4A
$GPGGA,021911.500,4305.5701,N,07739.2150,W,1,08,0.97,167.9,M,-34.4,M,,*5D
$GPRMC,021911.750,A,4305.5701,N,07739.2143,W,7.90,95.67,060525,,,A*4C
$GPGGA,021912.000,4305.5702,N,07739.2138,W,1,08,0.97,167.8,M,-34.4,M,,*57
$GPRMC,021912.250,A,4305.5702,N,07739.2131,W,8.89,90.97,060525,,,A*41
$GPGGA,021912.500,4305.5704,N,07739.2127,W,1,08,0.97,167.9,M,-34.4,M,,*5B
$GPRMC,021912.750,A,4305.5706,N,07739.2121,W,9.63,84.88,060525,,,A*4F
$GPGGA,021913.000,4305.5709,N,07739.2113,W,1,08,0.97,167.8,M,-34.4,M,,*54
$GPRMC,021913.250,A,4305.5713,N,07739.2104,W,10.13,81.37,060525,,,A*76
$GPGGA,021913.500,4305.5715,N,07739.2094,W,1,08,0.97,167.6,M,-34.4,M,,*5C
$GPRMC,021913.750,A,4305.5717,N,07739.2082,W,11.36,76.99,060525,,,A*72
$GPGGA,021914.000,4305.5721,N,07739.2070,W,1,08,0.97,167.8,M,-34.4,M,,*5D
$GPRMC,021914.250,A,4305.5726,N,07739.2058,W,13.00,67.66,060525,,,A*72
$GPGGA,021914.500,4305.5730,N,07739.2046,W,1,08,0.97,168.2,M,-34.4,M,,*58
$GPRMC,021914.750,A,4305.5736,N,07739.2034,W,13.72,62.62,060525,,,A*78
$GPGGA,021915.000,4305.5742,N,07739.2023,W,1,08,0.97,168.5,M,-34.4,M,,*5D
$GPRMC,021915.250,A,4305.5747,N,07739.2013,W,13.76,59.26,060525,,,A*73
$GPGGA,021915.500,4305.5754,N,07739.2002,W,1,08,0.97,168.6,M,-34.4,M,,*5F
$GPRMC,021915.750,A,4305.5761,N,07739.1992,W,14.07,55.02,060525,,,A*7A
$GPGGA,021916.000,4305.5769,N,07739.1982,W,1,08,0.97,168.7,M,-34.4,M,,*54
$GPRMC,021916.250,A,4305.5778,N,07739.1972,W,14.70,49.04,060525,,,A*71
$GPGGA,021916.500,4305.5789,N,07739.1963,W,1,08,0.97,168.7,M,-34.4,M,,*50
$GPRMC,021916.750,A,4305.5800,N,07739.1953,W,15.86,43.26,060525,,,A*75
$GPGGA,021917.000,4305.5811,N,07739.1944,W,1,08,0.97,168.5,M,-34.4,M,,*5D
$GPRMC,021917.250,A,4305.5822,N,07739.1932,W,17.15,41.16,060525,,,A*7F
$GPGGA,021917.500,4305.5832,N,07739.1920,W,1,08,0.97,168.6,M,-34.4,M,,*58
$GPRMC,021917.750,A,4305.5842,N,07739.1909,W,18.13,41.66,060525,,,A*7A
$GPGGA,021918.000,4305.5855,N,07739.1897,W,1,08,0.97,168.5,M,-34.4,M,,*5D
$GPRMC,021918.250,A,4305.5867,N,07739.1884,W,19.53,42.57,060525,,,A*77
$GPGGA,021918.500,4305.5880,N,07739.1870,W,1,08,0.97,168.2,M,-34.4,M,,*5E
$GPRMC,021918.750,A,4305.5892,N,07739.1855,W,20.79,44.13,060525,,,A*70
$GPGGA,021919.000,4305.5904,N,07739.1839,W,1,08,0.97,168.2,M,-34.4,M,,*5A
$GPRMC,021919.250,A,4305.5917,N,07739.1823,W,22.12,45.76,060525,,,A*74
$GPGGA,021919.500,4305.5928,N,07739.1806,W,1,08,0.97,168.2,M,-34.4,M,,*5D
$GPRMC,021919.750,A,4305.5939,N,07739.1789,W,23.04,47.77,060525,,,A*77
$GPGGA,021920.000,4305.5950,N,07739.1771,W,1,08,0.97,168.4,M,-34.4,M,,*54
$GPRMC,021920.250,A,4305.5961,N,07739.1753,W,23.95,49.43,060525,,,A*73
$GPGGA,021920.500,4305.5972,N,07739.1735,W,1,08,0.97,168.5,M,-34.4,M,,*50
$GPRMC,021920.750,A,4305.5984,N,07739.1717,W,24.72,50.13,060525,,,A*7E
$GPGGA,021921.000,4305.5995,N,07739.1698,W,1,08,0.97,168.7,M,-34.4,M,,*59
$GPRMC,021921.250,A,4305.6006,N,07739.1679,W,25.40,51.32,060525,,,A*71
$GPGGA,021921.500,4305.6016,N,07739.1660,W,1,08,0.97,168.9,M,-34.4,M,,*54
$GPRMC,021921.750,A,4305.6026,N,07739.1640,W,25.51,53.30,060525,,,A*7C
$GPGGA,021922.000,4305.6035,N,07739.1621,W,1,08,0.97,169.0,M,-34.4,M,,*5E
$GPRMC,021922.250,A,4305.6044,N,07739.1600,W,25.95,56.51,060525,,,A*70
$GPGGA,021922.500,4305.6053,N,07739.1578,W,1,08,0.97,168.6,M,-34.4,M,,*53
$GPRMC,021922.750,A,4305.6061,N,07739.1556,W,26.46,60.07,060525,,,A*79
$GPGGA,021923.000,4305.6069,N,07739.1534,W,1,08,0.97,168.3,M,-34.4,M,,*53
$GPRMC,021923.250,A,4305.6077,N,07739.1511,W,26.86,62.64,060525,,,A*72
$GPGGA,021923.500,4305.6085,N,07739.1488,W,1,08,0.97,168.1,M,-34.4,M,,*50
$GPRMC,021923.750,A,4305.6093,N,07739.1465,W,26.84,64.40,060525,,,A*7D
$GPGGA,021924.000,4305.6100,N,07739.1442,W,1,08,0.97,168.0,M,-34.4,M,,*59
$GPRMC,021924.250,A,4305.6107,N,07739.1418,W,27.11,66.28,060525,,,A*78
$GPGGA,021924.500,4305.6114,N,07739.1394,W,1,08,0.97,167.9,M,-34.4,M,,*53
$GPRMC,021924.750,A,4305.6121,N,07739.1370,W,27.26,67.03,060525,,,A*7C
$GPGGA,021925.000,4305.6128,N,07739.1346,W,1,08,0.97,167.7,M,-34.4,M,,*59
$GPRMC,021925.250,A,4305.6134,N,07739.1322,W,27.74,68.22,060525,,,A*70
$GPGGA,021925.500,4305.6141,N,07739.1297,W,1,08,0.97,167.3,M,-34.4,M,,*5A
$GPRMC,021925.750,A,4305.6148,N,07739.1271,W,28.48,69.48,060525,,,A*74
$GPGGA,021926.000,4305.6154,N,07739.1245,W,1,08,0.97,167.1,M,-34.4,M,,*55
$GPRMC,021926.250,A,4305.6161,N,07739.1219,W,28.96,70.19,060525,,,A*78
$GPGGA,021926.500,4305.6168,N,07739.1193,W,1,08,0.97,166.9,M,-34.4,M,,*5E
$GPRMC,021926.750,A,4305.6175,N,07739.1166,W,29.25,70.82,060525,,,A*78
$GPGGA,021927.000,4305.6180,N,07739.1138,W,1,08,0.97,166.8,M,-34.4,M,,*5C
$GPRMC,021927.250,A,4305.6184,N,07739.1111,W,28.94,73.59,060525,,,A*7C
$GPGGA,021927.500,4305.6187,N,07739.1084,W,1,08,0.97,166.6,M,-34.4,M,,*56
$GPRMC,021927.750,A,4305.6189,N,07739.1056,W,28.86,77.89,060525,,,A*7C
$GPGGA,021928.000,4305.6192,N,07739.1028,W,1,08,0.97,166.4,M,-34.4,M,,*5C
$GPRMC,021928.250,A,4305.6194,N,07739.1000,W,29.08,81.46,060525,,,A*74
$GPGGA,021928.500,4305.6196,N,07739.0972,W,1,08,0.97,166.0,M,-34.4,M,,*5E
$GPRMC,021928.750,A,4305.6198,N,07739.0944,W,29.18,84.01,060525,,,A*72
$GPGGA,021929.000,4305.6199,N,07739.0915,W,1,08,0.97,165.8,M,-34.4,M,,*5F
$GPRMC,021929.250,A,4305.6199,N,07739.0886,W,29.73,87.11,060525,,,A*77
$GPGGA,021929.500,4305.6199,N,07739.0858,W,1,08,0.97,165.6,M,-34.4,M,,*5C
$GPRMC,021929.750,A,4305.6200,N,07739.0829,W,29.89,88.96,060525,,,A*71
