Vers 72
USE_SERIAL_FEEDBACK=true
DEVELOPMENT_MODE=false
USE_RMC_ONLY=false

$GPRMC,171606.500,A,4308.3014,N,07726.2670,W,2.84,12.67,270825,,,A*46
$GPGGA,171606.750,4308.3016,N,07726.2670,W,1,06,1.35,166.6,M,-34.4,M,,*5F
$GPRMC,171607.000,A,4308.3019,N,07726.2670,W,2.96,9.81,270825,,,A*7E
$GPGGA,171607.250,4308.3021,N,07726.2670,W,1,06,1.35,166.5,M,-34.4,M,,*5C
$GPRMC,171607.500,A,4308.3024,N,07726.2670,W,3.17,8.85,270825,,,A*78
$GPGGA,171607.750,4308.3027,N,07726.2669,W,1,06,1.35,166.5,M,-34.4,M,,*57
$GPRMC,171608.000,A,4308.3029,N,07726.2669,W,3.31,9.72,270825,,,A*7A
$GPGGA,171608.250,4308.3032,N,07726.2669,W,1,06,1.35,166.3,M,-34.4,M,,*5F
$GPRMC,171608.500,A,4308.3035,N,07726.2668,W,3.45,8.68,270825,,,A*7A
$GPGGA,171608.750,4308.3038,N,07726.2667,W,1,06,1.35,166.1,M,-34.4,M,,*5C
$GPRMC,171609.000,A,4308.3041,N,07726.2666,W,3.59,7.93,270825,,,A*75
$GPGGA,171609.250,4308.3044,N,07726.2666,W,1,06,1.35,166.1,M,-34.4,M,,*52
$GPRMC,171609.500,A,4308.3047,N,07726.2665,W,3.78,6.20,270825,,,A*7F
$GPGGA,171609.750,4308.3050,N,07726.2664,W,1,06,1.35,166.2,M,-34.4,M,,*53
$GPRMC,171610.000,A,4308.3053,N,07726.2664,W,3.97,5.52,270825,,,A*71
$GPGGA,171610.250,4308.3056,N,07726.2663,W,1,06,1.35,166.2,M,-34.4,M,,*5F
$GPRMC,171610.500,A,4308.3060,N,07726.2662,W,4.11,6.16,270825,,,A*78
$GPGGA,171610.750,4308.3063,N,07726.2661,W,1,06,1.35,165.9,M,-34.4,M,,*56
$GPRMC,171611.000,A,4308.3066,N,07726.2661,W,4.24,5.26,270825,,,A*7F
$GPGGA,171611.250,4308.3069,N,07726.2660,W,1,06,1.35,165.7,M,-34.4,M,,*57
$GPRMC,171611.500,A,4308.3073,N,07726.2660,W,4.17,4.53,270825,,,A*7C
$GPGGA,171611.750,4308.3076,N,07726.2659,W,1,06,1.35,165.6,M,-34.4,M,,*57
$GPRMC,171612.000,A,4308.3079,N,07726.2659,W,3.82,5.51,270825,,,A*72
$GPGGA,171612.250,4308.3081,N,07726.2658,W,1,06,1.35,165.5,M,-34.4,M,,*5B
$GPRMC,171612.500,A,4308.3084,N,07726.2658,W,3.30,4.98,270825,,,A*79
$GPGGA,171612.750,4308.3086,N,07726.2657,W,1,06,1.35,165.5,M,-34.4,M,,*56
$GPRMC,171613.000,A,4308.3089,N,07726.2657,W,3.11,7.46,270825,,,A*7C
$GPGGA,171613.250,4308.3091,N,07726.2657,W,1,06,1.35,165.5,M,-34.4,M,,*54
$GPRMC,171613.500,A,4308.3093,N,07726.2656,W,2.54,10.24,270825,,,A*41
$GPGGA,171613.750,4308.3095,N,07726.2656,W,1,06,1.35,165.4,M,-34.4,M,,*55
$GPRMC,171614.000,A,4308.3097,N,07726.2655,W,2.34,11.49,270825,,,A*48
$GPGGA,171614.250,4308.3098,N,07726.2654,W,1,06,1.35,165.2,M,-34.4,M,,*5E
$GPGGA,171615.750,4308.3108,N,07726.2651,W,1,06,1.35,164.7,M,-34.4,M,,*53
$GPRMC,171615.750,A,4308.3108,N,07726.2651,W,1.66,6.82,270825,,,A*7D
$GPGGA,171616.000,4308.3110,N,07726.2650,W,1,06,1.35,164.5,M,-34.4,M,,*58
$GPRMC,171616.000,A,4308.3110,N,07726.2650,W,1.52,6.03,270825,,,A*7A
$GPGGA,171619.250,4308.3124,N,07726.2640,W,1,06,1.35,161.8,M,-34.4,M,,*5E
$GPRMC,171619.250,A,4308.3124,N,07726.2640,W,3.04,13.37,270825,,,A*46
$GPGGA,171619.500,4308.3126,N,07726.2639,W,1,06,1.35,161.8,M,-34.4,M,,*50
$GPRMC,171619.500,A,4308.3126,N,07726.2639,W,3.47,14.20,270825,,,A*4E
$GPGGA,171619.750,4308.3129,N,07726.2638,W,1,06,1.35,161.8,M,-34.4,M,,*59
$GPRMC,171619.750,A,4308.3129,N,07726.2638,W,3.90,16.98,270825,,,A*4C
$GPGGA,171620.000,4308.3131,N,07726.2637,W,1,06,1.35,161.8,M,-34.4,M,,*57
$GPRMC,171620.000,A,4308.3131,N,07726.2637,W,4.21,26.21,270825,,,A*4E
$GPGGA,171620.250,4308.3134,N,07726.2635,W,1,06,1.35,161.8,M,-34.4,M,,*57
$GPRMC,171620.250,A,4308.3134,N,07726.2635,W,4.22,19.06,270825,,,A*44
$GPGGA,171620.500,4308.3137,N,07726.2633,W,1,06,1.35,161.8,M,-34.4,M,,*50
$GPRMC,171620.500,A,4308.3137,N,07726.2633,W,3.99,31.51,270825,,,A*4C
$GPGGA,171620.750,4308.3139,N,07726.2631,W,1,06,1.35,161.8,M,-34.4,M,,*5B
$GPRMC,171620.750,A,4308.3139,N,07726.2631,W,3.83,35.85,270825,,,A*41
$GPGGA,171621.000,4308.3141,N,07726.2629,W,1,06,1.33,161.9,M,-34.4,M,,*59
$GPRMC,171621.000,A,4308.3141,N,07726.2629,W,3.81,41.19,270825,,,A*40
$GPGGA,171621.250,4308.3143,N,07726.2626,W,1,06,1.33,161.9,M,-34.4,M,,*53
$GPRMC,171621.250,A,4308.3143,N,07726.2626,W,3.34,47.37,270825,,,A*4E
$GPGGA,171621.500,4308.3144,N,07726.2624,W,1,06,1.33,161.8,M,-34.4,M,,*55
$GPRMC,171621.500,A,4308.3144,N,07726.2624,W,2.82,54.29,270825,,,A*48
$GPGGA,171621.750,4308.3145,N,07726.2622,W,1,06,1.33,161.8,M,-34.4,M,,*55
$GPRMC,171621.750,A,4308.3145,N,07726.2622,W,2.08,61.25,270825,,,A*40
$GPGGA,171622.000,4308.3146,N,07726.2620,W,1,06,1.33,161.8,M,-34.4,M,,*55
$GPRMC,171622.000,A,4308.3146,N,07726.2620,W,1.90,64.95,270825,,,A*4C
$GPRMC,171624.500,A,4308.3146,N,07726.2623,W,2.61,252.82,270825,,,A*70
$GPGGA,171624.750,4308.3145,N,07726.2625,W,1,07,1.22,161.9,M,-34.4,M,,*57
$GPRMC,171625.000,A,4308.3145,N,07726.2628,W,3.61,251.62,270825,,,A*70
$GPGGA,171625.250,4308.3144,N,07726.2632,W,1,07,1.22,162.1,M,-34.4,M,,*5F
$GPRMC,171625.500,A,4308.3143,N,07726.2636,W,4.35,252.98,270825,,,A*7C
$GPGGA,171625.750,4308.3142,N,07726.2640,W,1,07,1.31,162.1,M,-34.4,M,,*5B
$GPRMC,171626.000,A,4308.3141,N,07726.2645,W,5.16,256.01,270825,,,A*78
$GPGGA,171626.250,4308.3140,N,07726.2650,W,1,07,1.31,162.3,M,-34.4,M,,*5C
$GPRMC,171626.500,A,4308.3140,N,07726.2655,W,5.69,260.60,270825,,,A*77
$GPGGA,171626.750,4308.3139,N,07726.2661,W,1,07,1.31,162.3,M,-34.4,M,,*55
$GPRMC,171627.000,A,4308.3138,N,07726.2666,W,5.95,262.64,270825,,,A*79
$GPGGA,171627.250,4308.3138,N,07726.2672,W,1,07,1.31,162.3,M,-34.4,M,,*52
$GPRMC,171627.500,A,4308.3138,N,07726.2677,W,5.87,266.28,270825,,,A*73
$GPGGA,171627.750,4308.3138,N,07726.2682,W,1,07,1.31,162.2,M,-34.4,M,,*59
$GPRMC,171628.000,A,4308.3138,N,07726.2688,W,5.62,269.60,270825,,,A*71
$GPGGA,171628.250,4308.3138,N,07726.2693,W,1,07,1.31,162.1,M,-34.4,M,,*50
$GPRMC,171628.500,A,4308.3138,N,07726.2698,W,5.20,274.86,270825,,,A*77
$GPGGA,171628.750,4308.3138,N,07726.2702,W,1,07,1.31,162.1,M,-34.4,M,,*5C
$GPRMC,171629.000,A,4308.3139,N,07726.2707,W,5.08,276.75,270825,,,A*71
$GPGGA,171629.250,4308.3139,N,07726.2712,W,1,07,1.31,162.1,M,-34.4,M,,*58
$GPRMC,171629.500,A,4308.3140,N,07726.2717,W,4.97,278.09,270825,,,A*79
$GPGGA,171629.750,4308.3141,N,07726.2721,W,1,07,1.31,162.2,M,-34.4,M,,*51
$GPRMC,171630.000,A,4308.3141,N,07726.2726,W,4.67,283.20,270825,,,A*77
$GPGGA,171630.250,4308.3142,N,07726.2730,W,1,07,1.31,162.3,M,-34.4,M,,*5E
$GPRMC,171630.500,A,4308.3142,N,07726.2734,W,4.27,278.03,270825,,,A*73
$GPGGA,171630.750,4308.3143,N,07726.2738,W,1,07,1.31,162.4,M,-34.4,M,,*55
$GPRMC,171631.000,A,4308.3144,N,07726.2742,W,3.99,283.27,270825,,,A*70
$GPGGA,171631.250,4308.3145,N,07726.2745,W,1,07,1.31,162.5,M,-34.4,M,,*5C
$GPRMC,171631.500,A,4308.3145,N,07726.2748,W,3.55,288.77,270825,,,A*70
$GPGGA,171631.750,4308.3146,N,07726.2751,W,1,07,1.22,162.5,M,-34.4,M,,*5D
$GPRMC,171632.000,A,4308.3146,N,07726.2754,W,3.00,281.81,270825,,,A*78
$GPGGA,171632.250,4308.3147,N,07726.2757,W,1,07,1.22,162.6,M,-34.4,M,,*5F
$GPRMC,171632.500,A,4308.3147,N,07726.2759,W,2.86,290.76,270825,,,A*76
$GPGGA,171632.750,4308.3148,N,07726.2761,W,1,07,1.22,162.6,M,-34.4,M,,*50
$GPRMC,171633.000,A,4308.3149,N,07726.2762,W,1.52,304.35,270825,,,A*75
$GPGGA,171633.250,4308.3149,N,07726.2762,W,1,07,1.22,162.6,M,-34.4,M,,*56
$GPRMC,171739.750,A,4308.3155,N,07726.2773,W,5.00,273.01,270825,,,A*74
$GPGGA,171740.000,4308.3157,N,07726.2779,W,1,07,1.22,161.8,M,-34.4,M,,*5C
$GPRMC,171740.250,A,4308.3159,N,07726.2786,W,8.01,281.16,270825,,,A*7E
$GPGGA,171740.500,4308.3161,N,07726.2795,W,1,07,1.30,161.8,M,-34.4,M,,*5D
$GPRMC,171740.750,A,4308.3164,N,07726.2804,W,10.41,288.53,270825,,,A*45
$GPGGA,171741.000,4308.3167,N,07726.2814,W,1,07,1.22,161.8,M,-34.4,M,,*5A
$GPRMC,171741.250,A,4308.3172,N,07726.2825,W,12.63,295.01,270825,,,A*4C
$GPGGA,171741.500,4308.3177,N,07726.2837,W,1,07,1.30,161.8,M,-34.4,M,,*5C
$GPRMC,171741.750,A,4308.3182,N,07726.2849,W,14.61,298.22,270825,,,A*44
$GPGGA,171742.000,4308.3187,N,07726.2861,W,1,07,1.22,161.8,M,-34.4,M,,*55
$GPRMC,171742.250,A,4308.3193,N,07726.2875,W,16.15,299.14,270825,,,A*48
$GPGGA,171742.500,4308.3199,N,07726.2889,W,1,07,1.30,161.8,M,-34.4,M,,*5A
$GPRMC,171742.750,A,4308.3206,N,07726.2904,W,18.02,300.70,270825,,,A*4E
$GPGGA,171743.000,4308.3213,N,07726.2919,W,1,07,1.22,161.8,M,-34.4,M,,*54
$GPRMC,171743.250,A,4308.3220,N,07726.2936,W,19.80,301.16,270825,,,A*45
$GPGGA,171743.500,4308.3229,N,07726.2954,W,1,07,1.31,161.7,M,-34.4,M,,*5C
$GPRMC,171743.750,A,4308.3238,N,07726.2973,W,21.74,303.33,270825,,,A*4D
$GPGGA,171744.000,4308.3248,N,07726.2991,W,1,07,1.22,161.8,M,-34.4,M,,*5D
$GPRMC,171744.250,A,4308.3258,N,07726.3010,W,22.80,304.86,270825,,,A*45
$GPGGA,171744.500,4308.3268,N,07726.3030,W,1,07,1.30,161.7,M,-34.4,M,,*55
$GPRMC,171744.750,A,4308.3279,N,07726.3051,W,24.31,304.36,270825,,,A*41
$GPGGA,171745.000,4308.3290,N,07726.3073,W,1,07,1.22,161.8,M,-34.4,M,,*5D
$GPRMC,171745.250,A,4308.3301,N,07726.3094,W,25.84,304.13,270825,,,A*4A
$GPGGA,171745.500,4308.3312,N,07726.3117,W,1,07,1.30,161.8,M,-34.4,M,,*53
$GPRMC,171745.750,A,4308.3324,N,07726.3140,W,26.94,304.45,270825,,,A*41
$GPGGA,171746.000,4308.3335,N,07726.3162,W,1,07,1.22,161.8,M,-34.4,M,,*51
$GPRMC,171746.250,A,4308.3346,N,07726.3184,W,27.19,304.78,270825,,,A*41
$GPGGA,171746.500,4308.3358,N,07726.3206,W,1,07,1.30,161.7,M,-34.4,M,,*52
$GPRMC,171746.750,A,4308.3369,N,07726.3227,W,27.32,305.28,270825,,,A*4E
$GPGGA,171747.000,4308.3380,N,07726.3249,W,1,07,1.22,161.6,M,-34.4,M,,*5A
$GPRMC,171747.250,A,4308.3391,N,07726.3270,W,27.44,305.60,270825,,,A*42
$GPGGA,171747.500,4308.3402,N,07726.3291,W,1,07,1.30,161.5,M,-34.4,M,,*57
$GPRMC,171747.750,A,4308.3412,N,07726.3313,W,27.79,305.43,270825,,,A*40
$GPGGA,171748.000,4308.3423,N,07726.3334,W,1,07,1.22,161.5,M,-34.4,M,,*53
$GPRMC,171748.250,A,4308.3434,N,07726.3355,W,27.59,305.58,270825,,,A*44
$GPGGA,171748.500,4308.3445,N,07726.3377,W,1,07,1.22,161.5,M,-34.4,M,,*51
$GPRMC,171748.750,A,4308.3456,N,07726.3398,W,27.55,305.62,270825,,,A*41
$GPGGA,171749.000,4308.3467,N,07726.3419,W,1,07,1.22,161.5,M,-34.4,M,,*5A
$GPRMC,171749.250,A,4308.3478,N,07726.3440,W,27.60,305.92,270825,,,A*42
$GPGGA,171749.500,4308.3489,N,07726.3461,W,1,07,1.30,161.5,M,-34.4,M,,*53
$GPRMC,171749.750,A,4308.3500,N,07726.3482,W,27.54,306.39,270825,,,A*42
$GPGGA,171750.000,4308.3511,N,07726.3502,W,1,07,1.22,161.7,M,-34.4,M,,*5B
$GPRMC,171750.250,A,4308.3522,N,07726.3522,W,26.32,307.70,270825,,,A*49
$GPGGA,171750.500,4308.3534,N,07726.3541,W,1,07,1.30,161.7,M,-34.4,M,,*5D
$GPRMC,171750.750,A,4308.3546,N,07726.3559,W,25.75,311.13,270825,,,A*40
$GPGGA,171751.000,4308.3557,N,07726.3577,W,1,06,1.74,161.8,M,-34.4,M,,*57
$GPRMC,171751.250,A,4308.3569,N,07726.3593,W,25.12,314.52,270825,,,A*4E
$GPGGA,171751.500,4308.3581,N,07726.3610,W,1,07,1.30,162.0,M,-34.4,M,,*51
$GPRMC,171751.750,A,4308.3593,N,07726.3625,W,24.22,317.40,270825,,,A*42
$GPGGA,171752.000,4308.3606,N,07726.3640,W,1,07,1.30,162.2,M,-34.4,M,,*5C
$GPRMC,171752.250,A,4308.3619,N,07726.3653,W,23.66,322.53,270825,,,A*47
$GPGGA,171752.500,4308.3634,N,07726.3665,W,1,07,1.30,162.3,M,-34.4,M,,*5E
$GPRMC,171752.750,A,4308.3647,N,07726.3677,W,23.50,328.14,270825,,,A*43
$GPGGA,171753.000,4308.3661,N,07726.3688,W,1,07,1.22,162.5,M,-34.4,M,,*5C
$GPRMC,171753.250,A,4308.3675,N,07726.3699,W,23.41,330.83,270825,,,A*41
$GPGGA,171753.500,4308.3688,N,07726.3708,W,1,06,1.80,162.6,M,-34.4,M,,*5D
$GPRMC,171753.750,A,4308.3703,N,07726.3716,W,23.34,336.55,270825,,,A*4D
$GPGGA,171754.000,4308.3718,N,07726.3724,W,1,07,1.22,162.8,M,-34.4,M,,*5E
$GPRMC,171754.250,A,4308.3733,N,07726.3732,W,23.04,339.81,270825,,,A*4F
$GPGGA,171754.500,4308.3748,N,07726.3738,W,1,07,1.30,163.0,M,-34.4,M,,*59
$GPRMC,171754.750,A,4308.3764,N,07726.3743,W,23.33,345.39,270825,,,A*42
$GPGGA,171755.000,4308.3780,N,07726.3747,W,1,07,1.30,163.2,M,-34.4,M,,*53
$GPRMC,171755.250,A,4308.3796,N,07726.3752,W,23.38,347.09,270825,,,A*41
$GPGGA,171755.500,4308.3811,N,07726.3757,W,1,07,1.30,163.6,M,-34.4,M,,*54
$GPRMC,171755.750,A,4308.3827,N,07726.3761,W,23.28,349.07,270825,,,A*40
$GPGGA,171756.000,4308.3843,N,07726.3764,W,1,07,1.30,164.0,M,-34.4,M,,*54
$GPRMC,171756.250,A,4308.3862,N,07726.3764,W,24.47,354.18,270825,,,A*4E
$GPGGA,171756.500,4308.3881,N,07726.3764,W,1,07,1.30,164.1,M,-34.4,M,,*5E
$GPRMC,171756.750,A,4308.3900,N,07726.3763,W,25.93,359.62,270825,,,A*41
$GPGGA,171757.000,4308.3918,N,07726.3763,W,1,07,1.22,164.2,M,-34.4,M,,*5C
$GPRMC,171757.250,A,4308.3937,N,07726.3761,W,26.68,3.07,270825,,,A*4B
$GPGGA,171757.500,4308.3956,N,07726.3759,W,1,07,1.30,164.3,M,-34.4,M,,*58
$GPRMC,171757.750,A,4308.3974,N,07726.3756,W,26.69,5.56,270825,,,A*4E
$GPGGA,171758.000,4308.3991,N,07726.3754,W,1,07,1.22,164.3,M,-34.4,M,,*57
$GPRMC,171758.250,A,4308.4009,N,07726.3751,W,25.63,6.13,270825,,,A*4C
$GPGGA,171758.500,4308.4026,N,07726.3749,W,1,07,1.30,164.4,M,-34.4,M,,*58
$GPRMC,171758.750,A,4308.4044,N,07726.3745,W,25.64,7.95,270825,,,A*4D
$GPGGA,171759.000,4308.4061,N,07726.3741,W,1,07,1.30,164.4,M,-34.4,M,,*57
$GPRMC,171759.250,A,4308.4079,N,07726.3738,W,25.24,8.53,270825,,,A*4C
$GPGGA,171759.500,4308.4096,N,07726.3734,W,1,07,1.30,164.4,M,-34.4,M,,*58
$GPRMC,171759.750,A,4308.4113,N,07726.3730,W,24.56,8.93,270825,,,A*44
$GPGGA,171800.000,4308.4129,N,07726.3727,W,1,07,1.30,164.4,M,-34.4,M,,*59
$GPRMC,171800.250,A,4308.4145,N,07726.3723,W,23.65,8.86,270825,,,A*40
$GPGGA,171800.500,4308.4160,N,07726.3720,W,1,07,1.30,164.5,M,-34.4,M,,*57
$GPRMC,171800.750,A,4308.4175,N,07726.3716,W,22.58,8.46,270825,,,A*43
$GPGGA,171801.000,4308.4190,N,07726.3713,W,1,07,1.30,164.6,M,-34.4,M,,*5F
$GPRMC,171801.250,A,4308.4206,N,07726.3710,W,21.85,7.80,270825,,,A*40
$GPGGA,171801.500,4308.4220,N,07726.3707,W,1,07,1.30,164.6,M,-34.4,M,,*57
$GPRMC,171801.750,A,4308.4235,N,07726.3704,W,20.72,7.20,270825,,,A*43
$GPGGA,171802.000,4308.4248,N,07726.3701,W,1,07,1.30,164.8,M,-34.4,M,,*57
$GPRMC,171802.250,A,4308.4261,N,07726.3698,W,19.44,6.91,270825,,,A*44
$GPGGA,171802.500,4308.4273,N,07726.3695,W,1,07,1.30,164.9,M,-34.4,M,,*57
$GPRMC,171802.750,A,4308.4286,N,07726.3693,W,18.42,5.86,270825,,,A*41
$GPGGA,171803.000,4308.4298,N,07726.3690,W,1,07,1.30,165.2,M,-34.4,M,,*59
$GPRMC,171803.250,A,4308.4309,N,07726.3688,W,17.07,5.69,270825,,,A*46
$GPGGA,171803.500,4308.4319,N,07726.3686,W,1,07,1.30,165.5,M,-34.4,M,,*54
$GPRMC,171803.750,A,4308.4331,N,07726.3681,W,15.43,5.87,270825,,,A*43
$GPGGA,171804.000,4308.4343,N,07726.3676,W,1,07,1.30,165.6,M,-34.4,M,,*55
$GPRMC,171804.250,A,4308.4354,N,07726.3672,W,14.38,7.36,270825,,,A*4B
$GPGGA,171804.500,4308.4365,N,07726.3669,W,1,07,1.30,165.4,M,-34.4,M,,*58
$GPRMC,171804.750,A,4308.4374,N,07726.3666,W,13.18,9.20,270825,,,A*45
$GPGGA,171805.000,4308.4384,N,07726.3663,W,1,07,1.30,165.5,M,-34.4,M,,*58
$GPRMC,171805.250,A,4308.4393,N,07726.3660,W,12.22,9.22,270825,,,A*44
$GPGGA,171805.500,4308.4402,N,07726.3657,W,1,07,1.30,165.7,M,-34.4,M,,*51
$GPRMC,171805.750,A,4308.4410,N,07726.3654,W,11.41,9.88,270825,,,A*4C
$GPGGA,171806.000,4308.4418,N,07726.3651,W,1,07,1.30,165.7,M,-34.4,M,,*5A
$GPRMC,171806.250,A,4308.4426,N,07726.3649,W,10.91,9.05,270825,,,A*4A
$GPGGA,171806.500,4308.4433,N,07726.3646,W,1,07,1.30,165.8,M,-34.4,M,,*5F
$GPRMC,171806.750,A,4308.4440,N,07726.3644,W,10.30,10.49,270825,,,A*79
$GPGGA,171807.000,4308.4447,N,07726.3642,W,1,07,1.30,165.8,M,-34.4,M,,*5C
$GPRMC,171807.250,A,4308.4455,N,07726.3639,W,10.02,10.86,270825,,,A*71
$GPGGA,171807.500,4308.4462,N,07726.3637,W,1,07,1.30,165.9,M,-34.4,M,,*5D
$GPRMC,171807.750,A,4308.4468,N,07726.3635,W,9.74,10.86,270825,,,A*4F
$GPGGA,171808.000,4308.4475,N,07726.3632,W,1,07,1.30,166.0,M,-34.4,M,,*5E
$GPRMC,171808.250,A,4308.4482,N,07726.3629,W,9.92,11.75,270825,,,A*49
$GPGGA,171808.500,4308.4489,N,07726.3626,W,1,07,1.30,166.1,M,-34.4,M,,*5C
$GPRMC,171808.750,A,4308.4495,N,07726.3623,W,9.90,12.36,270825,,,A*46
$GPGGA,171809.000,4308.4501,N,07726.3621,W,1,07,1.30,166.1,M,-34.4,M,,*5E
$GPRMC,171809.250,A,4308.4508,N,07726.3618,W,9.62,12.65,270825,,,A*44
$GPGGA,171809.500,4308.4514,N,07726.3616,W,1,07,1.30,166.2,M,-34.4,M,,*58
$GPRMC,171809.750,A,4308.4520,N,07726.3613,W,9.06,13.54,270825,,,A*41
$GPGGA,171810.000,4308.4526,N,07726.3611,W,1,07,1.30,166.3,M,-34.4,M,,*52
$GPRMC,171810.250,A,4308.4531,N,07726.3609,W,8.61,12.60,270825,,,A*41
$GPGGA,171810.500,4308.4537,N,07726.3607,W,1,07,1.30,166.3,M,-34.4,M,,*50
$GPRMC,171810.750,A,4308.4542,N,07726.3606,W,7.74,9.84,270825,,,A*74
$GPGGA,171811.000,4308.4547,N,07726.3604,W,1,07,1.30,166.3,M,-34.4,M,,*50
$GPRMC,171811.250,A,4308.4551,N,07726.3604,W,7.00,6.11,270825,,,A*70
$GPGGA,171811.500,4308.4555,N,07726.3603,W,1,07,1.30,166.1,M,-34.4,M,,*53
$GPRMC,171811.750,A,4308.4559,N,07726.3605,W,6.83,359.88,270825,,,A*7F
$GPGGA,171812.000,4308.4564,N,07726.3605,W,1,07,1.30,165.9,M,-34.4,M,,*5A
$GPRMC,171812.250,A,4308.4571,N,07726.3606,W,7.49,354.92,270825,,,A*71
$GPGGA,171812.500,4308.4577,N,07726.3607,W,1,07,1.30,165.7,M,-34.4,M,,*51
$GPRMC,171812.750,A,4308.4582,N,07726.3608,W,8.36,347.03,270825,,,A*7B
$GPGGA,171813.000,4308.4588,N,07726.3610,W,1,06,1.81,165.5,M,-34.4,M,,*5A
$GPRMC,171813.250,A,4308.4594,N,07726.3612,W,9.02,339.91,270825,,,A*77
$GPGGA,171813.500,4308.4600,N,07726.3616,W,1,07,1.30,165.4,M,-34.4,M,,*50
$GPRMC,171813.750,A,4308.4607,N,07726.3620,W,10.03,332.14,270825,,,A*45
$GPGGA,171814.000,4308.4613,N,07726.3625,W,1,07,1.30,165.4,M,-34.4,M,,*50
$GPRMC,171814.250,A,4308.4618,N,07726.3632,W,11.06,322.55,270825,,,A*4A
$GPGGA,171814.500,4308.4624,N,07726.3640,W,1,07,1.30,165.3,M,-34.4,M,,*55
$GPRMC,171814.750,A,4308.4629,N,07726.3648,W,11.80,315.32,270825,,,A*4B
$GPGGA,171815.000,4308.4634,N,07726.3658,W,1,07,1.22,165.5,M,-34.4,M,,*5C
$GPRMC,171815.250,A,4308.4639,N,07726.3668,W,12.91,308.42,270825,,,A*44
$GPGGA,171815.500,4308.4643,N,07726.3679,W,1,07,1.30,165.6,M,-34.4,M,,*5A
$GPRMC,171815.750,A,4308.4647,N,07726.3692,W,14.21,299.55,270825,,,A*4F
$GPGGA,171816.000,4308.4650,N,07726.3704,W,1,07,1.30,165.7,M,-34.4,M,,*54
$GPRMC,171816.250,A,4308.4653,N,07726.3718,W,14.93,292.48,270825,,,A*41
$GPGGA,171816.500,4308.4656,N,07726.3733,W,1,07,1.30,165.7,M,-34.4,M,,*53
$GPRMC,171816.750,A,4308.4658,N,07726.3749,W,16.23,284.73,270825,,,A*4D
$GPGGA,171817.000,4308.4660,N,07726.3765,W,1,07,1.22,165.8,M,-34.4,M,,*5D
$GPRMC,171817.250,A,4308.4661,N,07726.3782,W,17.09,280.10,270825,,,A*4C
$GPGGA,171817.500,4308.4662,N,07726.3799,W,1,07,1.30,165.6,M,-34.4,M,,*54
$GPRMC,171817.750,A,4308.4663,N,07726.3817,W,18.16,275.81,270825,,,A*4B
$GPGGA,171818.000,4308.4665,N,07726.3835,W,1,07,1.30,165.5,M,-34.4,M,,*53
$GPRMC,171818.250,A,4308.4665,N,07726.3853,W,18.66,273.77,270825,,,A*4F
$GPGGA,171818.500,4308.4666,N,07726.3872,W,1,07,1.30,165.3,M,-34.4,M,,*50
$GPRMC,171818.750,A,4308.4666,N,07726.3890,W,18.91,271.59,270825,,,A*40
$GPGGA,171819.000,4308.4667,N,07726.3909,W,1,07,1.30,165.2,M,-34.4,M,,*59
$GPRMC,171819.250,A,4308.4668,N,07726.3928,W,19.06,272.20,270825,,,A*4A
$GPGGA,171819.500,4308.4670,N,07726.3946,W,1,07,1.30,165.0,M,-34.4,M,,*53
$GPRMC,171819.750,A,4308.4673,N,07726.3965,W,18.91,274.84,270825,,,A*4B
$GPGGA,171820.000,4308.4675,N,07726.3983,W,1,07,1.22,164.8,M,-34.4,M,,*5A
$GPRMC,171820.250,A,4308.4677,N,07726.4002,W,18.62,276.66,270825,,,A*4D
$GPGGA,171820.500,4308.4679,N,07726.4020,W,1,07,1.30,164.7,M,-34.4,M,,*58
$GPRMC,171820.750,A,4308.4681,N,07726.4038,W,18.68,276.70,270825,,,A*45
$GPGGA,171821.000,4308.4682,N,07726.4056,W,1,07,1.22,164.6,M,-34.4,M,,*5B
$GPRMC,171821.250,A,4308.4684,N,07726.4074,W,18.73,277.49,270825,,,A*4D
$GPGGA,171821.500,4308.4685,N,07726.4092,W,1,07,1.30,164.4,M,-34.4,M,,*50
$GPRMC,171821.750,A,4308.4687,N,07726.4110,W,18.31,277.36,270825,,,A*46
$GPGGA,171822.000,4308.4688,N,07726.4127,W,1,07,1.22,164.2,M,-34.4,M,,*51
$GPRMC,171822.250,A,4308.4690,N,07726.4143,W,17.29,277.18,270825,,,A*4A
$GPGGA,171822.500,4308.4691,N,07726.4159,W,1,07,1.30,164.1,M,-34.4,M,,*55
$GPRMC,171822.750,A,4308.4693,N,07726.4175,W,15.70,277.26,270825,,,A*4A
$GPGGA,171823.000,4308.4695,N,07726.4189,W,1,07,1.22,163.8,M,-34.4,M,,*55
$GPRMC,171823.250,A,4308.4697,N,07726.4202,W,13.21,279.15,270825,,,A*45
$GPGGA,171823.500,4308.4699,N,07726.4213,W,1,07,1.30,163.6,M,-34.4,M,,*51
$GPRMC,171823.750,A,4308.4700,N,07726.4224,W,12.41,279.38,270825,,,A*43
$GPGGA,171824.000,4308.4702,N,07726.4236,W,1,07,1.22,163.5,M,-34.4,M,,*57
$GPRMC,171824.250,A,4308.4702,N,07726.4247,W,11.87,277.92,270825,,,A*41
$GPGGA,171824.500,4308.4702,N,07726.4258,W,1,07,1.30,163.4,M,-34.4,M,,*58
$GPRMC,171824.750,A,4308.4702,N,07726.4269,W,11.28,279.06,270825,,,A*4E
$GPGGA,171825.000,4308.4703,N,07726.4279,W,1,07,1.22,163.4,M,-34.4,M,,*5D
$GPRMC,171825.250,A,4308.4703,N,07726.4287,W,9.67,280.95,270825,,,A*75
$GPGGA,171825.500,4308.4701,N,07726.4292,W,1,07,1.30,163.4,M,-34.4,M,,*5C
$GPRMC,171825.750,A,4308.4701,N,07726.4299,W,7.37,276.74,270825,,,A*70
$GPGGA,171826.000,4308.4701,N,07726.4306,W,1,07,1.22,163.4,M,-34.4,M,,*55
$GPRMC,171826.250,A,4308.4701,N,07726.4311,W,5.81,277.73,270825,,,A*7E
$GPGGA,171826.500,4308.4702,N,07726.4317,W,1,07,1.30,163.4,M,-34.4,M,,*50
$GPRMC,171826.750,A,4308.4702,N,07726.4321,W,4.55,277.94,270825,,,A*7A
$GPGGA,171827.000,4308.4703,N,07726.4325,W,1,07,1.30,163.4,M,-34.4,M,,*54
$GPRMC,171827.250,A,4308.4703,N,07726.4329,W,3.45,275.19,270825,,,A*76
$GPGGA,171827.500,4308.4703,N,07726.4331,W,1,07,1.22,163.3,M,-34.4,M,,*50
$GPRMC,171827.750,A,4308.4704,N,07726.4333,W,1.87,275.19,270825,,,A*73
$GPGGA,171828.000,4308.4704,N,07726.4333,W,1,07,1.22,162.5,M,-34.4,M,,*58
$GPGGA,171841.500,4308.4705,N,07726.4344,W,1,07,1.22,160.3,M,-34.4,M,,*57
$GPRMC,171841.500,A,4308.4705,N,07726.4344,W,0.88,281.05,270825,,,A*7D
$GPGGA,171841.750,4308.4706,N,07726.4345,W,1,07,1.22,160.2,M,-34.4,M,,*53
$GPRMC,171841.750,A,4308.4706,N,07726.4345,W,1.07,284.06,270825,,,A*78
$GPRMC,171859.000,A,4308.4709,N,07726.4344,W,2.58,278.31,270825,,,A*73
$GPGGA,171859.250,4308.4709,N,07726.4346,W,1,07,1.22,158.6,M,-34.4,M,,*5C
$GPRMC,171859.500,A,4308.4710,N,07726.4350,W,3.32,279.73,270825,,,A*71
$GPGGA,171859.750,4308.4710,N,07726.4353,W,1,07,1.22,158.6,M,-34.4,M,,*55
$GPRMC,171900.000,A,4308.4710,N,07726.4358,W,4.29,278.51,270825,,,A*7D
$GPGGA,171900.250,4308.4711,N,07726.4363,W,1,07,1.30,158.5,M,-34.4,M,,*5F
$GPRMC,171900.500,A,4308.4712,N,07726.4368,W,6.14,280.34,270825,,,A*71
$GPGGA,171900.750,4308.4713,N,07726.4375,W,1,07,1.30,158.5,M,-34.4,M,,*5F
$GPRMC,171901.000,A,4308.4714,N,07726.4382,W,7.58,279.46,270825,,,A*7D
$GPGGA,171901.250,4308.4715,N,07726.4390,W,1,07,1.30,158.4,M,-34.4,M,,*57
$GPRMC,171901.500,A,4308.4716,N,07726.4399,W,9.39,279.30,270825,,,A*78
$GPGGA,171901.750,4308.4716,N,07726.4410,W,1,07,1.30,158.4,M,-34.4,M,,*5E
$GPRMC,171902.000,A,4308.4718,N,07726.4421,W,11.36,278.30,270825,,,A*43
$GPGGA,171902.250,4308.4719,N,07726.4433,W,1,06,1.77,158.4,M,-34.4,M,,*54
$GPRMC,171902.500,A,4308.4721,N,07726.4447,W,14.90,279.63,270825,,,A*42
$GPGGA,171902.750,4308.4722,N,07726.4462,W,1,06,1.82,158.4,M,-34.4,M,,*57
$GPRMC,171903.000,A,4308.4724,N,07726.4479,W,17.60,278.65,270825,,,A*45
$GPGGA,171903.250,4308.4726,N,07726.4497,W,1,06,1.77,158.4,M,-34.4,M,,*57
$GPRMC,171903.500,A,4308.4729,N,07726.4516,W,21.15,279.93,270825,,,A*4A
$GPGGA,171903.750,4308.4731,N,07726.4537,W,1,06,1.82,158.4,M,-34.4,M,,*55
$GPRMC,171904.000,A,4308.4734,N,07726.4558,W,23.03,279.28,270825,,,A*4B
$GPGGA,171904.250,4308.4736,N,07726.4581,W,1,06,1.77,158.4,M,-34.4,M,,*57
$GPRMC,171904.500,A,4308.4738,N,07726.4606,W,26.02,278.14,270825,,,A*40
$GPGGA,171904.750,4308.4741,N,07726.4631,W,1,07,1.30,158.4,M,-34.4,M,,*58
$GPRMC,171905.000,A,4308.4743,N,07726.4658,W,28.28,277.15,270825,,,A*4B
$GPGGA,171905.250,4308.4745,N,07726.4685,W,1,07,1.22,158.5,M,-34.4,M,,*55
$GPRMC,171905.500,A,4308.4748,N,07726.4713,W,30.26,277.90,270825,,,A*41
$GPGGA,171905.750,4308.4750,N,07726.4743,W,1,07,1.30,158.6,M,-34.4,M,,*5F
$GPRMC,171906.000,A,4308.4753,N,07726.4773,W,32.19,277.58,270825,,,A*41
$GPGGA,171906.250,4308.4756,N,07726.4804,W,1,07,1.22,158.6,M,-34.4,M,,*50
$GPRMC,171906.500,A,4308.4759,N,07726.4837,W,34.62,277.71,270825,,,A*40
$GPGGA,171906.750,4308.4762,N,07726.4870,W,1,07,1.30,158.8,M,-34.4,M,,*5C
$GPRMC,171907.000,A,4308.4766,N,07726.4905,W,36.49,277.42,270825,,,A*43
$GPGGA,171907.250,4308.4769,N,07726.4941,W,1,07,1.22,159.0,M,-34.4,M,,*5A
$GPRMC,171907.500,A,4308.4772,N,07726.4977,W,38.35,276.95,270825,,,A*48
$GPGGA,171907.750,4308.4775,N,07726.5014,W,1,07,1.30,159.2,M,-34.4,M,,*5B
$GPRMC,171908.000,A,4308.4778,N,07726.5051,W,39.48,276.13,270825,,,A*41
$GPGGA,171908.250,4308.4780,N,07726.5090,W,1,07,1.22,159.4,M,-34.4,M,,*52
$GPRMC,171908.500,A,4308.4782,N,07726.5129,W,40.84,275.03,270825,,,D*46
$GPGGA,171908.750,4308.4784,N,07726.5168,W,2,07,1.30,159.6,M,-34.4,M,0000,0000*57
$GPRMC,171909.000,A,4308.4786,N,07726.5208,W,41.41,274.33,270825,,,D*4C
$GPGGA,171909.250,4308.4788,N,07726.5248,W,2,07,1.22,159.8,M,-34.4,M,0000,0000*53
$GPRMC,171909.500,A,4308.4791,N,07726.5287,W,41.12,273.92,270825,,,D*42
$GPGGA,171909.750,4308.4793,N,07726.5326,W,2,07,1.22,160.0,M,-34.4,M,0000,0000*57
$GPRMC,171910.000,A,4308.4795,N,07726.5365,W,40.92,273.85,270825,,,D*49
$GPGGA,171910.250,4308.4797,N,07726.5404,W,2,07,1.30,160.2,M,-34.4,M,0000,0000*58
$GPRMC,171910.500,A,4308.4799,N,07726.5442,W,40.34,274.13,270825,,,D*46
$GPGGA,171910.750,4308.4801,N,07726.5481,W,2,06,1.33,160.3,M,-34.4,M,0000,0000*53
$GPRMC,171911.000,A,4308.4802,N,07726.5519,W,40.04,273.64,270825,,,D*44
$GPGGA,171911.250,4308.4804,N,07726.5557,W,2,06,1.33,160.3,M,-34.4,M,0000,0000*58
$GPRMC,171911.500,A,4308.4805,N,07726.5594,W,38.87,272.82,270825,,,D*4E
$GPGGA,171911.750,4308.4806,N,07726.5632,W,2,06,1.33,160.4,M,-34.4,M,0000,0000*58
$GPRMC,171912.000,A,4308.4807,N,07726.5670,W,38.81,272.50,270825,,,D*4A
$GPGGA,171912.250,4308.4807,N,07726.5707,W,2,06,1.33,160.4,M,-34.4,M,0000,0000*58
$GPRMC,171912.500,A,4308.4808,N,07726.5744,W,38.82,272.32,270825,,,D*41
$GPGGA,171912.750,4308.4809,N,07726.5781,W,2,07,1.30,160.4,M,-34.4,M,0000,0000*5F
$GPRMC,171913.000,A,4308.4810,N,07726.5819,W,38.90,272.46,270825,,,D*4B
$GPGGA,171913.250,4308.4810,N,07726.5856,W,2,06,1.33,160.4,M,-34.4,M,0000,0000*54
$GPRMC,171913.500,A,4308.4811,N,07726.5893,W,38.88,272.78,270825,,,D*49
$GPGGA,171913.750,4308.4812,N,07726.5930,W,2,07,1.30,160.4,M,-34.4,M,0000,0000*50
$GPRMC,171914.000,A,4308.4813,N,07726.5967,W,38.55,273.03,270825,,,D*4E
$GPGGA,171914.250,4308.4814,N,07726.6003,W,2,07,1.30,160.4,M,-34.4,M,0000,0000*5E
$GPRMC,171914.500,A,4308.4814,N,07726.6040,W,38.21,272.61,270825,,,D*45
$GPGGA,171914.750,4308.4815,N,07726.6076,W,2,07,1.30,160.4,M,-34.4,M,0000,0000*58
$GPRMC,171915.000,A,4308.4816,N,07726.6111,W,37.78,272.45,270825,,,D*43
$GPGGA,171915.250,4308.4816,N,07726.6147,W,2,07,1.30,160.5,M,-34.4,M,0000,0000*5D
$GPRMC,171915.500,A,4308.4817,N,07726.6181,W,37.64,272.08,270825,,,D*4A
$GPGGA,171915.750,4308.4817,N,07726.6215,W,2,07,1.30,160.4,M,-34.4,M,0000,0000*5C
$GPRMC,171916.000,A,4308.4817,N,07726.6250,W,36.79,271.68,270825,,,D*4B
$GPGGA,171916.250,4308.4817,N,07726.6285,W,2,07,1.30,160.5,M,-34.4,M,0000,0000*52
$GPRMC,171916.500,A,4308.4817,N,07726.6320,W,36.19,270.65,270825,,,D*42
$GPGGA,171916.750,4308.4816,N,07726.6354,W,2,07,1.30,160.6,M,-34.4,M,0000,0000*58
$GPRMC,171917.000,A,4308.4815,N,07726.6388,W,35.75,269.13,270825,,,D*46
$GPGGA,171917.250,4308.4814,N,07726.6421,W,2,07,1.30,160.8,M,-34.4,M,0000,0000*55
$GPRMC,171917.500,A,4308.4812,N,07726.6455,W,35.73,268.21,270825,,,D*45
$GPGGA,171917.750,4308.4811,N,07726.6489,W,2,07,1.30,161.0,M,-34.4,M,0000,0000*5E
$GPRMC,171918.000,A,4308.4809,N,07726.6522,W,35.44,267.27,270825,,,D*49
$GPGGA,171918.250,4308.4807,N,07726.6556,W,2,07,1.22,161.1,M,-34.4,M,0000,0000*52
$GPRMC,171918.500,A,4308.4805,N,07726.6588,W,34.42,265.98,270825,,,D*41
$GPGGA,171918.750,4308.4803,N,07726.6620,W,2,07,1.30,161.2,M,-34.4,M,0000,0000*51
$GPRMC,171919.000,A,4308.4801,N,07726.6652,W,33.86,266.03,270825,,,D*4B
$GPGGA,171919.250,4308.4799,N,07726.6684,W,2,07,1.30,161.1,M,-34.4,M,0000,0000*54
$GPRMC,171919.500,A,4308.4797,N,07726.6715,W,33.48,265.93,270825,,,D*44
$GPGGA,171919.750,4308.4795,N,07726.6747,W,2,06,1.34,161.2,M,-34.4,M,0000,0000*55
$GPRMC,171920.000,A,4308.4793,N,07726.6778,W,33.00,266.18,270825,,,D*48
$GPGGA,171920.250,4308.4791,N,07726.6809,W,2,06,1.34,161.3,M,-34.4,M,0000,0000*5A
$GPRMC,171920.500,A,4308.4790,N,07726.6840,W,33.24,265.91,270825,,,D*4E
$GPGGA,171920.750,4308.4788,N,07726.6872,W,2,06,1.34,161.4,M,-34.4,M,0000,0000*5C
$GPRMC,171921.000,A,4308.4786,N,07726.6903,W,33.46,265.57,270825,,,D*45
$GPGGA,171921.250,4308.4784,N,07726.6935,W,2,06,1.34,161.5,M,-34.4,M,0000,0000*57
$GPRMC,171921.500,A,4308.4782,N,07726.6967,W,33.66,265.41,270825,,,D*43
$GPGGA,171921.750,4308.4780,N,07726.6999,W,2,07,1.30,161.6,M,-34.4,M,0000,0000*56
$GPRMC,171922.000,A,4308.4778,N,07726.7030,W,33.84,265.03,270825,,,D*40
$GPGGA,171922.250,4308.4776,N,07726.7062,W,2,06,1.34,161.5,M,-34.4,M,0000,0000*53
$GPRMC,171922.500,A,4308.4774,N,07726.7094,W,34.06,265.26,270825,,,D*4D
$GPGGA,171922.750,4308.4772,N,07726.7126,W,2,06,1.34,161.6,M,-34.4,M,0000,0000*50
$GPRMC,171923.000,A,4308.4770,N,07726.7158,W,34.27,265.55,270825,,,D*4B
$GPGGA,171923.250,4308.4768,N,07726.7191,W,2,06,1.34,161.6,M,-34.4,M,0000,0000*53
$GPRMC,171923.500,A,4308.4766,N,07726.7225,W,35.23,265.73,270825,,,D*41
$GPGGA,171923.750,4308.4764,N,07726.7258,W,2,06,1.33,161.6,M,-34.4,M,0000,0000*5B
$GPRMC,171924.000,A,4308.4762,N,07726.7292,W,35.67,264.97,270825,,,D*40
$GPGGA,171924.250,4308.4759,N,07726.7326,W,2,06,1.33,162.0,M,-34.4,M,0000,0000*5A
$GPRMC,171924.500,A,4308.4757,N,07726.7361,W,36.05,263.85,270825,,,D*4D
$GPGGA,171924.750,4308.4755,N,07726.7394,W,2,06,1.33,161.9,M,-34.4,M,0000,0000*50
$GPRMC,171925.000,A,4308.4753,N,07726.7428,W,36.44,264.84,270825,,,D*44
$GPGGA,171925.250,4308.4751,N,07726.7463,W,2,06,1.34,161.9,M,-34.4,M,0000,0000*58
$GPRMC,171925.500,A,4308.4748,N,07726.7498,W,36.82,265.53,270825,,,D*41
$GPGGA,171925.750,4308.4746,N,07726.7533,W,2,06,1.34,162.2,M,-34.4,M,0000,0000*57
$GPRMC,171926.000,A,4308.4744,N,07726.7568,W,36.91,265.62,270825,,,D*45
$GPGGA,171926.250,4308.4742,N,07726.7603,W,2,07,1.30,162.5,M,-34.4,M,0000,0000*57
$GPRMC,171926.500,A,4308.4740,N,07726.7637,W,36.86,265.81,270825,,,D*46
$GPGGA,171926.750,4308.4738,N,07726.7671,W,2,07,1.22,162.7,M,-34.4,M,0000,0000*5B
$GPRMC,171927.000,A,4308.4736,N,07726.7705,W,35.68,265.38,270825,,,D*42
$GPGGA,171927.250,4308.4733,N,07726.7739,W,2,07,1.22,163.0,M,-34.4,M,0000,0000*5F
$GPRMC,171927.500,A,4308.4731,N,07726.7772,W,35.38,265.10,270825,,,D*4F
$GPGGA,171927.750,4308.4729,N,07726.7806,W,2,07,1.30,163.3,M,-34.4,M,0000,0000*52
$GPRMC,171928.000,A,4308.4727,N,07726.7839,W,35.33,264.76,270825,,,D*48
$GPGGA,171928.250,4308.4725,N,07726.7873,W,2,07,1.22,163.6,M,-34.4,M,0000,0000*50
$GPRMC,171928.500,A,4308.4724,N,07726.7908,W,35.22,265.57,270825,,,D*4F
$GPGGA,171928.750,4308.4722,N,07726.7942,W,2,07,1.30,164.0,M,-34.4,M,0000,0000*53
$GPRMC,171929.000,A,4308.4720,N,07726.7976,W,36.03,265.64,270825,,,D*46
$GPGGA,171929.250,4308.4718,N,07726.8011,W,2,07,1.22,164.3,M,-34.4,M,0000,0000*5E
$GPRMC,171929.500,A,4308.4716,N,07726.8045,W,36.42,264.96,270825,,,D*49
$GPGGA,171929.750,4308.4713,N,07726.8079,W,2,07,1.30,164.6,M,-34.4,M,0000,0000*58
$GPRMC,171930.000,A,4308.4711,N,07726.8113,W,36.39,264.54,270825,,,D*43
$GPGGA,171930.250,4308.4709,N,07726.8147,W,2,07,1.22,164.8,M,-34.4,M,0000,0000*5F
$GPRMC,171930.500,A,4308.4707,N,07726.8180,W,36.32,264.89,270825,,,D*40
$GPGGA,171930.750,4308.4705,N,07726.8214,W,2,07,1.30,165.0,M,-34.4,M,0000,0000*59
$GPRMC,171931.000,A,4308.4703,N,07726.8248,W,36.45,265.03,270825,,,D*44
$GPGGA,171931.250,4308.4701,N,07726.8283,W,2,07,1.30,165.2,M,-34.4,M,0000,0000*55
$GPRMC,171931.500,A,4308.4698,N,07726.8317,W,36.34,264.77,270825,,,D*4D
$GPGGA,171931.750,4308.4696,N,07726.8351,W,2,07,1.30,165.5,M,-34.4,M,0000,0000*56
$GPRMC,171932.000,A,4308.4694,N,07726.8386,W,36.27,264.43,270825,,,D*4A
$GPGGA,171932.250,4308.4692,N,07726.8420,W,2,07,1.30,165.8,M,-34.4,M,0000,0000*58
$GPRMC,171932.500,A,4308.4689,N,07726.8454,W,36.17,264.17,270825,,,D*49
$GPGGA,171932.750,4308.4687,N,07726.8489,W,2,07,1.30,166.1,M,-34.4,M,0000,0000*50
$GPRMC,171933.000,A,4308.4684,N,07726.8523,W,35.69,264.15,270825,,,D*49
$GPGGA,171933.250,4308.4682,N,07726.8557,W,2,07,1.30,166.3,M,-34.4,M,0000,0000*51
$GPRMC,171933.500,A,4308.4680,N,07726.8591,W,35.14,264.16,270825,,,D*48
$GPGGA,171933.750,4308.4678,N,07726.8625,W,2,07,1.30,166.2,M,-34.4,M,0000,0000*56
$GPRMC,171934.000,A,4308.4676,N,07726.8659,W,35.18,264.37,270825,,,D*4B
$GPGGA,171934.250,4308.4674,N,07726.8694,W,2,07,1.30,166.2,M,-34.4,M,0000,0000*52
$GPRMC,171934.500,A,4308.4672,N,07726.8728,W,35.04,264.88,270825,,,D*44
$GPGGA,171934.750,4308.4670,N,07726.8763,W,2,07,1.30,166.1,M,-34.4,M,0000,0000*59
$GPRMC,171935.000,A,4308.4667,N,07726.8797,W,35.16,264.81,270825,,,D*4A
$GPGGA,171935.250,4308.4665,N,07726.8832,W,2,07,1.30,166.0,M,-34.4,M,0000,0000*53
$GPRMC,171935.500,A,4308.4663,N,07726.8867,W,35.31,264.70,270825,,,D*40
$GPGGA,171935.750,4308.4661,N,07726.8902,W,2,07,1.30,165.9,M,-34.4,M,0000,0000*5A
$GPRMC,171936.000,A,4308.4658,N,07726.8937,W,35.59,264.82,270825,,,D*49
$GPGGA,171936.250,4308.4656,N,07726.8973,W,2,07,1.22,165.7,M,-34.4,M,0000,0000*53
$GPRMC,171936.500,A,4308.4654,N,07726.9009,W,35.93,265.23,270825,,,D*49
$GPGGA,171936.750,4308.4651,N,07726.9044,W,2,07,1.30,165.6,M,-34.4,M,0000,0000*5F
$GPRMC,171937.000,A,4308.4649,N,07726.9080,W,36.31,264.90,270825,,,D*42
$GPGGA,171937.250,4308.4647,N,07726.9116,W,2,07,1.30,165.5,M,-34.4,M,0000,0000*59
$GPRMC,171937.500,A,4308.4644,N,07726.9151,W,38.24,264.62,270825,,,D*40
$GPGGA,171937.750,4308.4641,N,07726.9186,W,2,07,1.30,165.3,M,-34.4,M,0000,0000*55
$GPRMC,171938.000,A,4308.4639,N,07726.9222,W,38.51,264.48,270825,,,D*4D
$GPGGA,171938.250,4308.4636,N,07726.9258,W,2,07,1.22,165.2,M,-34.4,M,0000,0000*5D
$GPRMC,171938.500,A,4308.4634,N,07726.9294,W,38.53,264.71,270825,,,D*40
$GPGGA,171938.750,4308.4632,N,07726.9329,W,2,07,1.30,165.0,M,-34.4,M,0000,0000*5A
$GPRMC,171939.000,A,4308.4629,N,07726.9365,W,38.03,264.74,270825,,,D*47
$GPGGA,171939.250,4308.4627,N,07726.9400,W,2,07,1.30,164.9,M,-34.4,M,0000,0000*5E
$GPRMC,171939.500,A,4308.4625,N,07726.9436,W,37.83,265.03,270825,,,D*49
$GPGGA,171939.750,4308.4623,N,07726.9472,W,2,07,1.30,164.8,M,-34.4,M,0000,0000*5B
$GPRMC,171940.000,A,4308.4620,N,07726.9508,W,38.13,265.07,270825,,,D*49
$GPGGA,171940.250,4308.4618,N,07726.9544,W,2,07,1.22,164.8,M,-34.4,M,0000,0000*5F
$GPRMC,171940.500,A,4308.4615,N,07726.9579,W,37.98,264.31,270825,,,D*44
$GPGGA,171940.750,4308.4613,N,07726.9615,W,2,07,1.30,164.6,M,-34.4,M,0000,0000*5B
$GPRMC,171941.000,A,4308.4611,N,07726.9652,W,38.22,265.00,270825,,,D*43
$GPGGA,171941.250,4308.4608,N,07726.9688,W,2,07,1.30,164.5,M,-34.4,M,0000,0000*52
$GPRMC,171941.500,A,4308.4606,N,07726.9725,W,39.78,265.65,270825,,,D*4C
$GPGGA,171941.750,4308.4604,N,07726.9762,W,2,07,1.30,164.5,M,-34.4,M,0000,0000*5E
$GPRMC,171942.000,A,4308.4601,N,07726.9799,W,39.92,265.42,270825,,,D*4B
$GPGGA,171942.250,4308.4599,N,07726.9837,W,2,07,1.30,164.6,M,-34.4,M,0000,0000*53
$GPRMC,171942.500,A,4308.4596,N,07726.9874,W,40.13,265.35,270825,,,D*48
$GPGGA,171942.750,4308.4594,N,07726.9911,W,2,07,1.22,164.6,M,-34.4,M,0000,0000*5D
$GPRMC,171943.000,A,4308.4591,N,07726.9948,W,40.27,264.62,270825,,,D*41
$GPGGA,171943.250,4308.4588,N,07726.9986,W,2,07,1.30,164.8,M,-34.4,M,0000,0000*57
$GPRMC,171943.500,A,4308.4586,N,07727.0024,W,40.31,264.84,270825,,,D*46
$GPGGA,171943.750,4308.4584,N,07727.0061,W,2,07,1.30,164.9,M,-34.4,M,0000,0000*57
$GPRMC,171944.000,A,4308.4581,N,07727.0098,W,40.32,265.21,270825,,,D*49
$GPGGA,171944.250,4308.4579,N,07727.0136,W,2,07,1.30,164.8,M,-34.4,M,0000,0000*55
$GPRMC,171944.500,A,4308.4577,N,07727.0173,W,40.17,265.32,270825,,,D*44
$GPGGA,171944.750,4308.4575,N,07727.0211,W,2,06,1.33,164.9,M,-34.4,M,0000,0000*59
$GPRMC,171945.000,A,4308.4572,N,07727.0249,W,40.12,264.97,270825,,,D*44
$GPGGA,171945.250,4308.4570,N,07727.0287,W,2,07,1.30,165.2,M,-34.4,M,0000,0000*5F
$GPRMC,171945.500,A,4308.4568,N,07727.0325,W,40.18,265.48,270825,,,D*48
$GPGGA,171945.750,4308.4566,N,07727.0363,W,2,07,1.30,165.5,M,-34.4,M,0000,0000*51
$GPRMC,171946.000,A,4308.4565,N,07727.0401,W,39.98,266.31,270825,,,D*49
$GPGGA,171946.250,4308.4564,N,07727.0440,W,2,07,1.30,165.7,M,-34.4,M,0000,0000*51
$GPRMC,171946.500,A,4308.4562,N,07727.0478,W,40.20,267.14,270825,,,D*4E
$GPGGA,171946.750,4308.4562,N,07727.0516,W,2,07,1.30,165.9,M,-34.4,M,0000,0000*5E
$GPRMC,171947.000,A,4308.4561,N,07727.0555,W,40.13,267.99,270825,,,D*42
$GPGGA,171947.250,4308.4561,N,07727.0595,W,2,07,1.22,166.0,M,-34.4,M,0000,0000*5B
$GPRMC,171947.500,A,4308.4560,N,07727.0634,W,41.05,268.80,270825,,,D*43
$GPGGA,171947.750,4308.4561,N,07727.0674,W,2,07,1.30,166.0,M,-34.4,M,0000,0000*51
$GPRMC,171948.000,A,4308.4562,N,07727.0713,W,40.99,270.22,270825,,,D*4A
$GPGGA,171948.250,4308.4564,N,07727.0752,W,2,07,1.30,166.0,M,-34.4,M,0000,0000*5B
$GPRMC,171948.500,A,4308.4566,N,07727.0791,W,40.88,272.67,270825,,,D*42
$GPGGA,171948.750,4308.4568,N,07727.0830,W,2,07,1.30,165.9,M,-34.4,M,0000,0000*53
$GPRMC,171949.000,A,4308.4571,N,07727.0869,W,40.84,274.12,270825,,,D*40
$GPGGA,171949.250,4308.4574,N,07727.0908,W,2,07,1.30,165.8,M,-34.4,M,0000,0000*51
$GPRMC,171949.500,A,4308.4578,N,07727.0946,W,40.97,276.69,270825,,,D*4C
$GPGGA,171949.750,4308.4582,N,07727.0983,W,2,07,1.30,165.6,M,-34.4,M,0000,0000*50
$GPRMC,171950.000,A,4308.4586,N,07727.1022,W,41.08,277.79,270825,,,D*4D
$GPGGA,171950.250,4308.4590,N,07727.1061,W,2,07,1.22,165.6,M,-34.4,M,0000,0000*59
$GPRMC,171950.500,A,4308.4594,N,07727.1099,W,41.27,278.20,270825,,,D*45
$GPGGA,171950.750,4308.4599,N,07727.1137,W,2,07,1.30,165.4,M,-34.4,M,0000,0000*56
$GPRMC,171951.000,A,4308.4603,N,07727.1173,W,40.95,278.81,270825,,,D*4A
$GPGGA,171951.250,4308.4608,N,07727.1209,W,2,07,1.22,164.9,M,-34.4,M,0000,0000*58
$GPRMC,171951.500,A,4308.4612,N,07727.1246,W,41.09,278.78,270825,,,D*48
$GPGGA,171951.750,4308.4617,N,07727.1283,W,2,07,1.30,164.7,M,-34.4,M,0000,0000*5C
$GPRMC,171952.000,A,4308.4622,N,07727.1320,W,40.96,279.23,270825,,,D*44
$GPGGA,171952.250,4308.4627,N,07727.1358,W,2,07,1.30,164.7,M,-34.4,M,0000,0000*5E
$GPRMC,171952.500,A,4308.4631,N,07727.1395,W,40.93,279.21,270825,,,D*4A
$GPGGA,171952.750,4308.4636,N,07727.1432,W,2,07,1.30,164.6,M,-34.4,M,0000,0000*51
$GPRMC,171953.000,A,4308.4641,N,07727.1469,W,40.81,279.24,270825,,,D*4B
$GPGGA,171953.250,4308.4646,N,07727.1506,W,2,07,1.30,164.7,M,-34.4,M,0000,0000*55
$GPRMC,171953.500,A,4308.4651,N,07727.1543,W,40.73,279.33,270825,,,D*4D
$GPGGA,171953.750,4308.4656,N,07727.1581,W,2,07,1.30,164.8,M,-34.4,M,0000,0000*51
$GPRMC,171954.000,A,4308.4661,N,07727.1617,W,39.91,279.43,270825,,,D*4B
$GPGGA,171954.250,4308.4666,N,07727.1654,W,2,07,1.30,164.4,M,-34.4,M,0000,0000*57
$GPRMC,171954.500,A,4308.4671,N,07727.1691,W,39.79,279.26,270825,,,D*44
$GPGGA,171954.750,4308.4675,N,07727.1729,W,2,07,1.30,164.6,M,-34.4,M,0000,0000*59
$GPRMC,171955.000,A,4308.4680,N,07727.1767,W,40.50,279.01,270825,,,D*46
$GPGGA,171955.250,4308.4684,N,07727.1805,W,2,07,1.22,164.8,M,-34.4,M,0000,0000*5F
$GPRMC,171955.500,A,4308.4689,N,07727.1844,W,40.70,279.05,270825,,,D*42
$GPGGA,171955.750,4308.4693,N,07727.1882,W,2,07,1.30,165.0,M,-34.4,M,0000,0000*59
$GPRMC,171956.000,A,4308.4698,N,07727.1919,W,40.84,279.71,270825,,,D*45
$GPGGA,171956.250,4308.4703,N,07727.1956,W,2,07,1.30,164.9,M,-34.4,M,0000,0000*57
$GPRMC,171956.500,A,4308.4708,N,07727.1993,W,40.83,279.48,270825,,,D*47
$GPGGA,171956.750,4308.4713,N,07727.2030,W,2,07,1.30,164.8,M,-34.4,M,0000,0000*58
$GPRMC,171957.000,A,4308.4717,N,07727.2068,W,40.56,279.08,270825,,,D*4F
$GPGGA,171957.250,4308.4722,N,07727.2105,W,2,07,1.30,164.9,M,-34.4,M,0000,0000*58
$GPRMC,171957.500,A,4308.4726,N,07727.2143,W,40.56,278.85,270825,,,D*44
$GPGGA,171957.750,4308.4731,N,07727.2181,W,2,07,1.30,164.9,M,-34.4,M,0000,0000*53
$GPRMC,171958.000,A,4308.4736,N,07727.2219,W,40.75,278.42,270825,,,D*49
$GPGGA,171958.250,4308.4740,N,07727.2257,W,2,07,1.30,165.1,M,-34.4,M,0000,0000*5E
$GPRMC,171958.500,A,4308.4745,N,07727.2296,W,40.97,278.86,270825,,,D*4B
$GPGGA,171958.750,4308.4750,N,07727.2334,W,2,07,1.30,165.3,M,-34.4,M,0000,0000*5C
$GPRMC,171959.000,A,4308.4755,N,07727.2373,W,41.29,279.08,270825,,,D*47
$GPGGA,171959.250,4308.4759,N,07727.2412,W,2,07,1.30,165.6,M,-34.4,M,0000,0000*57
$GPRMC,171959.500,A,4308.4764,N,07727.2450,W,41.40,279.44,270825,,,D*41
$GPGGA,171959.750,4308.4769,N,07727.2487,W,2,07,1.30,165.6,M,-34.4,M,0000,0000*5D
$GPRMC,172000.000,A,4308.4775,N,07727.2525,W,40.99,280.42,270825,,,D*44
$GPGGA,172000.250,4308.4780,N,07727.2563,W,2,07,1.30,165.5,M,-34.4,M,0000,0000*51
$GPRMC,172000.500,A,4308.4786,N,07727.2601,W,41.08,280.03,270825,,,D*44
$GPGGA,172000.750,4308.4791,N,07727.2640,W,2,07,1.30,165.6,M,-34.4,M,0000,0000*55
$GPRMC,172001.000,A,4308.4796,N,07727.2679,W,41.04,280.02,270825,,,D*43
$GPGGA,172001.250,4308.4801,N,07727.2718,W,2,07,1.30,165.7,M,-34.4,M,0000,0000*5A
$GPRMC,172001.500,A,4308.4807,N,07727.2756,W,41.17,280.20,270825,,,D*4F
$GPGGA,172001.750,4308.4812,N,07727.2794,W,2,07,1.30,165.7,M,-34.4,M,0000,0000*59
$GPRMC,172002.000,A,4308.4817,N,07727.2833,W,41.64,280.04,270825,,,D*46
$GPGGA,172002.250,4308.4823,N,07727.2871,W,2,07,1.30,165.7,M,-34.4,M,0000,0000*59
$GPRMC,172002.500,A,4308.4828,N,07727.2909,W,41.56,279.82,270825,,,D*4E
$GPGGA,172002.750,4308.4833,N,07727.2947,W,2,07,1.30,165.6,M,-34.4,M,0000,0000*58
$GPRMC,172003.000,A,4308.4838,N,07727.2985,W,41.53,279.84,270825,,,D*4C
$GPGGA,172003.250,4308.4843,N,07727.3024,W,2,07,1.22,165.7,M,-34.4,M,0000,0000*54
$GPRMC,172003.500,A,4308.4847,N,07727.3063,W,41.55,279.24,270825,,,D*4D
$GPGGA,172003.750,4308.4852,N,07727.3101,W,2,07,1.30,165.8,M,-34.4,M,0000,0000*5B
$GPRMC,172004.000,A,4308.4857,N,07727.3139,W,41.40,279.33,270825,,,D*42
$GPGGA,172004.250,4308.4862,N,07727.3176,W,2,07,1.22,165.3,M,-34.4,M,0000,0000*52
$GPRMC,172004.500,A,4308.4866,N,07727.3214,W,41.25,279.36,270825,,,D*4F
$GPGGA,172004.750,4308.4871,N,07727.3252,W,2,07,1.30,165.2,M,-34.4,M,0000,0000*52
$GPRMC,172005.000,A,4308.4876,N,07727.3289,W,40.11,279.20,270825,,,D*4F
$GPGGA,172005.250,4308.4880,N,07727.3326,W,2,07,1.30,165.2,M,-34.4,M,0000,0000*5A
$GPRMC,172005.500,A,4308.4884,N,07727.3363,W,40.01,278.89,270825,,,D*41
$GPGGA,172005.750,4308.4888,N,07727.3400,W,2,07,1.30,165.1,M,-34.4,M,0000,0000*57
$GPRMC,172006.000,A,4308.4893,N,07727.3437,W,39.77,279.05,270825,,,D*4D
$GPGGA,172006.250,4308.4897,N,07727.3474,W,2,07,1.30,165.0,M,-34.4,M,0000,0000*5D
$GPRMC,172006.500,A,4308.4902,N,07727.3512,W,39.57,278.41,270825,,,D*44
$GPGGA,172006.750,4308.4907,N,07727.3549,W,2,07,1.30,164.5,M,-34.4,M,0000,0000*5B
$GPRMC,172007.000,A,4308.4911,N,07727.3585,W,38.95,277.60,270825,,,D*4F
$GPGGA,172007.250,4308.4915,N,07727.3622,W,2,07,1.30,164.4,M,-34.4,M,0000,0000*53
$GPRMC,172007.500,A,4308.4920,N,07727.3660,W,39.49,278.85,270825,,,D*44
$GPGGA,172007.750,4308.4924,N,07727.3697,W,2,07,1.30,164.2,M,-34.4,M,0000,0000*5C
$GPRMC,172008.000,A,4308.4927,N,07727.3733,W,39.06,278.26,270825,,,D*4C
$GPGGA,172008.250,4308.4932,N,07727.3768,W,2,07,1.30,163.7,M,-34.4,M,0000,0000*52
$GPRMC,172008.500,A,4308.4936,N,07727.3804,W,38.36,278.98,270825,,,D*45
$GPGGA,172008.750,4308.4941,N,07727.3840,W,2,07,1.30,163.3,M,-34.4,M,0000,0000*52
$GPRMC,172009.000,A,4308.4945,N,07727.3876,W,38.06,278.65,270825,,,D*41
$GPGGA,172009.250,4308.4949,N,07727.3911,W,2,07,1.29,163.1,M,-34.4,M,0000,0000*51
$GPRMC,172009.500,A,4308.4953,N,07727.3946,W,37.77,278.71,270825,,,D*4D
$GPGGA,172009.750,4308.4958,N,07727.3981,W,2,07,1.30,162.6,M,-34.4,M,0000,0000*53
$GPRMC,172010.000,A,4308.4962,N,07727.4016,W,37.91,279.30,270825,,,D*45
$GPGGA,172010.250,4308.4967,N,07727.4051,W,2,07,1.29,162.2,M,-34.4,M,0000,0000*5D
$GPRMC,172010.500,A,4308.4971,N,07727.4086,W,37.39,279.56,270825,,,D*49
$GPGGA,172010.750,4308.4976,N,07727.4121,W,2,07,1.30,161.6,M,-34.4,M,0000,0000*51
$GPRMC,172011.000,A,4308.4981,N,07727.4155,W,37.13,279.48,270825,,,D*4A
$GPGGA,172011.250,4308.4985,N,07727.4189,W,2,07,1.30,161.2,M,-34.4,M,0000,0000*5F
$GPRMC,172011.500,A,4308.4990,N,07727.4223,W,36.83,279.24,270825,,,D*4F
$GPGGA,172011.750,4308.4995,N,07727.4257,W,2,07,1.30,160.8,M,-34.4,M,0000,0000*50
$GPRMC,172012.000,A,4308.4999,N,07727.4291,W,36.59,279.38,270825,,,D*43
$GPGGA,172012.250,4308.5004,N,07727.4325,W,2,07,1.30,160.4,M,-34.4,M,0000,0000*5E
$GPRMC,172012.500,A,4308.5008,N,07727.4358,W,36.48,278.48,270825,,,D*44
$GPGGA,172012.750,4308.5012,N,07727.4392,W,2,07,1.29,160.3,M,-34.4,M,0000,0000*5F
$GPRMC,172013.000,A,4308.5016,N,07727.4427,W,36.25,278.16,270825,,,D*40
$GPGGA,172013.250,4308.5019,N,07727.4461,W,2,07,1.22,160.3,M,-34.4,M,0000,0000*50
$GPRMC,172013.500,A,4308.5023,N,07727.4495,W,36.11,278.59,270825,,,D*46
$GPGGA,172013.750,4308.5027,N,07727.4528,W,2,07,1.29,160.3,M,-34.4,M,0000,0000*5F
$GPRMC,172014.000,A,4308.5031,N,07727.4562,W,36.19,278.97,270825,,,D*44
$GPGGA,172014.250,4308.5035,N,07727.4596,W,2,07,1.30,160.3,M,-34.4,M,0000,0000*53
$GPRMC,172014.500,A,4308.5039,N,07727.4630,W,36.10,279.49,270825,,,D*46
$GPGGA,172014.750,4308.5044,N,07727.4663,W,2,07,1.29,160.4,M,-34.4,M,0000,0000*56
$GPRMC,172015.000,A,4308.5048,N,07727.4696,W,36.10,279.67,270825,,,D*44
$GPGGA,172015.250,4308.5052,N,07727.4730,W,2,07,1.22,160.6,M,-34.4,M,0000,0000*5B
$GPRMC,172015.500,A,4308.5056,N,07727.4763,W,36.12,280.03,270825,,,D*43
$GPGGA,172015.750,4308.5060,N,07727.4797,W,2,07,1.29,160.8,M,-34.4,M,0000,0000*57
$GPRMC,172016.000,A,4308.5065,N,07727.4830,W,36.42,280.70,270825,,,D*4D
$GPGGA,172016.250,4308.5070,N,07727.4863,W,2,07,1.30,160.9,M,-34.4,M,0000,0000*5D
$GPRMC,172016.500,A,4308.5074,N,07727.4897,W,36.45,279.98,270825,,,D*42
$GPGGA,172016.750,4308.5078,N,07727.4931,W,2,07,1.29,161.0,M,-34.4,M,0000,0000*56
$GPRMC,172017.000,A,4308.5083,N,07727.4965,W,36.22,280.35,270825,,,D*42
$GPGGA,172017.250,4308.5087,N,07727.4999,W,2,07,1.22,161.3,M,-34.4,M,0000,0000*58
$GPRMC,172017.500,A,4308.5091,N,07727.5034,W,36.49,279.91,270825,,,D*4D
$GPGGA,172017.750,4308.5094,N,07727.5068,W,2,07,1.29,161.6,M,-34.4,M,0000,0000*57
$GPRMC,172018.000,A,4308.5098,N,07727.5101,W,36.45,279.70,270825,,,D*4A
$GPGGA,172018.250,4308.5103,N,07727.5135,W,2,07,1.29,161.8,M,-34.4,M,0000,0000*55
$GPRMC,172018.500,A,4308.5108,N,07727.5168,W,36.31,280.96,270825,,,D*45
$GPGGA,172018.750,4308.5113,N,07727.5201,W,2,07,1.30,161.9,M,-34.4,M,0000,0000*5C
$GPRMC,172019.000,A,4308.5117,N,07727.5235,W,36.27,280.92,270825,,,D*47
$GPGGA,172019.250,4308.5122,N,07727.5269,W,2,07,1.30,162.2,M,-34.4,M,0000,0000*5C
$GPRMC,172019.500,A,4308.5126,N,07727.5303,W,36.28,280.15,270825,,,D*44
$GPGGA,172019.750,4308.5131,N,07727.5337,W,2,07,1.29,162.3,M,-34.4,M,0000,0000*58
$GPRMC,172020.000,A,4308.5136,N,07727.5371,W,36.34,280.03,270825,,,D*45
$GPGGA,172020.250,4308.5140,N,07727.5405,W,2,07,1.30,162.6,M,-34.4,M,0000,0000*5A
$GPRMC,172020.500,A,4308.5145,N,07727.5439,W,36.41,280.19,270825,,,D*46
$GPGGA,172020.750,4308.5150,N,07727.5473,W,2,07,1.29,162.8,M,-34.4,M,0000,0000*59
$GPRMC,172021.000,A,4308.5155,N,07727.5508,W,36.49,280.52,270825,,,D*47
$GPGGA,172021.250,4308.5159,N,07727.5542,W,2,07,1.29,162.9,M,-34.4,M,0000,0000*56
$GPRMC,172021.500,A,4308.5163,N,07727.5577,W,36.63,279.53,270825,,,D*40
$GPGGA,172021.750,4308.5167,N,07727.5612,W,2,07,1.29,163.1,M,-34.4,M,0000,0000*51
$GPRMC,172022.000,A,4308.5171,N,07727.5648,W,36.80,279.10,270825,,,D*40
$GPGGA,172022.250,4308.5175,N,07727.5683,W,2,07,1.29,163.4,M,-34.4,M,0000,0000*59
$GPRMC,172022.500,A,4308.5179,N,07727.5719,W,36.94,278.09,270825,,,D*44
$GPGGA,172022.750,4308.5183,N,07727.5754,W,2,07,1.29,163.6,M,-34.4,M,0000,0000*5C
$GPRMC,172023.000,A,4308.5187,N,07727.5789,W,37.05,278.89,270825,,,D*49
$GPGGA,172023.250,4308.5191,N,07727.5824,W,2,07,1.29,163.8,M,-34.4,M,0000,0000*5D
$GPRMC,172023.500,A,4308.5196,N,07727.5858,W,37.01,279.55,270825,,,D*4B
$GPGGA,172023.750,4308.5200,N,07727.5893,W,2,07,1.30,164.0,M,-34.4,M,0000,0000*58
$GPRMC,172024.000,A,4308.5205,N,07727.5928,W,36.75,279.61,270825,,,D*43
$GPGGA,172024.250,4308.5209,N,07727.5962,W,2,07,1.29,164.2,M,-34.4,M,0000,0000*56
$GPRMC,172024.500,A,4308.5212,N,07727.5997,W,36.70,278.58,270825,,,D*4A
$GPGGA,172024.750,4308.5215,N,07727.6032,W,2,07,1.29,164.3,M,-34.4,M,0000,0000*50
$GPRMC,172025.000,A,4308.5219,N,07727.6066,W,36.77,277.74,270825,,,D*47
$GPGGA,172025.250,4308.5222,N,07727.6101,W,2,07,1.22,164.5,M,-34.4,M,0000,0000*5C
$GPRMC,172025.500,A,4308.5225,N,07727.6136,W,37.00,277.54,270825,,,D*4A
$GPGGA,172025.750,4308.5228,N,07727.6171,W,2,07,1.22,164.6,M,-34.4,M,0000,0000*57
$GPRMC,172026.000,A,4308.5231,N,07727.6205,W,36.77,277.75,270825,,,D*48
$GPGGA,172026.250,4308.5235,N,07727.6239,W,2,07,1.22,164.4,M,-34.4,M,0000,0000*50
$GPRMC,172026.500,A,4308.5238,N,07727.6273,W,36.33,278.53,270825,,,D*4E
$GPGGA,172026.750,4308.5242,N,07727.6306,W,2,07,1.22,164.6,M,-34.4,M,0000,0000*5A
$GPRMC,172027.000,A,4308.5245,N,07727.6340,W,36.05,278.37,270825,,,D*46
$GPGGA,172027.250,4308.5248,N,07727.6373,W,2,07,1.22,164.4,M,-34.4,M,0000,0000*54
$GPRMC,172027.500,A,4308.5252,N,07727.6405,W,35.59,277.92,270825,,,D*49
$GPGGA,172027.750,4308.5255,N,07727.6437,W,2,07,1.29,164.2,M,-34.4,M,0000,0000*57
$GPRMC,172028.000,A,4308.5258,N,07727.6468,W,35.04,277.37,270825,,,D*45
$GPGGA,172028.250,4308.5261,N,07727.6500,W,2,07,1.29,163.8,M,-34.4,M,0000,0000*52
$GPRMC,172028.500,A,4308.5264,N,07727.6532,W,34.91,276.72,270825,,,D*4C
$GPGGA,172028.750,4308.5267,N,07727.6564,W,2,07,1.29,163.7,M,-34.4,M,0000,0000*5C
$GPRMC,172029.000,A,4308.5269,N,07727.6597,W,34.85,276.29,270825,,,D*41
$GPGGA,172029.250,4308.5272,N,07727.6630,W,2,07,1.22,163.9,M,-34.4,M,0000,0000*5B
$GPRMC,172029.500,A,4308.5274,N,07727.6662,W,34.36,275.69,270825,,,D*4E
$GPGGA,172029.750,4308.5276,N,07727.6695,W,2,07,1.29,164.2,M,-34.4,M,0000,0000*52
$GPRMC,172030.000,A,4308.5279,N,07727.6727,W,34.12,275.29,270825,,,D*4C
$GPGGA,172030.250,4308.5281,N,07727.6759,W,2,07,1.22,164.1,M,-34.4,M,0000,0000*5E
$GPRMC,172030.500,A,4308.5283,N,07727.6790,W,34.11,275.56,270825,,,D*4B
$GPGGA,172030.750,4308.5285,N,07727.6821,W,2,07,1.29,164.2,M,-34.4,M,0000,0000*57
$GPRMC,172031.000,A,4308.5287,N,07727.6852,W,33.64,275.41,270825,,,D*49
$GPGGA,172031.250,4308.5289,N,07727.6883,W,2,07,1.22,164.3,M,-34.4,M,0000,0000*5D
$GPRMC,172031.500,A,4308.5291,N,07727.6915,W,33.28,274.74,270825,,,D*46
$GPGGA,172031.750,4308.5293,N,07727.6946,W,2,07,1.22,164.3,M,-34.4,M,0000,0000*5B
$GPRMC,172032.000,A,4308.5294,N,07727.6978,W,33.21,273.64,270825,,,D*41
$GPGGA,172032.250,4308.5295,N,07727.7009,W,2,07,1.29,164.4,M,-34.4,M,0000,0000*54
$GPRMC,172032.500,A,4308.5297,N,07727.7039,W,32.98,273.99,270825,,,D*4B
$GPGGA,172032.750,4308.5299,N,07727.7068,W,2,07,1.29,164.3,M,-34.4,M,0000,0000*5D
$GPRMC,172033.000,A,4308.5301,N,07727.7097,W,31.80,274.34,270825,,,D*4F
$GPGGA,172033.250,4308.5303,N,07727.7127,W,2,07,1.29,164.5,M,-34.4,M,0000,0000*57
$GPRMC,172033.500,A,4308.5304,N,07727.7158,W,32.00,274.62,270825,,,D*45
$GPGGA,172033.750,4308.5305,N,07727.7188,W,2,07,1.29,164.6,M,-34.4,M,0000,0000*52
$GPRMC,172034.000,A,4308.5307,N,07727.7219,W,32.30,274.14,270825,,,D*40
$GPGGA,172034.250,4308.5308,N,07727.7249,W,2,07,1.29,164.7,M,-34.4,M,0000,0000*52
$GPRMC,172034.500,A,4308.5309,N,07727.7280,W,32.25,274.29,270825,,,D*41
$GPGGA,172034.750,4308.5311,N,07727.7310,W,2,07,1.29,164.8,M,-34.4,M,0000,0000*5D
$GPRMC,172035.000,A,4308.5313,N,07727.7339,W,31.85,275.47,270825,,,D*4D
$GPGGA,172035.250,4308.5315,N,07727.7368,W,2,07,1.29,164.5,M,-34.4,M,0000,0000*5F
$GPRMC,172035.500,A,4308.5317,N,07727.7398,W,31.82,275.45,270825,,,D*42
$GPGGA,172035.750,4308.5318,N,07727.7427,W,2,07,1.29,164.7,M,-34.4,M,0000,0000*59
$GPRMC,172036.000,A,4308.5320,N,07727.7456,W,30.63,274.92,270825,,,D*40
$GPGGA,172036.250,4308.5321,N,07727.7484,W,2,07,1.29,164.9,M,-34.4,M,0000,0000*52
$GPRMC,172036.500,A,4308.5323,N,07727.7511,W,30.78,275.34,270825,,,D*43
$GPGGA,172036.750,4308.5325,N,07727.7539,W,2,07,1.29,165.3,M,-34.4,M,0000,0000*5F
$GPRMC,172037.000,A,4308.5328,N,07727.7565,W,29.04,276.27,270825,,,D*4D
$GPGGA,172037.250,4308.5329,N,07727.7592,W,2,07,1.29,165.0,M,-34.4,M,0000,0000*55
$GPRMC,172037.500,A,4308.5330,N,07727.7618,W,28.08,274.93,270825,,,D*48
$GPGGA,172037.750,4308.5330,N,07727.7644,W,2,07,1.29,165.4,M,-34.4,M,0000,0000*54
$GPRMC,172038.000,A,4308.5330,N,07727.7670,W,27.09,273.81,270825,,,D*46
$GPGGA,172038.250,4308.5330,N,07727.7695,W,2,07,1.29,165.8,M,-34.4,M,0000,0000*5E
$GPRMC,172038.500,A,4308.5330,N,07727.7719,W,25.79,272.95,270825,,,D*4C
$GPGGA,172038.750,4308.5329,N,07727.7743,W,2,07,1.29,166.3,M,-34.4,M,0000,0000*51
$GPRMC,172039.000,A,4308.5331,N,07727.7764,W,24.99,272.92,270825,,,D*4B
$GPGGA,172039.250,4308.5332,N,07727.7786,W,2,07,1.22,165.4,M,-34.4,M,0000,0000*59
$GPRMC,172039.500,A,4308.5333,N,07727.7808,W,24.08,273.66,270825,,,D*4B
$GPGGA,172039.750,4308.5334,N,07727.7829,W,2,07,1.29,165.7,M,-34.4,M,0000,0000*58
$GPRMC,172040.000,A,4308.5336,N,07727.7849,W,23.28,274.91,270825,,,D*4A
$GPGGA,172040.250,4308.5337,N,07727.7868,W,2,07,1.29,165.0,M,-34.4,M,0000,0000*52
$GPRMC,172040.500,A,4308.5338,N,07727.7886,W,22.06,274.47,270825,,,D*44
$GPGGA,172040.750,4308.5339,N,07727.7903,W,2,07,1.29,164.7,M,-34.4,M,0000,0000*53
$GPRMC,172041.000,A,4308.5339,N,07727.7921,W,20.65,274.24,270825,,,D*4F
$GPGGA,172041.250,4308.5339,N,07727.7939,W,2,07,1.29,164.6,M,-34.4,M,0000,0000*5F
$GPRMC,172041.500,A,4308.5338,N,07727.7956,W,19.50,272.25,270825,,,D*40
$GPGGA,172041.750,4308.5338,N,07727.7973,W,2,07,1.29,164.7,M,-34.4,M,0000,0000*54
$GPRMC,172042.000,A,4308.5338,N,07727.7989,W,18.21,271.47,270825,,,D*44
$GPGGA,172042.250,4308.5338,N,07727.8005,W,2,07,1.29,164.3,M,-34.4,M,0000,0000*51
$GPRMC,172042.500,A,4308.5337,N,07727.8020,W,16.20,267.86,270825,,,D*4E
$GPGGA,172042.750,4308.5335,N,07727.8033,W,2,07,1.29,164.5,M,-34.4,M,0000,0000*5A
$GPRMC,172043.000,A,4308.5333,N,07727.8046,W,14.62,265.39,270825,,,D*4C
$GPGGA,172043.250,4308.5330,N,07727.8057,W,2,07,1.22,164.8,M,-34.4,M,0000,0000*5F
$GPRMC,172043.500,A,4308.5329,N,07727.8068,W,12.12,264.20,270825,,,D*46
$GPGGA,172043.750,4308.5329,N,07727.8077,W,2,07,1.22,164.7,M,-34.4,M,0000,0000*5F
$GPRMC,172044.000,A,4308.5327,N,07727.8085,W,9.92,264.14,270825,,,D*7C
$GPGGA,172044.250,4308.5325,N,07727.8092,W,2,07,1.29,164.9,M,-34.4,M,0000,0000*5F
$GPRMC,172044.500,A,4308.5324,N,07727.8098,W,7.88,262.34,270825,,,D*77
$GPGGA,172044.750,4308.5322,N,07727.8102,W,2,07,1.29,165.1,M,-34.4,M,0000,0000*5C
$GPRMC,172045.000,A,4308.5320,N,07727.8106,W,6.35,254.16,270825,,,D*73
$GPGGA,172045.250,4308.5319,N,07727.8108,W,2,07,1.22,165.0,M,-34.4,M,0000,0000*50
$GPRMC,172045.500,A,4308.5317,N,07727.8111,W,4.86,247.31,270825,,,D*79
$GPGGA,172045.750,4308.5315,N,07727.8112,W,2,07,1.29,165.1,M,-34.4,M,0000,0000*58
$GPRMC,172046.000,A,4308.5314,N,07727.8112,W,3.33,242.81,270825,,,D*78
$GPGGA,172046.250,4308.5313,N,07727.8113,W,2,07,1.22,165.0,M,-34.4,M,0000,0000*53
$GPRMC,172046.500,A,4308.5312,N,07727.8112,W,2.17,242.81,270825,,,D*7C
$GPGGA,172046.750,4308.5311,N,07727.8111,W,2,07,1.22,164.8,M,-34.4,M,0000,0000*5F
$GPRMC,172051.000,A,4308.5316,N,07727.8110,W,2.70,297.63,270825,,,D*7C
$GPGGA,172051.250,4308.5316,N,07727.8113,W,2,07,1.22,163.7,M,-34.4,M,0000,0000*51
$GPRMC,172051.500,A,4308.5316,N,07727.8118,W,5.05,295.70,270825,,,D*74
$GPGGA,172051.750,4308.5318,N,07727.8123,W,2,07,1.29,163.8,M,-34.4,M,0000,0000*5D
$GPRMC,172052.000,A,4308.5319,N,07727.8129,W,5.50,293.58,270825,,,D*73
$GPGGA,172052.250,4308.5319,N,07727.8135,W,2,07,1.22,163.8,M,-34.4,M,0000,0000*56
$GPRMC,172052.500,A,4308.5320,N,07727.8141,W,6.60,290.80,270825,,,D*74
$GPGGA,172052.750,4308.5321,N,07727.8149,W,2,07,1.22,163.9,M,-34.4,M,0000,0000*52
$GPRMC,172053.000,A,4308.5322,N,07727.8156,W,7.78,289.11,270825,,,D*7C
$GPGGA,172053.250,4308.5324,N,07727.8165,W,2,07,1.22,164.0,M,-34.4,M,0000,0000*53
$GPRMC,172053.500,A,4308.5325,N,07727.8173,W,9.57,288.00,270825,,,D*7B
$GPGGA,172053.750,4308.5324,N,07727.8184,W,2,07,1.22,164.0,M,-34.4,M,0000,0000*59
$GPRMC,172054.000,A,4308.5324,N,07727.8195,W,11.23,281.30,270825,,,D*40
$GPGGA,172054.250,4308.5324,N,07727.8208,W,2,07,1.22,164.1,M,-34.4,M,0000,0000*5D
$GPRMC,172054.500,A,4308.5324,N,07727.8222,W,13.75,276.81,270825,,,D*49
$GPGGA,172054.750,4308.5324,N,07727.8236,W,2,07,1.29,164.3,M,-34.4,M,0000,0000*5C
$GPRMC,172055.000,A,4308.5324,N,07727.8251,W,15.54,273.93,270825,,,D*4A
$GPGGA,172055.250,4308.5325,N,07727.8268,W,2,07,1.22,164.4,M,-34.4,M,0000,0000*5E
$GPRMC,172055.500,A,4308.5327,N,07727.8286,W,17.82,275.88,270825,,,D*43
$GPGGA,172055.750,4308.5329,N,07727.8303,W,2,07,1.29,164.6,M,-34.4,M,0000,0000*52
$GPRMC,172056.000,A,4308.5330,N,07727.8322,W,19.18,275.74,270825,,,D*42
$GPGGA,172056.250,4308.5331,N,07727.8341,W,2,07,1.22,164.7,M,-34.4,M,0000,0000*51
$GPRMC,172056.500,A,4308.5333,N,07727.8360,W,20.56,276.35,270825,,,D*44
$GPGGA,172056.750,4308.5334,N,07727.8380,W,2,07,1.29,164.9,M,-34.4,M,0000,0000*59
$GPRMC,172057.000,A,4308.5335,N,07727.8401,W,21.38,276.44,270825,,,D*49
$GPGGA,172057.250,4308.5336,N,07727.8422,W,2,07,1.22,165.1,M,-34.4,M,0000,0000*52
$GPRMC,172057.500,A,4308.5337,N,07727.8444,W,22.51,274.36,270825,,,D*44
$GPGGA,172057.750,4308.5336,N,07727.8466,W,2,07,1.29,165.4,M,-34.4,M,0000,0000*59
$GPRMC,172058.000,A,4308.5336,N,07727.8489,W,23.09,272.24,270825,,,D*47
$GPGGA,172058.250,4308.5338,N,07727.8512,W,2,07,1.22,165.7,M,-34.4,M,0000,0000*57
$GPRMC,172058.500,A,4308.5340,N,07727.8536,W,24.72,274.25,270825,,,D*4A
$GPGGA,172058.750,4308.5341,N,07727.8560,W,2,07,1.29,166.0,M,-34.4,M,0000,0000*56
$GPRMC,172059.000,A,4308.5343,N,07727.8584,W,25.64,274.30,270825,,,D*46
$GPGGA,172059.250,4308.5344,N,07727.8609,W,2,07,1.22,166.3,M,-34.4,M,0000,0000*53
$GPRMC,172059.500,A,4308.5345,N,07727.8634,W,26.85,272.96,270825,,,D*4B
$GPGGA,172059.750,4308.5346,N,07727.8660,W,2,07,1.22,166.6,M,-34.4,M,0000,0000*5E
$GPRMC,172100.000,A,4308.5347,N,07727.8686,W,27.33,273.03,270825,,,D*49
$GPGGA,172100.250,4308.5348,N,07727.8713,W,2,07,1.22,166.9,M,-34.4,M,0000,0000*52
$GPRMC,172100.500,A,4308.5349,N,07727.8740,W,28.25,272.39,270825,,,D*49
$GPGGA,172100.750,4308.5349,N,07727.8767,W,2,07,1.22,167.2,M,-34.4,M,0000,0000*5F
$GPRMC,172101.000,A,4308.5350,N,07727.8795,W,28.83,272.14,270825,,,D*4E
$GPGGA,172101.250,4308.5350,N,07727.8822,W,2,07,1.22,167.6,M,-34.4,M,0000,0000*59
$GPRMC,172101.500,A,4308.5351,N,07727.8850,W,29.19,272.04,270825,,,D*4F
$GPGGA,172101.750,4308.5351,N,07727.8878,W,2,07,1.29,167.9,M,-34.4,M,0000,0000*56
$GPRMC,172102.000,A,4308.5352,N,07727.8906,W,29.27,271.74,270825,,,D*41
$GPGGA,172102.250,4308.5352,N,07727.8933,W,2,07,1.22,168.2,M,-34.4,M,0000,0000*52
$GPRMC,172102.500,A,4308.5352,N,07727.8961,W,29.55,271.64,270825,,,D*41
$GPGGA,172102.750,4308.5352,N,07727.8989,W,2,07,1.22,168.6,M,-34.4,M,0000,0000*52
$GPRMC,172103.000,A,4308.5353,N,07727.9017,W,29.73,271.33,270825,,,D*4B
$GPGGA,172103.250,4308.5353,N,07727.9046,W,2,07,1.22,168.9,M,-34.4,M,0000,0000*53
$GPRMC,172103.500,A,4308.5353,N,07727.9074,W,29.73,270.54,270825,,,D*4B
$GPGGA,172103.750,4308.5352,N,07727.9103,W,2,07,1.22,169.3,M,-34.4,M,0000,0000*5C
$GPRMC,172104.000,A,4308.5352,N,07727.9131,W,29.61,270.22,270825,,,D*4A
$GPGGA,172104.250,4308.5352,N,07727.9159,W,2,07,1.29,169.7,M,-34.4,M,0000,0000*5E
$GPRMC,172104.500,A,4308.5352,N,07727.9187,W,29.55,269.88,270825,,,D*4D
$GPGGA,172104.750,4308.5352,N,07727.9215,W,2,07,1.29,170.0,M,-34.4,M,0000,0000*5F
$GPRMC,172105.000,A,4308.5352,N,07727.9243,W,29.44,269.49,270825,,,D*4F
$GPGGA,172105.250,4308.5351,N,07727.9271,W,2,07,1.22,170.2,M,-34.4,M,0000,0000*53
$GPRMC,172105.500,A,4308.5351,N,07727.9299,W,29.33,269.50,270825,,,D*46
$GPGGA,172105.750,4308.5351,N,07727.9327,W,2,07,1.29,170.4,M,-34.4,M,0000,0000*59
$GPRMC,172106.000,A,4308.5351,N,07727.9355,W,29.57,269.91,270825,,,D*4E
$GPGGA,172106.250,4308.5352,N,07727.9383,W,2,07,1.29,170.7,M,-34.4,M,0000,0000*51
$GPRMC,172106.500,A,4308.5352,N,07727.9412,W,29.66,269.91,270825,,,D*4E
$GPGGA,172106.750,4308.5352,N,07727.9440,W,2,07,1.29,170.9,M,-34.4,M,0000,0000*52
$GPRMC,172107.000,A,4308.5352,N,07727.9469,W,29.64,269.94,270825,,,D*41
$GPGGA,172107.250,4308.5352,N,07727.9498,W,2,07,1.29,171.1,M,-34.4,M,0000,0000*5A
$GPRMC,172107.500,A,4308.5353,N,07727.9527,W,29.83,269.98,270825,,,D*4B
$GPGGA,172107.750,4308.5353,N,07727.9556,W,2,07,1.29,171.3,M,-34.4,M,0000,0000*5F
$GPRMC,172108.000,A,4308.5353,N,07727.9585,W,30.27,270.05,270825,,,D*43
$GPGGA,172108.250,4308.5353,N,07727.9614,W,2,07,1.22,171.5,M,-34.4,M,0000,0000*5D
$GPRMC,172108.500,A,4308.5353,N,07727.9643,W,30.72,270.63,270825,,,D*4F
