Vers 72
USE_SERIAL_FEEDBACK=true
DEVELOPMENT_MODE=false
USE_RMC_ONLY=false

$GPRMC,134735.750,A,4308.3062,N,07726.2642,W,0.75,7.03,020925,,,A*7D
$GPGGA,134736.000,4308.3062,N,07726.2643,W,1,03,9.61,184.4,M,-34.4,M,,*5F
$GPRMC,134736.500,A,4308.3065,N,07726.2643,W,0.66,3.76,020925,,,A*7B
$GPGGA,134736.750,4308.3068,N,07726.2642,W,1,03,9.62,184.4,M,-34.4,M,,*55
$GPGGA,134738.750,4308.3081,N,07726.2644,W,1,03,9.63,184.4,M,-34.4,M,,*5B
$GPRMC,134738.750,A,4308.3081,N,07726.2644,W,1.21,7.46,020925,,,A*7A
$GPGGA,134739.250,4308.3085,N,07726.2646,W,1,03,9.63,184.4,M,-34.4,M,,*59
$GPRMC,134739.250,A,4308.3085,N,07726.2646,W,1.30,5.39,020925,,,A*72
$GPGGA,134740.000,4308.3101,N,07726.2650,W,1,03,9.64,184.4,M,-34.4,M,,*5D
$GPRMC,134740.000,A,4308.3101,N,07726.2650,W,2.26,5.33,020925,,,A*7F
$GPRMC,134740.500,A,4308.3103,N,07726.2649,W,2.07,6.97,020925,,,A*7E
$GPGGA,134740.750,4308.3102,N,07726.2648,W,1,03,9.64,184.4,M,-34.4,M,,*55
$GPGGA,134745.500,4308.3113,N,07726.2662,W,1,03,5.46,184.5,M,-34.4,M,,*52
$GPRMC,134745.500,A,4308.3113,N,07726.2662,W,2.00,305.81,020925,,,A*73
$GPGGA,134746.000,4308.3114,N,07726.2674,W,1,03,5.47,184.5,M,-34.4,M,,*55
$GPRMC,134746.000,A,4308.3114,N,07726.2674,W,2.71,295.87,020925,,,A*7D
$GPGGA,134746.500,4308.3111,N,07726.2689,W,1,03,5.47,184.5,M,-34.4,M,,*57
$GPRMC,134746.500,A,4308.3111,N,07726.2689,W,5.08,278.49,020925$GPGGA,134746.750,4308.3111,N,07726.2698,W,1,03,5.47,184.5,M,-34.4,M,,*50
$GPRMC,134747.250,A,4308.3112,N,07726.2715,W,7.82,277.27,020925,,,A*74
$GPGGA,134747.500,4308.3113,N,07726.2725,W,1,03,5.47,184.5,M,-34.4,M,,*53
$GPRMC,134748.000,A,4308.3117,N,07726.2747,W,10.14,279.70,020925,,,A*4B
$GPGGA,134748.095,4308.3116,N,07726.2752,W,1,03,5.47,184.5,M,-34.4,M,,*50
$GPRMC,134748.500,A,4308.3117,N,07726.2768,W,10.64,276.90,020925,,,A*45
$GPGGA,134748.750,4308.3121,N,07726.2783,W,1,03,5.48,184.5,M,-34.4,M,,*59
$GPRMC,134749.250,A,4308.3126,N,07726.2810,W,12.80,279.40,020925,,,A*4E
$GPGGA,134749.500,4308.3130,N,07726.2826,W,1,03,5.48,184.5,M,-34.4,M,,*5F
$GPRMC,134749.750,A,4308.3134,N,07726.2841,W,14.16,281.22,020925,,,A*46
$GPGGA,134750.000,4308.3139,N,07726.2857,W,1,03,5.48,184.5,M,-34.4,M,,*5D
$GPRMC,134750.250,A,4308.3143,N,07726.2871,W,14.86,284.09,020925,,,A*4D
$GPGGA,134750.500,4308.3149,N,07726.2887,W,1,03,5.48,184.5,M,-34.4,M,,*52
$GPRMC,134750.750,A,4308.3155,N,07726.2903,W,15.67,288.78,020925,,,A*4F
$GPGGA,134751.000,4308.3163,N,07726.2917,W,1,03,5.48,184.5,M,-34.4,M,,*56
$GPRMC,134751.250,A,4308.3168,N,07726.2932,W,16.03,291.17,020925,,,A*47
$GPGGA,134751.500,4308.3173,N,07726.2949,W,1,03,5.49,184.5,M,-34.4,M,,*58
$GPRMC,134751.750,A,4308.3179,N,07726.2966,W,17.05,291.58,020925,,,A*4F
$GPGGA,134752.000,4308.3183,N,07726.2983,W,1,03,5.48,184.5,M,-34.4,M,,*56
$GPRMC,134752.250,A,4308.3187,N,07726.3000,W,17.72,291.03,020925,,,A*4E
$GPGGA,134752.500,4308.3192,N,07726.3017,W,1,03,5.49,184.5,M,-34.4,M,,*57
$GPRMC,134752.750,A,4308.3197,N,07726.3034,W,18.09,292.02,020925,,,A*4C
$GPGGA,134753.000,4308.3203,N,07726.3051,W,1,03,5.49,184.5,M,-34.4,M,,*5A
$GPRMC,134753.250,A,4308.3208,N,07726.3068,W,18.65,291.74,020925,,,A*4C
$GPGGA,134753.500,4308.3214,N,07726.3086,W,1,03,5.49,184.5,M,-34.4,M,,*53
$GPRMC,134753.750,A,4308.3220,N,07726.3104,W,19.30,291.03,020925,,,A*49
$GPGGA,134754.000,4308.3227,N,07726.3122,W,1,03,5.49,184.5,M,-34.4,M,,*5E
$GPRMC,134754.500,A,4308.3240,N,07726.3158,W,19.73,292.71,020925,,,A*47
$GPGGA,134754.750,4308.3246,N,07726.3177,W,1,03,5.49,184.5,M,-34.4,M,,*5B
$GPRMC,134755.000,A,4308.3253,N,07726.3195,W,20.22,292.67,020925,,,A*49
$GPGGA,134755.250,4308.3259,N,07726.3214,W,1,03,5.49,184.5,M,-34.4,M,,*57
$GPRMC,134755.500,A,4308.3266,N,07726.3234,W,20.73,292.17,020925,,,A*41
$GPGGA,134755.750,4308.3274,N,07726.3252,W,1,03,5.50,184.5,M,-34.4,M,,*57
$GPRMC,134756.000,A,4308.3282,N,07726.3272,W,20.89,293.17,020925,,,A*4B
$GPGGA,134756.250,4308.3291,N,07726.3291,W,1,03,5.50,184.5,M,-34.4,M,,*55
$GPRMC,134756.500,A,4308.3298,N,07726.3310,W,21.08,294.85,020925,,,A*44
$GPGGA,134756.750,4308.3307,N,07726.3330,W,1,03,5.50,184.5,M,-34.4,M,,*54
$GPRMC,134757.000,A,4308.3320,N,07726.3350,W,21.85,295.87,020925,,,A*40
$GPGGA,134757.250,4308.3329,N,07726.3370,W,1,03,5.50,184.5,M,-34.4,M,,*58
$GPRMC,134757.500,A,4308.3342,N,07726.3391,W,22.36,297.23,020925,,,A*4B
$GPGGA,134757.750,4308.3354,N,07726.3411,W,1,03,5.51,184.5,M,-34.4,M,,*56
$GPRMC,134758.000,A,4308.3363,N,07726.3431,W,22.57,297.99,020925,,,A*49
$GPGGA,134758.250,4308.3371,N,07726.3451,W,1,03,5.51,184.5,M,-34.4,M,,*5F
$GPRMC,134758.500,A,4308.3379,N,07726.3472,W,23.29,297.03,020925,,,A*4B
$GPGGA,134758.750,4308.3386,N,07726.3491,W,1,03,5.51,184.5,M,-34.4,M,,*5E
$GPRMC,134759.000,A,4308.3397,N,07726.3510,W,22.65,299.20,020925,,,A*4C
$GPGGA,134759.250,4308.3412,N,07726.3530,W,1,03,5.51,184.5,M,-34.4,M,,*5A
$GPRMC,134759.500,A,4308.3425,N,07726.3549,W,23.15,303.72,020925,,,A*48
$GPGGA,134759.750,4308.3440,N,07726.3568,W,1,03,5.51,184.5,M,-34.4,M,,*55
$GPRMC,134800.000,A,4308.3455,N,07726.3586,W,23.46,306.80,020925,,,A*44
$GPGGA,134800.096,4308.3462,N,07726.3593,W,1,03,5.51,184.4,M,-34.4,M,,*5E
$GPRMC,134800.500,A,4308.3482,N,07726.3622,W,23.49,309.16,020925,,,A*49
$GPGGA,134800.750,4308.3499,N,07726.3641,W,1,03,5.52,184.4,M,-34.4,M,,*58
$GPRMC,134801.000,A,4308.3515,N,07726.3658,W,24.18,312.75,020925,,,A*43
$GPGGA,134801.250,4308.3528,N,07726.3674,W,1,03,5.52,184.4,M,-34.4,M,,*51
$GPRMC,134801.500,A,4308.3542,N,07726.3690,W,24.11,315.82,020925,,,A*46
$GPGGA,134801.750,4308.3561,N,07726.3703,W,1,03,5.52,184.4,M,-34.4,M,,*58
$GPRMC,134802.000,A,4308.3584,N,07726.3711,W,23.41,322.54,020925,,,A*4F
$GPGGA,134802.250,4308.3600,N,07726.3722,W,1,03,5.52,184.4,M,-34.4,M,,*59
$GPRMC,134802.500,A,4308.3617,N,07726.3732,W,22.90,326.47,020925,,,A*49
$GPGGA,134802.750,4308.3640,N,07726.3743,W,1,03,5.52,184.4,M,-34.4,M,,*5F
$GPRMC,134803.000,A,4308.3658,N,07726.3752,W,23.49,331.66,020925,,,A*40
$GPGGA,134803.250,4308.3677,N,07726.3760,W,1,03,5.52,184.4,M,-34.4,M,,*5E
$GPRMC,134803.500,A,4308.3700,N,07726.3762,W,23.48,340.60,020925,,,A*4B
$GPGGA,134803.750,4308.3715,N,07726.3768,W,1,03,5.53,184.4,M,-34.4,M,,*57
$GPRMC,134804.000,A,4308.3731,N,07726.3773,W,23.23,343.77,020925,,,A*43
$GPGGA,134804.250,4308.3745,N,07726.3778,W,1,03,5.53,184.4,M,-34.4,M,,*51
$GPRMC,134804.500,A,4308.3761,N,07726.3783,W,22.93,346.02,020925,,,A*41
$GPGGA,134804.750,4308.3776,N,07726.3787,W,1,03,9.89,184.4,M,-34.4,M,,*5F
$GPRMC,134805.000,A,4308.3792,N,07726.3791,W,22.59,348.34,020925,,,A*47
$GPGGA,134805.250,4308.3810,N,07726.3795,W,1,03,9.90,184.4,M,-34.4,M,,*5F
$GPRMC,134805.500,A,4308.3831,N,07726.3795,W,23.21,352.96,020925,,,A*4D
$GPGGA,134805.750,4308.3853,N,07726.3793,W,1,03,9.90,184.4,M,-34.4,M,,*5B
$GPRMC,134806.000,A,4308.3876,N,07726.3792,W,24.71,359.68,020925,,,A*47
$GPGGA,134806.078,4308.3880,N,07726.3791,W,1,03,9.91,184.4,M,-34.4,M,,*58
$GPRMC,134806.500,A,4308.3918,N,07726.3789,W,25.63,2.80,020925,,,A*48
$GPGGA,134806.750,4308.3936,N,07726.3788,W,1,03,9.92,184.4,M,-34.4,M,,*52
$GPRMC,134807.000,A,4308.3951,N,07726.3786,W,25.20,3.43,020925,,,A*47
$GPGGA,134807.250,4308.3968,N,07726.3784,W,1,03,9.92,184.4,M,-34.4,M,,*51
$GPRMC,134807.500,A,4308.3983,N,07726.3782,W,24.46,3.66,020925,,,A*4F
$GPGGA,134807.750,4308.3999,N,07726.3780,W,1,03,9.93,184.4,M,-34.4,M,,*5F
$GPRMC,134808.000,A,4308.4013,N,07726.3777,W,23.80,4.83,020925,,,A*49
$GPGGA,134808.250,4308.4028,N,07726.3773,W,1,03,9.94,184.4,M,-34.4,M,,*5A
$GPRMC,134808.500,A,4308.4044,N,07726.3770,W,23.61,5.89,020925,,,A*4D
$GPGGA,134808.750,4308.4060,N,07726.3765,W,1,03,9.95,184.4,M,-34.4,M,,*55
$GPRMC,134809.000,A,4308.4075,N,07726.3762,W,23.56,6.74,020925,,,A*4D
$GPGGA,134809.250,4308.4092,N,07726.3759,W,1,03,9.95,184.5,M,-34.4,M,,*52
$GPRMC,134809.500,A,4308.4107,N,07726.3754,W,23.48,7.99,020925,,,A*44
$GPGGA,134809.750,4308.4121,N,07726.3750,W,1,03,9.96,184.5,M,-34.4,M,,*54
$GPRMC,134810.000,A,4308.4134,N,07726.3747,W,22.79,6.84,020925,,,A*45
$GPGGA,134810.250,4308.4149,N,07726.3744,W,1,03,9.97,184.5,M,-34.4,M,,*53
$GPRMC,134810.500,A,4308.4160,N,07726.3740,W,21.70,6.84,020925,,,A*4C
$GPGGA,134810.750,4308.4173,N,07726.3736,W,1,03,9.97,184.5,M,-34.4,M,,*5A
$GPRMC,134811.000,A,4308.4188,N,07726.3732,W,21.33,7.80,020925,,,A*49
$GPGGA,134811.250,4308.4203,N,07726.3728,W,1,03,9.98,184.5,M,-34.4,M,,*5A
$GPRMC,134811.500,A,4308.4217,N,07726.3724,W,21.30,9.31,020925,,,A*49
$GPGGA,134811.750,4308.4231,N,07726.3720,W,1,03,9.99,184.5,M,-34.4,M,,*57
$GPRMC,134812.000,A,4308.4244,N,07726.3716,W,20.88,9.65,020925,,,A*4B
$GPGGA,134812.084,4308.4249,N,07726.3714,W,1,03,10.00,184.5,M,
$GPRMC,134812.500,A,4308.4270,N,07726.3708,W,19.87,9.50,020925,,,A*45
$GPGGA,134812.750,4308.4280,N,07726.3706,W,1,03,10.01,184.6,M,-34.4,M,,*60
$GPRMC,134813.000,A,4308.4293,N,07726.3703,W,18.98,8.38,020925,,,A*47
$GPGGA,134813.250,4308.4304,N,07726.3699,W,1,03,10.01,184.6,M,-34.4,M,,*6E
$GPRMC,134813.500,A,4308.4315,N,07726.3696,W,18.22,8.26,020925,,,A*4E
$GPGGA,134813.750,4308.4326,N,07726.3694,W,1,03,10.02,184.6,M,-34.4,M,,*65
$GPRMC,134814.000,A,4308.4337,N,07726.3691,W,17.59,7.91,020925,,,A*4B
$GPGGA,134814.250,4308.4349,N,07726.3690,W,1,03,10.03,184.7,M,-34.4,M,,*6A
$GPRMC,134814.500,A,4308.4359,N,07726.3689,W,16.93,5.91,020925,,,A*4A
$GPGGA,134814.750,4308.4370,N,07726.3687,W,1,03,10.04,184.7,M,-34.4,M,,*64
$GPRMC,134815.000,A,4308.4381,N,07726.3686,W,16.38,4.70,020925,,,A*4B
$GPGGA,134815.250,4308.4393,N,07726.3685,W,1,03,10.05,184.7,M,-34.4,M,,*6E
$GPRMC,134815.500,A,4308.4403,N,07726.3685,W,16.01,3.30,020925,,,A*49
$GPGGA,134815.750,4308.4414,N,07726.3685,W,1,03,10.05,184.7,M,-34.4,M,,*63
$GPRMC,134816.000,A,4308.4423,N,07726.3684,W,15.40,2.53,020925,,,A*4E
$GPGGA,134816.250,4308.4434,N,07726.3682,W,1,03,10.06,184.8,M,-34.4,M,,*6C
$GPRMC,134816.500,A,4308.4444,N,07726.3681,W,15.25,4.00,020925,,,A*4C
$GPGGA,134816.750,4308.4453,N,07726.3678,W,1,03,10.07,184.8,M,-34.4,M,,*6C
$GPRMC,134817.000,A,4308.4462,N,07726.3675,W,14.90,6.67,020925,,,A*4B
$GPGGA,134817.250,4308.4469,N,07726.3670,W,1,03,10.08,184.8,M,-34.4,M,,*66
$GPRMC,134817.500,A,4308.4475,N,07726.3664,W,14.34,9.47,020925,,,A*4B
$GPGGA,134817.750,4308.4481,N,07726.3659,W,1,03,10.09,184.8,M,-34.4,M,,*6F
$GPRMC,134818.000,A,4308.4483,N,07726.3652,W,13.22,10.86,020925,,,A*78
$GPGGA,134818.093,4308.4486,N,07726.3649,W,1,03,10.09,184.8,M,-34.4,M,,*6E
$GPRMC,134818.500,A,4308.4500,N,07726.3644,W,12.98,11.94,020925,,,A*72
$GPGGA,134818.750,4308.4507,N,07726.3640,W,1,03,10.10,184.8,M,-34.4,M,,*6F
$GPRMC,134819.000,A,4308.4514,N,07726.3636,W,12.12,12.69,020925,,,A*75
$GPGGA,134819.250,4308.4521,N,07726.3632,W,1,03,10.11,184.9,M,-34.4,M,,*6A
$GPRMC,134819.500,A,4308.4525,N,07726.3628,W,11.26,13.06,020925,,,A*71
$GPGGA,134819.750,4308.4528,N,07726.3623,W,1,03,10.12,184.9,M,-34.4,M,,*65
$GPRMC,134820.000,A,4308.4531,N,07726.3618,W,10.48,9.53,020925,,,A*4A
$GPGGA,134820.250,4308.4538,N,07726.3618,W,1,03,10.13,184.9,M,-34.4,M,,*62
$GPRMC,134820.500,A,4308.4546,N,07726.3618,W,10.05,6.55,020925,,,A*4F
$GPGGA,134820.750,4308.4557,N,07726.3622,W,1,03,10.14,185.0,M,-34.4,M,,*68
$GPRMC,134821.000,A,4308.4561,N,07726.3621,W,9.31,359.90,020925,,,A*7B
$GPGGA,134821.250,4308.4562,N,07726.3618,W,1,03,10.15,185.0,M,-34.4,M,,*62
$GPRMC,134821.500,A,4308.4560,N,07726.3614,W,8.12,355.74,020925,,,A*7F
$GPGGA,134821.750,4308.4563,N,07726.3614,W,1,03,10.16,185.0,M,-34.4,M,,*69
$GPRMC,134822.000,A,4308.4564,N,07726.3613,W,7.63,348.66,020925,,,A*7C
$GPGGA,134822.250,4308.4568,N,07726.3614,W,1,03,10.17,185.1,M,-34.4,M,,*64
$GPRMC,134822.500,A,4308.4573,N,07726.3615,W,7.70,347.57,020925,,,A*76
$GPGGA,134822.750,4308.4577,N,07726.3616,W,1,03,10.17,185.1,M,-34.4,M,,*6D
$GPRMC,134823.000,A,4308.4584,N,07726.3621,W,7.75,340.87,020925,,,A*72
$GPGGA,134823.250,4308.4596,N,07726.3628,W,1,03,5.59,185.2,M,-34.4,M,,*56
$GPRMC,134823.500,A,4308.4605,N,07726.3636,W,8.83,330.86,020925,,,A*7B
$GPGGA,134823.750,4308.4614,N,07726.3645,W,1,03,5.60,185.3,M,-34.4,M,,*5A
$GPRMC,134824.000,A,4308.4617,N,07726.3652,W,10.15,320.05,020925,,,A*44
$GPGGA,134824.084,4308.4611,N,07726.3651,W,1,04,2.77,185.3,M,-34.4,M,,*55
$GPRMC,134824.500,A,4308.4609,N,07726.3661,W,9.29,304.30,020925,,,A*79
$GPGGA,134824.750,4308.4608,N,07726.3669,W,1,04,8.55,185.4,M,-34.4,M,,*55
$GPRMC,134825.000,A,4308.4613,N,07726.3681,W,10.32,291.11,020925,,,A*44
$GPGGA,134825.250,4308.4618,N,07726.3692,W,1,04,2.77,185.5,M,-34.4,M,,*5F
$GPRMC,134825.500,A,4308.4623,N,07726.3705,W,11.54,285.81,020925,,,A*42
$GPGGA,134825.750,4308.4628,N,07726.3719,W,1,04,2.77,185.5,M,-34.4,M,,*5B
$GPRMC,134826.000,A,4308.4631,N,07726.3732,W,12.91,283.48,020925,,,A*4A
$GPGGA,134826.250,4308.4635,N,07726.3747,W,1,04,2.77,185.6,M,-34.4,M,,*59
$GPRMC,134826.500,A,4308.4640,N,07726.3763,W,14.35,283.77,020925,,,A*49
$GPGGA,134826.750,4308.4643,N,07726.3779,W,1,04,2.77,185.6,M,-34.4,M,,*50
$GPRMC,134827.000,A,4308.4646,N,07726.3796,W,15.68,282.05,020925,,,A*4C
$GPGGA,134827.250,4308.4649,N,07726.3813,W,1,04,2.77,185.7,M,-34.4,M,,*5C
$GPRMC,134827.500,A,4308.4651,N,07726.3831,W,16.91,279.90,020925,,,A*40
$GPGGA,134827.750,4308.4653,N,07726.3852,W,1,04,2.77,185.7,M,-34.4,M,,*57
$GPRMC,134828.000,A,4308.4655,N,07726.3874,W,19.02,277.81,020925,,,A*44
$GPGGA,134828.250,,,,,0,04,,,M,,M,,*7F
$GPRMC,134828.250,V,,,,,20.09,277.55,020925,,,N*7B
$GPGGA,134828.500,,,,,0,04,,,M,,M,,*7D
$GPGGA,134847.750,4308.4818,N,07726.6514,W,1,03,4.08,188.8,M,-34.4,M,,*51
$GPRMC,134847.750,A,4308.4818,N,07726.6514,W,36.34,269.28,020925,,,A*42
$GPGGA,134848.000,4308.4818,N,07726.6549,W,1,03,4.08,188.8,M,-34.4,M,,*54
$GPRMC,134848.000,A,4308.4818,N,07726.6549,W,36.65,269.04,020925,,,A*4D
$GPGGA,134848.250,4308.4818,N,07726.6585,W,1,04,2.17,188.6,M,-34.4,M,,*52
$GPRMC,134848.250,A,4308.4818,N,07726.6585,W,36.65,268.91,020925,,,A*47
$GPGGA,134848.500,4308.4818,N,07726.6621,W,1,04,2.17,188.2,M,-34.4,M,,*59
$GPRMC,134848.500,A,4308.4818,N,07726.6621,W,36.49,268.52,020925,,,A*49
$GPGGA,134848.750,4308.4819,N,07726.6657,W,1,04,2.17,187.8,M,-34.4,M,,*5B
$GPRMC,134848.750,A,4308.4819,N,07726.6657,W,36.47,268.22,020925,,,A*47
$GPGGA,134849.000,4308.4820,N,07726.6693,W,1,04,2.17,187.3,M,-34.4,M,,*51
$GPRMC,134849.000,A,4308.4820,N,07726.6693,W,36.53,268.00,020925,,,A*43
$GPGGA,134849.250,4308.4821,N,07726.6731,W,1,05,1.96,187.0,M,-34.4,M,,*56
$GPRMC,134849.250,A,4308.4821,N,07726.6731,W,36.74,267.77,020925,,,A*46
$GPGGA,134849.500,4308.4821,N,07726.6768,W,1,05,1.96,186.6,M,-34.4,M,,*5F
$GPRMC,134849.500,A,4308.4821,N,07726.6768,W,36.98,267.42,020925,,,A*4C
$GPGGA,134849.750,4308.4821,N,07726.6805,W,1,05,1.96,186.3,M,-34.4,M,,*59
$GPRMC,134849.750,A,4308.4821,N,07726.6805,W,37.03,267.24,020925,,,A*4C
$GPGGA,134850.000,4308.4822,N,07726.6841,W,1,05,1.96,185.9,M,-34.4,M,,*59
$GPRMC,134850.000,A,4308.4822,N,07726.6841,W,37.19,267.14,020925,,,A*4D
$GPGGA,134850.250,4308.4823,N,07726.6879,W,1,05,1.96,185.6,M,-34.4,M,,*5B
$GPRMC,134850.250,A,4308.4823,N,07726.6879,W,37.24,267.12,020925,,,A*48
$GPGGA,134850.500,4308.4822,N,07726.6916,W,1,05,1.96,185.3,M,-34.4,M,,*55
$GPRMC,134850.500,A,4308.4822,N,07726.6916,W,37.28,266.69,020925,,,A*42
$GPGGA,134850.750,4308.4821,N,07726.6954,W,1,05,1.96,184.5,M,-34.4,M,,*50
$GPRMC,134850.750,A,4308.4821,N,07726.6954,W,37.32,265.45,020925,,,A*46
$GPGGA,134851.000,4308.4819,N,07726.6990,W,1,05,1.96,184.3,M,-34.4,M,,*56
$GPRMC,134851.000,A,4308.4819,N,07726.6990,W,36.90,264.98,020925,,,A*4E
$GPGGA,134851.250,4308.4817,N,07726.7027,W,1,05,1.96,184.0,M,-34.4,M,,*58
$GPRMC,134851.250,A,4308.4817,N,07726.7027,W,36.92,264.98,020925,,,A*41
$GPGGA,134851.500,4308.4815,N,07726.7063,W,1,05,1.96,183.9,M,-34.4,M,,*56
$GPRMC,134851.500,A,4308.4815,N,07726.7063,W,36.96,264.82,020925,,,A*4E
$GPGGA,134851.750,4308.4814,N,07726.7100,W,1,05,1.96,183.7,M,-34.4,M,,*5A
$GPRMC,134851.750,A,4308.4814,N,07726.7100,W,37.27,265.05,020925,,,A*49
$GPGGA,134852.000,4308.4812,N,07726.7136,W,1,05,1.96,183.4,M,-34.4,M,,*5B
$GPRMC,134852.000,A,4308.4812,N,07726.7136,W,37.29,265.08,020925,,,A*48
$GPGGA,134852.250,4308.4810,N,07726.7172,W,1,05,1.96,183.2,M,-34.4,M,,*58
$GPRMC,134852.250,A,4308.4810,N,07726.7172,W,37.28,265.08,020925,,,A*4C
$GPGGA,134852.500,4308.4809,N,07726.7207,W,1,05,1.96,183.1,M,-34.4,M,,*50
$GPRMC,134852.500,A,4308.4809,N,07726.7207,W,37.35,265.12,020925,,,A*40
$GPGGA,134852.750,4308.4808,N,07726.7243,W,1,05,1.96,182.9,M,-34.4,M,,*5F
$GPRMC,134852.750,A,4308.4808,N,07726.7243,W,37.53,265.37,02092$GPGGA,134853.000,4308.4807,N,07726.7279,W,1,05,1.96,182.8,M,-34.4,M,,*5B
$GPRMC,134853.250,A,4308.4805,N,07726.7314,W,37.50,265.31,020925,,,A*4E
$GPGGA,134853.500,4308.4803,N,07726.7349,W,1,05,1.96,182.4,M,-34.4,M,,*54
$GPRMC,134853.750,A,4308.4801,N,07726.7384,W,37.22,265.03,020925,,,A*42
$GPGGA,134854.000,4308.4798,N,07726.7419,W,1,05,1.96,182.1,M,-34.4,M,,*5C
$GPRMC,134854.250,A,4308.4797,N,07726.7455,W,37.10,264.83,020925,,,A*43
$GPGGA,134854.500,4308.4794,N,07726.7489,W,1,06,1.42,181.9,M,-34.4,M,,*5D
$GPRMC,134854.750,A,4308.4792,N,07726.7524,W,36.81,264.59,020925,,,A*4A
$GPGGA,134855.000,4308.4789,N,07726.7559,W,1,06,2.07,181.6,M,-34.4,M,,*54
$GPRMC,134855.250,A,4308.4786,N,07726.7593,W,36.72,264.62,020925,,,A*43
$GPGGA,134855.500,4308.4784,N,07726.7628,W,1,06,1.42,181.3,M,-34.4,M,,*5E
$GPRMC,134855.750,A,4308.4781,N,07726.7663,W,36.71,264.72,020925,,,A*4F
$GPGGA,134856.000,4308.4778,N,07726.7698,W,1,06,1.42,181.0,M,-34.4,M,,*53
$GPRMC,134856.250,A,4308.4776,N,07726.7732,W,36.69,265.41,020925,,,A*4C
$GPGGA,134856.500,4308.4775,N,07726.7768,W,1,06,1.42,180.5,M,-34.4,M,,*51
$GPRMC,134856.750,A,4308.4774,N,07726.7804,W,36.74,267.31,020925,,,A*48
$GPGGA,134857.000,4308.4773,N,07726.7839,W,1,06,2.07,179.8,M,-34.4,M,,*51
$GPRMC,134857.250,A,4308.4772,N,07726.7874,W,36.93,267.92,020925,,,A*4D
$GPGGA,134857.500,4308.4771,N,07726.7909,W,1,06,1.42,179.4,M,-34.4,M,,*5A
$GPRMC,134857.750,A,4308.4770,N,07726.7944,W,36.86,267.91,020925,,,A*4F
$GPGGA,134858.000,4308.4768,N,07726.7979,W,1,06,2.07,179.2,M,-34.4,M,,*5B
$GPRMC,134858.250,A,4308.4767,N,07726.8014,W,36.95,267.11,020925,,,A*4A
$GPGGA,134858.500,4308.4765,N,07726.8050,W,1,06,1.42,178.9,M,-34.4,M,,*56
$GPRMC,134858.750,A,4308.4763,N,07726.8085,W,37.23,266.63,020925,,,A*4B
$GPGGA,134859.000,4308.4760,N,07726.8120,W,1,06,2.07,178.5,M,-34.4,M,,*5F
$GPRMC,134859.250,A,4308.4758,N,07726.8155,W,36.97,265.87,020925,,,A*4C
$GPGGA,134859.500,4308.4755,N,07726.8190,W,1,06,2.07,178.1,M,-34.4,M,,*53
$GPRMC,134859.750,A,4308.4753,N,07726.8225,W,37.04,265.71,020925,,,A*44
$GPGGA,134900.000,4308.4750,N,07726.8260,W,1,06,2.07,177.7,M,-34.4,M,,*5B
$GPRMC,134900.250,A,4308.4747,N,07726.8295,W,37.27,265.63,020925,,,A*40
$GPGGA,134900.500,4308.4744,N,07726.8329,W,1,06,1.42,177.3,M,-34.4,M,,*51
$GPRMC,134900.750,A,4308.4741,N,07726.8364,W,37.40,265.45,020925,,,A*49
$GPGGA,134901.000,4308.4738,N,07726.8400,W,1,06,2.07,176.9,M,-34.4,M,,*5B
$GPRMC,134901.250,A,4308.4734,N,07726.8435,W,37.72,265.29,020925,,,A*47
$GPGGA,134901.500,4308.4731,N,07726.8471,W,1,06,1.42,176.4,M,-34.4,M,,*5E
$GPRMC,134901.750,A,4308.4728,N,07726.8506,W,37.64,265.56,020925,,,A*41
$GPGGA,134902.000,4308.4726,N,07726.8541,W,1,06,2.08,175.9,M,-34.4,M,,*5F
$GPRMC,134902.250,A,4308.4723,N,07726.8576,W,37.44,265.66,020925,,,A*4A
$GPGGA,134902.500,4308.4721,N,07726.8611,W,1,06,1.42,175.6,M,-34.4,M,,*59
$GPRMC,134902.750,A,4308.4718,N,07726.8647,W,37.75,265.98,020925,,,A*45
$GPGGA,134903.000,4308.4716,N,07726.8682,W,1,06,2.08,175.2,M,-34.4,M,,*5A
$GPRMC,134903.250,A,4308.4714,N,07726.8718,W,38.11,265.94,020925,,,A*47
$GPGGA,134903.500,4308.4712,N,07726.8754,W,1,06,1.42,174.9,M,-34.4,M,,*56
$GPRMC,134903.750,A,4308.4709,N,07726.8790,W,38.22,265.56,020925,,,A*40
$GPGGA,134904.000,4308.4707,N,07726.8826,W,1,06,1.42,174.6,M,-34.4,M,,*55
$GPRMC,134904.250,A,4308.4704,N,07726.8862,W,38.38,265.71,020925,,,A*43
$GPGGA,134904.500,4308.4701,N,07726.8899,W,1,06,1.42,174.3,M,-34.4,M,,*57
$GPRMC,134904.750,A,4308.4698,N,07726.8935,W,38.48,265.37,020925,,,A*44
$GPGGA,134905.000,4308.4696,N,07726.8971,W,1,06,2.08,174.0,M,-34.4,M,,*55
$GPRMC,134905.250,A,4308.4693,N,07726.9008,W,38.61,265.23,020925,,,A*43
$GPGGA,134905.500,4308.4690,N,07726.9044,W,1,06,2.08,173.7,M,-34.4,M,,*58
$GPRMC,134905.750,A,4308.4688,N,07726.9081,W,38.70,265.45,020925,,,A*4D
$GPGGA,134906.000,4308.4685,N,07726.9118,W,1,06,2.08,173.5,M,-34.4,M,,*50
$GPRMC,134906.250,A,4308.4683,N,07726.9154,W,38.78,265.62,020925,,,A*44
$GPGGA,134906.500,4308.4680,N,07726.9190,W,1,06,1.43,173.3,M,-34.4,M,,*5A
$GPRMC,134906.750,A,4308.4678,N,07726.9227,W,38.71,265.51,020925,,,A*4B
$GPGGA,134907.000,4308.4675,N,07726.9263,W,1,06,2.08,172.9,M,-34.4,M,,*5C
$GPRMC,134907.250,A,4308.4672,N,07726.9300,W,38.80,265.46,020925,,,A*49
$GPGGA,134907.500,4308.4670,N,07726.9337,W,1,06,2.08,172.4,M,-34.4,M,,*51
$GPRMC,134907.750,A,4308.4667,N,07726.9373,W,39.10,265.13,020925,,,A*44
$GPGGA,134908.000,4308.4664,N,07726.9410,W,1,06,2.08,171.9,M,-34.4,M,,*52
$GPRMC,134908.250,A,4308.4661,N,07726.9447,W,39.21,265.34,020925,,,A*4F
$GPGGA,134908.500,4308.4659,N,07726.9484,W,1,06,2.08,171.5,M,-34.4,M,,*58
$GPRMC,134908.750,A,4308.4656,N,07726.9522,W,39.44,265.12,020925,,,A*4B
$GPGGA,134909.000,4308.4653,N,07726.9559,W,1,06,2.08,171.1,M,-34.4,M,,*53
$GPRMC,134909.250,A,4308.4650,N,07726.9596,W,39.36,265.18,020925,,,A*49
$GPGGA,134909.500,4308.4647,N,07726.9633,W,1,06,2.08,170.7,M,-34.4,M,,*5B
$GPRMC,134909.750,A,4308.4645,N,07726.9670,W,39.02,265.32,020925,,,A*4C
$GPGGA,134910.000,4308.4642,N,07726.9706,W,1,06,2.08,170.3,M,-34.4,M,,*50
$GPRMC,134910.250,A,4308.4639,N,07726.9743,W,38.99,265.22,020925,,,A*49
$GPGGA,134910.500,4308.4637,N,07726.9780,W,1,06,1.42,169.9,M,-34.4,M,,*56
$GPRMC,134910.750,A,4308.4635,N,07726.9816,W,39.00,265.39,020925,,,A*44
$GPGGA,134911.000,4308.4632,N,07726.9853,W,1,06,2.08,169.7,M,-34.4,M,,*55
$GPRMC,134911.250,A,4308.4630,N,07726.9890,W,39.01,265.41,020925,,,A*45
$GPGGA,134911.500,4308.4627,N,07726.9926,W,1,06,1.42,169.4,M,-34.4,M,,*59
$GPRMC,134911.750,A,4308.4625,N,07726.9964,W,39.38,265.56,020925,,,A*42
$GPGGA,134912.000,4308.4622,N,07727.0001,W,1,06,2.08,169.1,M,-34.4,M,,*56
$GPRMC,134912.250,A,4308.4620,N,07727.0039,W,39.61,265.46,020925,,,A*45
$GPGGA,134912.500,4308.4617,N,07727.0076,W,1,06,2.08,168.8,M,-34.4,M,,*5D
$GPRMC,134912.750,A,4308.4614,N,07727.0114,W,39.86,265.09,020925,,,A*4B
$GPGGA,134913.000,4308.4612,N,07727.0151,W,1,06,2.08,168.6,M,-34.4,M,,*56
$GPRMC,134913.250,A,4308.4610,N,07727.0189,W,39.99,265.69,020925,,,A*47
$GPGGA,134913.500,4308.4608,N,07727.0227,W,1,06,2.08,168.5,M,-34.4,M,,*59
$GPRMC,134913.750,A,4308.4606,N,07727.0265,W,40.25,266.16,020925,,,A*46
$GPGGA,134914.000,4308.4604,N,07727.0303,W,1,06,2.08,168.5,M,-34.4,M,,*50
$GPRMC,134914.250,A,4308.4602,N,07727.0341,W,40.70,266.67,020925,,,A*41
$GPGGA,134914.500,4308.4600,N,07727.0380,W,1,06,2.08,168.5,M,-34.4,M,,*5A
$GPRMC,134914.750,A,4308.4599,N,07727.0419,W,41.03,267.09,020925,,,A*43
$GPGGA,134915.000,4308.4597,N,07727.0457,W,1,05,2.46,168.4,M,-34.4,M,,*56
$GPRMC,134915.250,A,4308.4596,N,07727.0495,W,40.60,267.32,020925,,,A*40
$GPGGA,134915.500,4308.4595,N,07727.0533,W,1,05,1.56,168.4,M,-34.4,M,,*50
$GPRMC,134915.750,A,4308.4594,N,07727.0571,W,40.70,268.19,020925,,,A*4B
$GPGGA,134916.000,4308.4593,N,07727.0608,W,1,06,1.42,168.4,M,-34.4,M,,*5D
$GPRMC,134916.250,A,4308.4593,N,07727.0646,W,39.63,269.38,020925,,,A*43
$GPGGA,134916.500,4308.4593,N,07727.0683,W,1,06,2.08,168.2,M,-34.4,M,,*50
$GPRMC,134916.750,A,4308.4594,N,07727.0719,W,39.48,270.35,020925,,,A*46
$GPGGA,134917.000,4308.4595,N,07727.0754,W,1,06,1.42,168.1,M,-34.4,M,,*57
$GPRMC,134917.250,A,4308.4596,N,07727.0788,W,37.04,271.64,020925,,,A*4B
$GPGGA,134917.500,4308.4598,N,07727.0822,W,1,06,1.42,168.0,M,-34.4,M,,*50
$GPRMC,134917.750,A,4308.4599,N,07727.0855,W,35.88,272.87,020925,,,A*46
$GPGGA,134918.000,4308.4601,N,07727.0887,W,1,06,1.42,167.9,M,-34.4,M,,*50
$GPRMC,134918.250,A,4308.4603,N,07727.0920,W,35.72,274.13,020925,,,A*41
$GPGGA,134918.500,4308.4605,N,07727.0952,W,1,06,1.42,167.7,M,-34.4,M,,*56
$GPRMC,134918.750,A,4308.4608,N,07727.0984,W,36.04,275.14,020925,,,A*45
$GPGGA,134919.000,4308.4610,N,07727.1017,W,1,06,2.08,167.7,M,-34.4,M,,*52
$GPRMC,134919.250,A,4308.4613,N,07727.1049,W,36.04,276.02,020925,,,A*46
$GPGGA,134919.500,4308.4616,N,07727.1081,W,1,06,1.42,167.6,M,-34.4,M,,*52
$GPRMC,134919.750,A,4308.4620,N,07727.1113,W,36.47,277.13,020925,,,A*4B
$GPGGA,134920.000,4308.4623,N,07727.1145,W,1,06,2.08,167.6,M,-34.4,M,,*5F
$GPRMC,134920.250,A,4308.4626,N,07727.1178,W,36.61,277.36,020925,,,A*4C
$GPGGA,134920.500,4308.4629,N,07727.1211,W,1,06,1.42,167.6,M,-34.4,M,,*5F
$GPRMC,134920.750,A,4308.4633,N,07727.1244,W,37.36,277.99,020925,,,A*47
$GPGGA,134921.000,4308.4636,N,07727.1279,W,1,06,1.42,167.8,M,-34.4,M,,*55
$GPRMC,134921.250,A,4308.4640,N,07727.1312,W,35.99,279.22,020925,,,A*4C
$GPGGA,134921.500,4308.4644,N,07727.1346,W,1,06,1.42,167.8,M,-34.4,M,,*58
$GPRMC,134921.750,A,4308.4648,N,07727.1380,W,36.64,280.26,020925,,,A*49
$GPGGA,134922.000,4308.4653,N,07727.1414,W,1,06,2.08,167.9,M,-34.4,M,,*54
$GPRMC,134922.250,A,4308.4657,N,07727.1449,W,37.33,280.45,020925,,,A*45
$GPGGA,134922.500,4308.4661,N,07727.1484,W,1,06,1.43,167.9,M,-34.4,M,,*55
$GPRMC,134922.750,A,4308.4666,N,07727.1519,W,37.56,280.12,020925,,,A*47
$GPGGA,134923.000,4308.4670,N,07727.1554,W,1,06,1.42,168.0,M,-34.4,M,,*5A
$GPRMC,134923.250,A,4308.4675,N,07727.1590,W,37.83,279.81,020925,,,A*44
$GPGGA,134923.500,4308.4679,N,07727.1625,W,1,06,1.43,168.1,M,-34.4,M,,*53
$GPRMC,134923.750,A,4308.4684,N,07727.1661,W,38.22,279.53,020925,,,A*49
$GPGGA,134924.000,4308.4688,N,07727.1696,W,1,06,1.43,168.1,M,-34.4,M,,*57
$GPRMC,134924.250,A,4308.4693,N,07727.1731,W,37.50,279.96,020925,,,A*4A
$GPGGA,134924.500,4308.4698,N,07727.1765,W,1,06,1.42,168.1,M,-34.4,M,,*5F
$GPRMC,134924.750,A,4308.4702,N,07727.1799,W,36.61,280.12,020925,,,A*4D
$GPGGA,134925.000,4308.4706,N,07727.1834,W,1,06,2.08,168.1,M,-34.4,M,,*5B
$GPRMC,134925.250,A,4308.4711,N,07727.1868,W,36.48,280.05,020925,,,A*47
$GPGGA,134925.500,4308.4715,N,07727.1903,W,1,06,1.42,168.1,M,-34.4,M,,*54
$GPRMC,134925.750,A,4308.4720,N,07727.1938,W,36.42,280.39,020925,,,A*41
$GPGGA,134926.000,4308.4724,N,07727.1972,W,1,06,2.08,168.1,M,-34.4,M,,*5B
$GPRMC,134926.250,A,4308.4729,N,07727.2006,W,36.37,280.56,020925,,,A*42
$GPGGA,134926.500,4308.4733,N,07727.2041,W,1,06,1.43,168.1,M,-34.4,M,,*5E
$GPRMC,134926.750,A,4308.4738,N,07727.2075,W,36.66,280.63,020925,,,A*41
$GPGGA,134927.000,4308.4743,N,07727.2109,W,1,06,2.08,168.1,M,-34.4,M,,*5C
$GPRMC,134927.250,A,4308.4747,N,07727.2143,W,36.80,280.90,020925,,,A*4D
$GPGGA,134927.500,4308.4752,N,07727.2177,W,1,06,1.43,168.1,M,-34.4,M,,*5C
$GPRMC,134927.750,A,4308.4757,N,07727.2211,W,37.05,281.00,020925,,,A*49
$GPGGA,134928.000,4308.4761,N,07727.2246,W,1,06,2.08,168.0,M,-34.4,M,,*5A
$GPRMC,134928.250,A,4308.4766,N,07727.2280,W,37.11,280.81,020925,,,A*44
$GPGGA,134928.500,4308.4770,N,07727.2315,W,1,06,1.43,168.0,M,-34.4,M,,*54
$GPRMC,134928.750,A,4308.4775,N,07727.2349,W,37.63,280.52,020925,,,A*4C
$GPGGA,134929.000,4308.4779,N,07727.2385,W,1,06,2.08,167.9,M,-34.4,M,,*5A
$GPRMC,134929.250,A,4308.4784,N,07727.2420,W,37.66,280.01,020925,,,A*4D
$GPGGA,134929.500,4308.4788,N,07727.2455,W,1,06,1.43,167.9,M,-34.4,M,,*57
$GPRMC,134929.750,A,4308.4792,N,07727.2491,W,38.17,279.74,020925,,,A*48
$GPGGA,134930.000,4308.4796,N,07727.2527,W,1,06,2.08,167.8,M,-34.4,M,,*5C
$GPRMC,134930.250,A,4308.4800,N,07727.2562,W,38.13,279.69,020925,,,A*44
$GPGGA,134930.500,4308.4805,N,07727.2598,W,1,06,2.08,167.7,M,-34.4,M,,*57
$GPRMC,134930.750,A,4308.4809,N,07727.2633,W,38.19,279.67,020925,,,A*4B
$GPGGA,134931.000,4308.4813,N,07727.2667,W,1,06,2.08,167.7,M,-34.4,M,,*57
$GPRMC,134931.250,A,4308.4817,N,07727.2703,W,38.11,279.49,020925,,,A*46
$GPGGA,134931.500,4308.4821,N,07727.2737,W,1,06,1.43,167.7,M,-34.4,M,,*5B
$GPRMC,134931.750,A,4308.4826,N,07727.2772,W,38.08,279.09,020925,,,A*4B
$GPGGA,134932.000,4308.4829,N,07727.2806,W,1,06,1.43,167.7,M,-34.4,M,,*58
$GPRMC,134932.250,A,4308.4833,N,07727.2841,W,37.35,278.55,020925,,,A*4F
$GPGGA,134932.500,4308.4837,N,07727.2875,W,1,06,1.42,167.7,M,-34.4,M,,*57
$GPRMC,134932.750,A,4308.4841,N,07727.2910,W,37.32,278.36,020925,,,A*48
$GPGGA,134933.000,4308.4845,N,07727.2944,W,1,06,2.09,167.6,M,-34.4,M,,*58
$GPRMC,134933.250,A,4308.4848,N,07727.2979,W,37.25,278.26,020925,,,A*4D
$GPGGA,134933.500,4308.4852,N,07727.3013,W,1,06,1.43,167.6,M,-34.4,M,,*5C
$GPRMC,134933.750,A,4308.4856,N,07727.3048,W,37.15,277.98,020925,,,A*44
$GPGGA,134934.000,4308.4860,N,07727.3082,W,1,06,2.09,167.6,M,-34.4,M,,*5A
$GPRMC,134934.250,A,4308.4863,N,07727.3116,W,36.91,278.31,020925,,,A*4B
$GPGGA,134934.500,4308.4867,N,07727.3150,W,1,06,2.08,167.5,M,-34.4,M,,*54
$GPRMC,134934.750,A,4308.4872,N,07727.3185,W,37.28,278.83,020925,,,A*4E
$GPGGA,134935.000,4308.4876,N,07727.3219,W,1,06,2.09,167.5,M,-34.4,M,,*5F
$GPRMC,134935.250,A,4308.4881,N,07727.3253,W,37.26,279.32,020925,,,A*4B
$GPGGA,134935.500,4308.4885,N,07727.3288,W,1,06,2.09,167.5,M,-34.4,M,,*5E
$GPRMC,134935.750,A,4308.4889,N,07727.3322,W,37.00,279.42,020925,,,A*42
$GPGGA,134936.000,4308.4894,N,07727.3356,W,1,06,2.09,167.5,M,-34.4,M,,*5A
$GPRMC,134936.250,A,4308.4898,N,07727.3390,W,36.83,279.55,020925,,,A*41
$GPGGA,134936.500,4308.4902,N,07727.3425,W,1,06,2.09,167.5,M,-34.4,M,,*52
$GPRMC,134936.750,A,4308.4907,N,07727.3459,W,36.90,279.91,020925,,,A*4B
$GPGGA,134937.000,4308.4912,N,07727.3495,W,1,06,2.09,167.5,M,-34.4,M,,*5C
$GPRMC,134937.250,A,4308.4916,N,07727.3530,W,37.03,279.70,020925,,,A*45
$GPGGA,134937.500,4308.4920,N,07727.3565,W,1,06,2.09,167.5,M,-34.4,M,,*56
$GPRMC,134937.750,A,4308.4924,N,07727.3601,W,37.16,279.52,020925,,,A*44
$GPGGA,134938.000,4308.4929,N,07727.3637,W,1,06,2.09,167.5,M,-34.4,M,,*51
$GPRMC,134938.250,A,4308.4933,N,07727.3673,W,38.17,279.31,020925,,,A*46
$GPGGA,134938.500,4308.4937,N,07727.3710,W,1,06,2.09,167.5,M,-34.4,M,,*5F
$GPRMC,134938.750,A,4308.4940,N,07727.3747,W,38.27,278.64,020925,,,A*43
$GPGGA,134939.000,4308.4944,N,07727.3784,W,1,06,2.09,167.5,M,-34.4,M,,*52
$GPRMC,134939.250,A,4308.4947,N,07727.3820,W,38.24,278.21,020925,,,A*4C
$GPGGA,134939.500,4308.4951,N,07727.3855,W,1,06,1.43,167.5,M,-34.4,M,,*5D
$GPRMC,134939.750,A,4308.4954,N,07727.3891,W,38.15,277.71,020925,,,A*49
$GPGGA,134940.000,4308.4958,N,07727.3927,W,1,06,2.09,167.5,M,-34.4,M,,*56
$GPRMC,134940.250,A,4308.4961,N,07727.3962,W,38.12,277.81,020925,,,A*41
$GPGGA,134940.500,4308.4965,N,07727.3997,W,1,06,2.09,167.6,M,-34.4,M,,*55
$GPRMC,134940.750,A,4308.4969,N,07727.4032,W,38.14,278.41,020925,,,A*42
$GPGGA,134941.000,4308.4973,N,07727.4067,W,1,06,2.09,167.7,M,-34.4,M,,*56
$GPRMC,134941.250,A,4308.4977,N,07727.4102,W,37.74,278.68,020925,,,A*49
$GPGGA,134941.500,4308.4981,N,07727.4137,W,1,06,2.09,167.8,M,-34.4,M,,*55
$GPRMC,134941.750,A,4308.4985,N,07727.4171,W,37.43,279.07,020925,,,A*49
$GPGGA,134942.000,4308.4990,N,07727.4205,W,1,06,2.09,168.0,M,-34.4,M,,*56
$GPRMC,134942.250,A,4308.4994,N,07727.4239,W,37.35,279.20,020925,,,A*44
$GPGGA,134942.500,4308.4998,N,07727.4274,W,1,06,1.43,168.3,M,-34.4,M,,*53
$GPRMC,134942.750,A,4308.5003,N,07727.4308,W,36.17,280.23,020925,,,A*40
$GPGGA,134943.000,4308.5007,N,07727.4341,W,1,06,1.43,168.3,M,-34.4,M,,*5E
$GPRMC,134943.250,A,4308.5011,N,07727.4375,W,36.24,279.95,020925,,,A*46
$GPGGA,134943.500,4308.5016,N,07727.4409,W,1,06,2.09,168.2,M,-34.4,M,,*5C
$GPRMC,134943.750,A,4308.5020,N,07727.4444,W,36.31,279.62,020925,,,A*48
$GPGGA,134944.000,4308.5024,N,07727.4478,W,1,06,1.42,168.2,M,-34.4,M,,*55
$GPRMC,134944.250,A,4308.5028,N,07727.4512,W,36.41,279.55,020925,,,A*43
$GPGGA,134944.500,4308.5033,N,07727.4546,W,1,06,1.43,168.2,M,-34.4,M,,*5B
$GPRMC,134944.750,A,4308.5037,N,07727.4580,W,36.45,279.92,020925,,,A*4C
$GPGGA,134945.000,4308.5041,N,07727.4614,W,1,06,1.43,168.1,M,-34.4,M,,*5D
$GPRMC,134945.250,A,4308.5046,N,07727.4648,W,36.07,280.16,020925,,,A*45
$GPGGA,134945.500,4308.5050,N,07727.4682,W,1,06,1.43,168.1,M,-34.4,M,,*57
$GPRMC,134945.750,A,4308.5055,N,07727.4717,W,36.14,280.63,020925,,,A*49
$GPGGA,134946.000,4308.5059,N,07727.4751,W,1,06,2.09,168.1,M,-34.4,M,,*5A
$GPRMC,134946.250,A,4308.5063,N,07727.4785,W,36.33,280.57,020925,,,A*43
$GPGGA,134946.500,4308.5068,N,07727.4819,W,1,06,1.43,168.1,M,-34.4,M,,*53
$GPRMC,134946.750,A,4308.5072,N,07727.4853,W,36.38,280.28,020925,,,A*41
$GPGGA,134947.000,4308.5076,N,07727.4888,W,1,06,2.09,168.1,M,-34.4,M,,*5D
$GPRMC,134947.250,A,4308.5080,N,07727.4922,W,36.11,280.31,020925,,,A*4C
$GPGGA,134947.500,4308.5084,N,07727.4956,W,1,06,1.43,168.1,M,-34.4,M,,*5A
$GPRMC,134947.750,A,4308.5088,N,07727.4989,W,36.11,280.20,020925,,,A*40
$GPGGA,134948.000,4308.5093,N,07727.5023,W,1,06,2.09,168.0,M,-34.4,M,,*50
$GPRMC,134948.250,A,4308.5097,N,07727.5057,W,36.07,279.96,020925,,,A*43
$GPGGA,134948.500,4308.5101,N,07727.5091,W,1,06,1.42,168.0,M,-34.4,M,,*5A
$GPRMC,134948.750,A,4308.5105,N,07727.5124,W,35.88,279.68,020925,,,A*4C
$GPGGA,134949.000,4308.5109,N,07727.5158,W,1,06,1.43,168.0,M,-34.4,M,,*53
$GPRMC,134949.250,A,4308.5113,N,07727.5191,W,35.75,279.51,020925,,,A*49
$GPGGA,134949.500,4308.5117,N,07727.5224,W,1,06,1.43,167.9,M,-34.4,M,,*57
$GPRMC,134949.750,A,4308.5121,N,07727.5257,W,35.68,279.64,020925,,,A*4E
$GPGGA,134950.000,4308.5125,N,07727.5290,W,1,06,2.09,167.9,M,-34.4,M,,*59
$GPRMC,134950.250,A,4308.5130,N,07727.5324,W,35.66,280.01,020925,,,A*4D
$GPGGA,134950.500,4308.5134,N,07727.5357,W,1,06,1.43,167.9,M,-34.4,M,,*5B
$GPRMC,134950.750,A,4308.5138,N,07727.5389,W,35.47,279.77,020925,,,A*43
$GPGGA,134951.000,4308.5143,N,07727.5422,W,1,06,1.43,167.8,M,-34.4,M,,*5B
$GPRMC,134951.250,A,4308.5147,N,07727.5455,W,35.77,280.17,020925,,,A*4A
$GPGGA,134951.500,4308.5152,N,07727.5488,W,1,06,1.43,167.8,M,-34.4,M,,*5E
$GPRMC,134951.750,A,4308.5157,N,07727.5520,W,35.57,280.54,020925,,,A*48
$GPGGA,134952.000,4308.5161,N,07727.5553,W,1,06,1.43,167.8,M,-34.4,M,,*5F
$GPRMC,134952.250,A,4308.5165,N,07727.5586,W,35.24,279.77,020925,,,A*40
$GPGGA,134952.500,4308.5169,N,07727.5618,W,1,06,1.43,167.8,M,-34.4,M,,*5E
$GPRMC,134952.750,A,4308.5173,N,07727.5651,W,34.81,279.38,020925,,,A*4E
$GPGGA,134953.000,4308.5177,N,07727.5682,W,1,06,1.43,167.8,M,-34.4,M,,*56
$GPRMC,134953.250,A,4308.5181,N,07727.5714,W,34.51,279.82,020925,,,A*4B
$GPGGA,134953.500,4308.5186,N,07727.5746,W,1,06,1.43,167.8,M,-34.4,M,,*54
$GPRMC,134953.750,A,4308.5190,N,07727.5778,W,34.52,279.89,020925,,,A*4C
$GPGGA,134954.000,4308.5194,N,07727.5809,W,1,06,2.09,167.8,M,-34.4,M,,*5C
$GPRMC,134954.250,A,4308.5199,N,07727.5841,W,34.39,279.92,020925,,,A*45
$GPGGA,134954.500,4308.5203,N,07727.5873,W,1,06,2.09,167.8,M,-34.4,M,,*59
$GPRMC,134954.750,A,4308.5208,N,07727.5905,W,34.24,280.81,020925,,,A*42
$GPGGA,134955.000,4308.5212,N,07727.5937,W,1,06,2.09,167.8,M,-34.4,M,,*5C
$GPRMC,134955.250,A,4308.5217,N,07727.5969,W,34.30,281.07,020925,,,A*48
$GPGGA,134955.500,4308.5221,N,07727.6002,W,1,06,1.43,167.7,M,-34.4,M,,*57
$GPRMC,134955.750,A,4308.5225,N,07727.6035,W,34.74,280.51,020925,,,A*4D
$GPGGA,134956.000,4308.5229,N,07727.6069,W,1,06,2.09,167.7,M,-34.4,M,,*59
$GPRMC,134956.250,A,4308.5233,N,07727.6101,W,34.98,279.61,020925,,,A*4D
$GPGGA,134956.500,4308.5237,N,07727.6134,W,1,06,1.43,167.7,M,-34.4,M,,*57
$GPRMC,134956.750,A,4308.5240,N,07727.6167,W,34.70,279.17,020925,,,A*4B
$GPGGA,134957.000,4308.5244,N,07727.6199,W,1,06,2.09,167.7,M,-34.4,M,,*5D
$GPRMC,134957.250,A,4308.5247,N,07727.6233,W,34.75,278.48,020925,,,A*44
$GPGGA,134957.500,4308.5250,N,07727.6265,W,1,06,2.09,167.6,M,-34.4,M,,*5C
$GPRMC,134957.750,A,4308.5253,N,07727.6298,W,34.99,277.63,020925,,,A*41
$GPGGA,134958.000,4308.5257,N,07727.6331,W,1,06,2.09,167.5,M,-34.4,M,,*52
$GPRMC,134958.250,A,4308.5259,N,07727.6365,W,35.23,276.77,020925,,,A*46
$GPGGA,134958.500,4308.5262,N,07727.6397,W,1,06,2.09,167.5,M,-34.4,M,,*5D
$GPRMC,134958.750,A,4308.5265,N,07727.6430,W,35.03,275.49,020925,,,A*47
$GPGGA,134959.000,4308.5267,N,07727.6463,W,1,06,2.09,167.5,M,-34.4,M,,*50
$GPRMC,134959.250,A,4308.5269,N,07727.6495,W,34.72,274.46,020925,,,A*49
$GPGGA,134959.500,4308.5271,N,07727.6526,W,1,06,2.09,167.5,M,-34.4,M,,*52
$GPRMC,134959.750,A,4308.5273,N,07727.6557,W,34.44,274.00,020925,,,A*4F
$GPGGA,135000.000,4308.5276,N,07727.6588,W,1,06,2.09,167.7,M,-34.4,M,,*52
$GPRMC,135000.250,A,4308.5278,N,07727.6619,W,34.37,274.60,020925,,,A*4E
$GPGGA,135000.500,4308.5280,N,07727.6650,W,1,06,2.09,167.9,M,-34.4,M,,*56
$GPRMC,135000.750,A,4308.5282,N,07727.6681,W,34.22,274.27,020925,,,A*48
$GPGGA,135001.000,4308.5284,N,07727.6711,W,1,06,2.09,168.1,M,-34.4,M,,*55
$GPRMC,135001.250,A,4308.5286,N,07727.6741,W,32.98,274.04,020925,,,A*43
$GPGGA,135001.500,4308.5288,N,07727.6771,W,1,06,2.09,168.4,M,-34.4,M,,*5F
$GPRMC,135001.750,A,4308.5290,N,07727.6801,W,32.75,274.37,020925,,,A*49
$GPGGA,135002.000,4308.5292,N,07727.6830,W,1,06,2.09,168.7,M,-34.4,M,,*5B
$GPRMC,135002.250,A,4308.5293,N,07727.6859,W,32.02,274.66,020925,,,A*45
$GPGGA,135002.500,4308.5296,N,07727.6888,W,1,06,2.09,169.1,M,-34.4,M,,*5E
$GPRMC,135002.750,A,4308.5297,N,07727.6918,W,32.03,274.81,020925,,,A*48
$GPGGA,135003.000,4308.5299,N,07727.6947,W,1,06,2.09,169.5,M,-34.4,M,,*53
$GPRMC,135003.250,A,4308.5301,N,07727.6978,W,31.98,274.95,020925,,,A*40
$GPGGA,135003.500,4308.5303,N,07727.7007,W,1,06,2.09,169.9,M,-34.4,M,,*54
$GPRMC,135003.750,A,4308.5305,N,07727.7037,W,31.74,274.75,020925,,,A*4E
$GPGGA,135004.000,4308.5307,N,07727.7066,W,1,06,2.09,170.3,M,-34.4,M,,*57
$GPRMC,135004.250,A,4308.5309,N,07727.7096,W,31.48,274.78,020925,,,A*49
$GPGGA,135004.500,4308.5311,N,07727.7125,W,1,06,2.10,170.6,M,-34.4,M,,*5E
$GPRMC,135004.750,A,4308.5312,N,07727.7154,W,31.26,274.78,020925,,,A*41
$GPGGA,135005.000,4308.5314,N,07727.7183,W,1,06,2.10,171.0,M,-34.4,M,,*54
$GPRMC,135005.250,A,4308.5316,N,07727.7212,W,31.05,274.72,020925,,,A*4B
$GPGGA,135005.500,4308.5317,N,07727.7241,W,1,06,2.10,171.3,M,-34.4,M,,*5C
$GPRMC,135005.750,A,4308.5318,N,07727.7269,W,30.24,274.12,020925,,,A*48
$GPGGA,135006.000,4308.5320,N,07727.7297,W,1,06,2.10,171.6,M,-34.4,M,,*50
$GPRMC,135006.250,A,4308.5321,N,07727.7325,W,29.86,274.32,020925,,,A*4F
$GPGGA,135006.500,4308.5322,N,07727.7352,W,1,06,2.10,172.0,M,-34.4,M,,*5A
$GPRMC,135006.750,A,4308.5324,N,07727.7379,W,28.87,274.83,020925,,,A*4C
$GPGGA,135007.000,4308.5326,N,07727.7405,W,1,06,2.10,172.3,M,-34.4,M,,*5C
$GPRMC,135007.250,A,4308.5328,N,07727.7430,W,27.86,275.22,020925,,,A*4A
$GPGGA,135007.500,4308.5329,N,07727.7455,W,1,06,2.09,172.6,M,-34.4,M,,*5E
$GPRMC,135007.750,A,4308.5330,N,07727.7478,W,25.88,274.47,020925,,,A*44
$GPGGA,135008.000,4308.5331,N,07727.7501,W,1,06,2.10,172.9,M,-34.4,M,,*5A
$GPRMC,135008.250,A,4308.5333,N,07727.7523,W,24.23,275.37,020925,,,A*44
$GPGGA,135008.500,4308.5334,N,07727.7544,W,1,06,2.10,173.2,M,-34.4,M,,*51
$GPRMC,135008.750,A,4308.5335,N,07727.7564,W,22.48,276.01,020925,,,A*49
$GPGGA,135009.000,4308.5337,N,07727.7583,W,1,06,2.10,173.3,M,-34.4,M,,*5C
$GPRMC,135009.250,A,4308.5338,N,07727.7602,W,20.98,275.68,020925,,,A*40
$GPGGA,135009.500,4308.5338,N,07727.7621,W,1,06,2.10,173.4,M,-34.4,M,,*5A
$GPRMC,135009.750,A,4308.5339,N,07727.7638,W,18.91,273.87,020925,,,A*48
$GPGGA,135010.000,4308.5339,N,07727.7654,W,1,06,2.10,173.5,M,-34.4,M,,*55
$GPRMC,135010.250,A,4308.5340,N,07727.7671,W,17.45,273.31,020925,,,A*4D
$GPGGA,135010.500,4308.5341,N,07727.7685,W,1,06,2.10,173.4,M,-34.4,M,,*52
$GPRMC,135010.750,A,4308.5341,N,07727.7696,W,16.00,273.67,020925,,,A*43
$GPGGA,135011.000,4308.5340,N,07727.7708,W,1,06,2.10,173.4,M,-34.4,M,,*53
$GPRMC,135011.250,A,4308.5341,N,07727.7723,W,14.97,272.97,020925,,,A*4A
$GPGGA,135011.500,4308.5341,N,07727.7735,W,1,06,2.10,173.3,M,-34.4,M,,*5E
$GPRMC,135011.750,A,4308.5342,N,07727.7747,W,14.17,273.17,020925,,,A*4F
$GPGGA,135012.000,4308.5343,N,07727.7759,W,1,06,2.10,173.3,M,-34.4,M,,*50
$GPRMC,135012.250,A,4308.5343,N,07727.7771,W,13.43,272.45,020925,,,A*4D
$GPGGA,135012.500,4308.5344,N,07727.7784,W,1,06,2.10,173.3,M,-34.4,M,,*52
$GPRMC,135012.750,A,4308.5344,N,07727.7795,W,12.45,271.17,020925,,,A*46
$GPGGA,135013.000,4308.5345,N,07727.7803,W,1,06,2.10,173.3,M,-34.4,M,,*57
$GPRMC,135013.250,A,4308.5345,N,07727.7814,W,11.30,269.78,020925,,,A*44
$GPGGA,135013.500,4308.5346,N,07727.7823,W,1,06,2.10,173.3,M,-34.4,M,,*53
$GPRMC,135013.750,A,4308.5347,N,07727.7831,W,10.17,270.19,020925,,,A*4F
$GPGGA,135014.000,4308.5347,N,07727.7839,W,1,06,2.10,173.0,M,-34.4,M,,*58
$GPRMC,135014.250,A,4308.5347,N,07727.7847,W,9.60,270.24,020925,,,A*7A
$GPGGA,135014.500,4308.5347,N,07727.7854,W,1,06,2.10,172.9,M,-34.4,M,,*5E
$GPRMC,135014.750,A,4308.5347,N,07727.7860,W,8.88,270.09,020925,,,A*72
$GPGGA,135015.000,4308.5348,N,07727.7867,W,1,06,2.10,172.8,M,-34.4,M,,*54
$GPRMC,135015.250,A,4308.5348,N,07727.7874,W,8.26,270.93,020925,,,A*7B
$GPGGA,135015.500,4308.5349,N,07727.7880,W,1,06,2.10,172.8,M,-34.4,M,,*59
$GPRMC,135015.750,A,4308.5349,N,07727.7886,W,7.51,272.17,020925,,,A*73
$GPGGA,135016.000,4308.5350,N,07727.7891,W,1,06,2.10,172.7,M,-34.4,M,,*58
$GPRMC,135016.250,A,4308.5350,N,07727.7896,W,6.79,272.95,020925,,,A*7D
$GPGGA,135016.500,4308.5350,N,07727.7900,W,1,06,2.10,172.6,M,-34.4,M,,*55
$GPRMC,135016.750,A,4308.5351,N,07727.7904,W,5.73,269.83,020925,,,A*77
$GPGGA,135017.000,4308.5351,N,07727.7908,W,1,06,2.10,172.6,M,-34.4,M,,*58
$GPRMC,135017.250,A,4308.5351,N,07727.7911,W,4.71,266.75,020925,,,A*72
$GPGGA,135017.500,4308.5351,N,07727.7914,W,1,06,2.10,172.6,M,-34.4,M,,*50
$GPRMC,135017.750,A,4308.5351,N,07727.7916,W,3.60,267.17,020925,,,A*72
$GPGGA,135018.000,4308.5352,N,07727.7918,W,1,06,1.43,172.6,M,-34.4,M,,*50
$GPRMC,135018.250,A,4308.5352,N,07727.7921,W,2.78,266.70,020925,,,A*77
$GPGGA,135018.500,4308.5353,N,07727.7923,W,1,06,1.43,172.5,M,-34.4,M,,*5F
$GPRMC,135018.750,A,4308.5353,N,07727.7925,W,1.79,266.70,020925,,,A*75
$GPGGA,135019.000,4308.5353,N,07727.7925,W,1,06,1.43,172.5,M,-34.4,M,,*5D
$GPGGA,135020.500,4308.5353,N,07727.7916,W,1,06,1.43,171.5,M,-34.4,M,,*51
$GPRMC,135020.500,A,4308.5353,N,07727.7916,W,0.55,266.70,020925,,,A*76
$GPGGA,135020.750,4308.5352,N,07727.7914,W,1,06,1.43,171.2,M,-34.4,M,,*52
$GPRMC,135020.750,A,4308.5352,N,07727.7914,W,0.51,266.70,020925,,,A*76
$GPRMC,135025.750,A,4308.5353,N,07727.7918,W,2.75,272.88,020925,,,A*78
$GPGGA,135026.000,4308.5354,N,07727.7922,W,1,06,1.43,170.3,M,-34.4,M,,*55
$GPRMC,135026.250,A,4308.5354,N,07727.7927,W,3.32,272.12,020925,,,A*74
$GPGGA,135026.500,4308.5356,N,07727.7931,W,1,06,1.43,170.4,M,-34.4,M,,*57
$GPRMC,135026.750,A,4308.5357,N,07727.7935,W,3.42,273.24,020925,,,A*72
$GPGGA,135027.000,4308.5356,N,07727.7939,W,1,06,1.43,170.4,M,-34.4,M,,*5B
$GPRMC,135027.250,A,4308.5357,N,07727.7943,W,3.42,271.28,020925,,,A*79
$GPGGA,135027.500,4308.5357,N,07727.7945,W,1,06,1.43,170.4,M,-34.4,M,,*54
$GPRMC,135027.750,A,4308.5357,N,07727.7949,W,3.43,268.11,020925,,,A*75
$GPGGA,135028.000,4308.5357,N,07727.7952,W,1,06,1.43,170.3,M,-34.4,M,,*5F
$GPRMC,135028.250,A,4308.5357,N,07727.7956,W,3.49,267.73,020925,,,A*70
$GPGGA,135028.500,4308.5357,N,07727.7959,W,1,06,1.43,170.3,M,-34.4,M,,*51
$GPRMC,135028.750,A,4308.5357,N,07727.7962,W,3.52,271.20,020925,,,A*79
$GPGGA,135029.000,4308.5357,N,07727.7966,W,1,06,1.43,170.2,M,-34.4,M,,*58
$GPRMC,135029.250,A,4308.5357,N,07727.7970,W,3.55,272.70,020925,,,A*7F
$GPGGA,135029.500,4308.5358,N,07727.7973,W,1,06,1.43,170.2,M,-34.4,M,,*56
$GPRMC,135029.750,A,4308.5358,N,07727.7977,W,3.90,273.77,020925,,,A*7D
$GPGGA,135030.000,4308.5358,N,07727.7982,W,1,06,2.10,170.2,M,-34.4,M,,*50
$GPRMC,135030.250,A,4308.5358,N,07727.7986,W,4.13,273.16,020925,,,A*75
$GPGGA,135030.500,4308.5358,N,07727.7990,W,1,06,2.10,170.1,M,-34.4,M,,*55
$GPRMC,135030.750,A,4308.5359,N,07727.7994,W,4.26,271.39,020925,,,A*7B
$GPGGA,135031.000,4308.5359,N,07727.7998,W,1,06,2.10,170.0,M,-34.4,M,,*59
$GPRMC,135031.250,A,4308.5359,N,07727.8002,W,4.45,271.52,020925,,,A*7E
$GPGGA,135031.500,4308.5359,N,07727.8006,W,1,06,2.10,170.0,M,-34.4,M,,*5D
$GPRMC,135031.750,A,4308.5359,N,07727.8009,W,4.34,271.19,020925,,,A*79
$GPGGA,135032.000,4308.5359,N,07727.8012,W,1,06,2.10,169.9,M,-34.4,M,,*5F
$GPRMC,135032.250,A,4308.5359,N,07727.8016,W,4.12,273.79,020925,,,A*71
$GPGGA,135032.500,4308.5360,N,07727.8020,W,1,06,2.10,169.8,M,-34.4,M,,*50
$GPRMC,135032.750,A,4308.5360,N,07727.8023,W,4.00,276.92,020925,,,A*7B
$GPGGA,135033.000,4308.5361,N,07727.8027,W,1,06,2.10,169.8,M,-34.4,M,,*52
$GPRMC,135033.250,A,4308.5361,N,07727.8031,W,4.04,276.08,020925,,,A*7A
$GPGGA,135033.500,4308.5361,N,07727.8036,W,1,06,2.10,169.7,M,-34.4,M,,*58
$GPRMC,135033.750,A,4308.5362,N,07727.8040,W,4.26,277.36,020925,,,A*76
$GPGGA,135034.000,4308.5363,N,07727.8046,W,1,06,2.10,169.7,M,-34.4,M,,*5F
$GPRMC,135034.250,A,4308.5364,N,07727.8053,W,4.25,277.10,020925,,,A*77
$GPGGA,135034.500,4308.5365,N,07727.8058,W,1,06,2.10,169.6,M,-34.4,M,,*52
$GPRMC,135034.750,A,4308.5366,N,07727.8063,W,4.27,274.58,020925,,,A*7E
$GPGGA,135035.000,4308.5368,N,07727.8067,W,1,06,2.10,169.6,M,-34.4,M,,*57
$GPRMC,135035.250,A,4308.5368,N,07727.8070,W,4.50,271.96,020925,,,A*71
$GPGGA,135035.500,4308.5368,N,07727.8074,W,1,06,2.10,169.5,M,-34.4,M,,*53
$GPRMC,135035.750,A,4308.5369,N,07727.8078,W,4.58,271.12,020925,,,A*79
$GPGGA,135036.000,4308.5369,N,07727.8082,W,1,06,2.10,169.6,M,-34.4,M,,*5E
$GPRMC,135036.250,A,4308.5369,N,07727.8087,W,4.95,270.58,020925,,,A*71
$GPGGA,135036.500,4308.5370,N,07727.8091,W,1,06,2.10,169.7,M,-34.4,M,,*50
$GPRMC,135036.750,A,4308.5370,N,07727.8095,W,5.17,269.59,020925,,,A*7D
$GPGGA,135037.000,4308.5371,N,07727.8099,W,1,06,2.10,169.8,M,-34.4,M,,*52
$GPRMC,135037.250,A,4308.5371,N,07727.8102,W,5.22,269.80,020925,,,A*75
$GPGGA,135037.500,4308.5371,N,07727.8106,W,1,06,2.10,170.0,M,-34.4,M,,*50
$GPRMC,135037.750,A,4308.5371,N,07727.8110,W,5.19,269.19,020925,,,A*7B
$GPGGA,135038.000,4308.5371,N,07727.8114,W,1,06,2.10,170.2,M,-34.4,M,,*5B
$GPRMC,135038.250,A,4308.5371,N,07727.8118,W,5.03,267.04,020925,,,A*70
$GPGGA,135038.500,4308.5370,N,07727.8122,W,1,06,2.11,170.3,M,-34.4,M,,*5A
$GPRMC,135038.750,A,4308.5370,N,07727.8126,W,4.96,266.43,020925,,,A*76
$GPGGA,135039.000,4308.5369,N,07727.8130,W,1,06,2.11,170.4,M,-34.4,M,,*52
$GPRMC,135039.250,A,4308.5369,N,07727.8133,W,4.43,268.08,020925,,,A*77
$GPGGA,135039.500,4308.5369,N,07727.8137,W,1,06,2.10,170.5,M,-34.4,M,,*50
$GPRMC,135039.750,A,4308.5369,N,07727.8140,W,4.27,272.92,020925,,,A*7C
$GPGGA,135040.000,4308.5369,N,07727.8144,W,1,06,2.11,170.6,M,-34.4,M,,*5D
$GPRMC,135040.250,A,4308.5369,N,07727.8148,W,4.63,271.99,020925,,,A*77
$GPGGA,135040.500,4308.5369,N,07727.8152,W,1,06,2.11,170.7,M,-34.4,M,,*5E
$GPRMC,135040.750,A,4308.5369,N,07727.8157,W,5.18,271.15,020925,,,A*75
$GPGGA,135041.000,4308.5369,N,07727.8162,W,1,06,2.11,170.8,M,-34.4,M,,*56
$GPRMC,135041.250,A,4308.5369,N,07727.8166,W,5.50,270.52,020925,,,A*7D
$GPGGA,135041.500,4308.5369,N,07727.8172,W,1,06,2.11,170.8,M,-34.4,M,,*52
$GPRMC,135041.750,A,4308.5368,N,07727.8179,W,6.56,272.52,020925,,,A*70
$GPGGA,135042.000,4308.5369,N,07727.8184,W,1,06,2.11,170.8,M,-34.4,M,,*5D
$GPRMC,135042.250,A,4308.5370,N,07727.8190,W,7.71,273.30,020925,,,A*79
$GPGGA,135042.500,4308.5371,N,07727.8197,W,1,06,2.11,170.9,M,-34.4,M,,*52
$GPRMC,135042.750,A,4308.5371,N,07727.8207,W,9.44,274.42,020925,,,A*7A
$GPGGA,135043.000,4308.5372,N,07727.8217,W,1,06,2.11,170.9,M,-34.4,M,,*5E
$GPRMC,135043.250,A,4308.5372,N,07727.8228,W,11.01,273.52,020925,,,A*4E
$GPGGA,135043.500,4308.5373,N,07727.8241,W,1,06,2.11,170.9,M,-34.4,M,,*59
$GPRMC,135043.750,A,4308.5374,N,07727.8254,W,12.81,273.54,020925,,,A*4B
$GPGGA,135044.000,4308.5374,N,07727.8267,W,1,06,2.11,171.0,M,-34.4,M,,*50
$GPRMC,135044.250,A,4308.5374,N,07727.8281,W,13.99,273.42,020925,,,A*4E
$GPGGA,135044.500,4308.5374,N,07727.8294,W,1,06,2.11,171.0,M,-34.4,M,,*59
$GPRMC,135044.750,A,4308.5374,N,07727.8307,W,15.05,272.08,020925,,,A*48
$GPGGA,135045.000,4308.5373,N,07727.8320,W,1,06,2.11,171.0,M,-34.4,M,,*54
$GPRMC,135045.250,A,4308.5373,N,07727.8335,W,15.89,270.54,020925,,,A*45
$GPGGA,135045.500,4308.5373,N,07727.8350,W,1,06,2.11,171.2,M,-34.4,M,,*54
$GPRMC,135045.750,A,4308.5374,N,07727.8365,W,16.69,269.18,020925,,,A*4F
$GPGGA,135046.000,4308.5374,N,07727.8381,W,1,06,2.11,171.4,M,-34.4,M,,*5F
$GPRMC,135046.250,A,4308.5375,N,07727.8398,W,17.45,268.87,020925,,,A*42
$GPGGA,135046.500,4308.5375,N,07727.8415,W,1,06,2.11,171.6,M,-34.4,M,,*53
$GPRMC,135046.750,A,4308.5374,N,07727.8433,W,18.43,267.61,020925,,,A*4E
$GPGGA,135047.000,4308.5374,N,07727.8452,W,1,06,2.11,171.8,M,-34.4,M,,*5B
$GPRMC,135047.250,A,4308.5374,N,07727.8471,W,19.52,267.92,020925,,,A*41
$GPGGA,135047.500,4308.5375,N,07727.8491,W,1,06,2.11,172.1,M,-34.4,M,,*5A
$GPRMC,135047.750,A,4308.5376,N,07727.8511,W,20.71,269.38,020925,,,A*44
$GPGGA,135048.000,4308.5376,N,07727.8532,W,1,06,2.11,172.4,M,-34.4,M,,*5E
$GPRMC,135048.250,A,4308.5377,N,07727.8553,W,21.25,269.93,020925,,,A*48
$GPGGA,135048.500,4308.5377,N,07727.8574,W,1,06,2.11,172.6,M,-34.4,M,,*5A
$GPRMC,135048.750,A,4308.5377,N,07727.8594,W,22.07,268.77,020925,,,A*4E
$GPGGA,135049.000,4308.5376,N,07727.8616,W,1,06,2.11,172.7,M,-34.4,M,,*59
$GPRMC,135049.250,A,4308.5376,N,07727.8637,W,22.44,268.31,020925,,,A*44
$GPGGA,135049.500,4308.5376,N,07727.8658,W,1,06,2.11,173.0,M,-34.4,M,,*50
$GPRMC,135049.750,A,4308.5376,N,07727.8681,W,23.03,268.44,020925,,,A*4C
$GPGGA,135050.000,4308.5376,N,07727.8703,W,1,06,2.11,173.2,M,-34.4,M,,*50
$GPRMC,135050.250,A,4308.5376,N,07727.8726,W,23.55,269.15,020925,,,A*4B
$GPGGA,135050.500,4308.5377,N,07727.8749,W,1,06,2.11,173.5,M,-34.4,M,,*5D
$GPRMC,135050.750,A,4308.5377,N,07727.8773,W,24.52,269.81,020925,,,A*42
$GPGGA,135051.000,4308.5377,N,07727.8797,W,1,06,2.11,173.6,M,-34.4,M,,*59
$GPRMC,135051.250,A,4308.5378,N,07727.8822,W,25.31,270.86,020925,,,A*49
$GPGGA,135051.500,4308.5379,N,07727.8847,W,1,06,2.11,173.6,M,-34.4,M,,*50
$GPRMC,135051.750,A,4308.5380,N,07727.8872,W,26.10,272.11,020925,,,A*42
$GPGGA,135052.000,4308.5381,N,07727.8898,W,1,06,2.11,173.7,M,-34.4,M,,*52
$GPRMC,135052.250,A,4308.5382,N,07727.8923,W,26.78,272.72,020925,,,A*48
$GPGGA,135052.500,4308.5383,N,07727.8950,W,1,06,2.11,173.8,M,-34.4,M,,*5F
$GPRMC,135052.750,A,4308.5385,N,07727.8977,W,27.75,272.91,020925,,,A*4A
$GPGGA,135053.000,4308.5387,N,07727.9003,W,1,06,2.11,174.0,M,-34.4,M,,*5E
$GPRMC,135053.250,A,4308.5388,N,07727.9031,W,28.32,273.10,020925,,,A*4D
$GPGGA,135053.500,4308.5390,N,07727.9059,W,1,06,2.11,174.0,M,-34.4,M,,*52
$GPRMC,135053.750,A,4308.5391,N,07727.9087,W,28.78,273.52,020925,,,A*45
$GPGGA,135054.000,4308.5392,N,07727.9115,W,1,06,2.11,173.8,M,-34.4,M,,*54
$GPRMC,135054.250,A,4308.5393,N,07727.9143,W,28.99,272.77,020925,,,A*45
$GPGGA,135054.500,4308.5394,N,07727.9172,W,1,06,2.11,173.6,M,-34.4,M,,*58
$GPRMC,135054.750,A,4308.5395,N,07727.9201,W,29.28,272.85,020925,,,A*45
$GPGGA,135055.000,4308.5396,N,07727.9230,W,1,06,2.11,173.3,M,-34.4,M,,*5E
$GPRMC,135055.250,A,4308.5397,N,07727.9260,W,29.51,273.06,020925,,,A*40
$GPGGA,135055.500,4308.5398,N,07727.9289,W,1,06,2.11,173.2,M,-34.4,M,,*56
$GPRMC,135055.750,A,4308.5399,N,07727.9319,W,30.57,273.53,020925,,,A*4A
$GPGGA,135056.000,4308.5400,N,07727.9349,W,1,06,2.11,173.0,M,-34.4,M,,*59
$GPRMC,135056.250,A,4308.5401,N,07727.9379,W,30.62,273.00,020925,,,A*4C
$GPGGA,135056.500,4308.5401,N,07727.9409,W,1,06,2.11,172.7,M,-34.4,M,,*58
$GPRMC,135056.750,A,4308.5402,N,07727.9439,W,30.86,272.37,020925,,,A*46
$GPGGA,135057.000,4308.5403,N,07727.9470,W,1,06,2.11,172.2,M,-34.4,M,,*55
$GPRMC,135057.250,A,4308.5404,N,07727.9500,W,31.02,272.42,020925,,,A*40
$GPGGA,135057.500,4308.5405,N,07727.9530,W,1,06,2.11,171.8,M,-34.4,M,,*5A
$GPRMC,135057.750,A,4308.5405,N,07727.9561,W,31.83,273.07,020925,,,A*4A
$GPGGA,135058.000,4308.5406,N,07727.9592,W,1,06,2.11,171.3,M,-34.4,M,,*50
$GPRMC,135058.250,A,4308.5407,N,07727.9624,W,32.67,272.73,020925,,,A*4B
$GPGGA,135058.500,4308.5408,N,07727.9656,W,1,06,2.11,170.8,M,-34.4,M,,*5A
$GPRMC,135058.750,A,4308.5409,N,07727.9688,W,33.49,271.85,020925,,,A*41
$GPGGA,135059.000,4308.5410,N,07727.9719,W,1,06,2.11,170.5,M,-34.4,M,,*50
$GPRMC,135059.250,A,4308.5411,N,07727.9751,W,33.89,271.65,020925,,,A*4B
$GPGGA,135059.500,4308.5411,N,07727.9784,W,1,06,2.11,170.1,M,-34.4,M,,*54
$GPRMC,135059.750,A,4308.5412,N,07727.9817,W,34.32,270.91,020925,,,A*4D
$GPGGA,135100.000,4308.5412,N,07727.9850,W,1,06,2.11,169.8,M,-34.4,M,,*58
$GPRMC,135100.250,A,4308.5412,N,07727.9884,W,34.63,270.27,020925,,,A*46
$GPGGA,135100.500,4308.5413,N,07727.9919,W,1,06,2.11,169.4,M,-34.4,M,,*5C
$GPRMC,135100.750,A,4308.5413,N,07727.9953,W,36.16,269.97,020925,,,A*4A
$GPGGA,135101.000,4308.5413,N,07727.9988,W,1,06,2.11,169.0,M,-34.4,M,,*54
$GPRMC,135101.250,A,4308.5413,N,07728.0023,W,36.82,270.15,020925,,,A*49
$GPGGA,135101.500,4308.5414,N,07728.0059,W,1,06,2.11,168.6,M,-34.4,M,,*52
$GPRMC,135101.750,A,4308.5415,N,07728.0095,W,37.38,271.02,020925,,,A*40
$GPGGA,135102.000,4308.5415,N,07728.0130,W,1,06,2.11,168.2,M,-34.4,M,,*5F
$GPRMC,135102.250,A,4308.5416,N,07728.0166,W,37.62,271.21,020925,,,A*46
$GPGGA,135102.500,4308.5416,N,07728.0201,W,1,06,2.11,167.8,M,-34.4,M,,*5D
$GPRMC,135102.750,A,4308.5417,N,07728.0237,W,37.61,270.57,020925,,,A*46
$GPGGA,135103.000,4308.5417,N,07728.0272,W,1,06,2.11,167.4,M,-34.4,M,,*50
$GPRMC,135103.250,A,4308.5418,N,07728.0308,W,37.68,270.31,020925,,,A*49
$GPGGA,135103.500,4308.5418,N,07728.0343,W,1,06,2.11,167.1,M,-34.4,M,,*5C
$GPRMC,135103.750,A,4308.5418,N,07728.0378,W,37.69,269.95,020925,,,A*4C
$GPGGA,135104.000,4308.5418,N,07728.0412,W,1,06,2.11,166.9,M,-34.4,M,,*54
$GPRMC,135104.250,A,4308.5418,N,07728.0447,W,37.66,269.69,020925,,,A*49
$GPGGA,135104.500,4308.5419,N,07728.0481,W,1,05,2.38,166.7,M,-34.4,M,,*5C
$GPRMC,135104.750,A,4308.5419,N,07728.0516,W,37.43,269.82,020925,,,A*4A
$GPGGA,135105.000,4308.5419,N,07728.0551,W,1,06,2.11,166.5,M,-34.4,M,,*5E
$GPRMC,135105.250,A,4308.5419,N,07728.0585,W,37.29,269.69,020925,,,A*4D
$GPGGA,135105.500,4308.5419,N,07728.0620,W,1,06,2.11,166.3,M,-34.4,M,,*58
$GPRMC,135105.750,A,4308.5419,N,07728.0655,W,37.18,269.31,020925,,,A*49
$GPGGA,135106.000,4308.5419,N,07728.0690,W,1,06,2.11,166.0,M,-34.4,M,,*56
$GPRMC,135106.250,A,4308.5419,N,07728.0726,W,37.68,269.40,020925,,,A*4B
$GPGGA,135106.500,4308.5419,N,07728.0762,W,1,06,2.11,165.7,M,-34.4,M,,*5B
$GPRMC,135106.750,A,4308.5419,N,07728.0797,W,37.67,269.48,020925,,,A*43
$GPGGA,135107.000,4308.5420,N,07728.0832,W,1,06,2.11,165.4,M,-34.4,M,,*5C
$GPRMC,135107.250,A,4308.5420,N,07728.0868,W,37.99,269.41,020925,,,A*4A
$GPGGA,135107.500,4308.5421,N,07728.0903,W,1,06,2.11,165.0,M,-34.4,M,,*5F
$GPRMC,135107.750,A,4308.5421,N,07728.0938,W,38.10,269.22,020925,,,A*41
$GPGGA,135108.000,4308.5421,N,07728.0974,W,1,06,2.11,164.7,M,-34.4,M,,*53
$GPRMC,135108.250,A,4308.5421,N,07728.1010,W,38.32,269.21,020925,,,A*4A
$GPGGA,135108.500,4308.5421,N,07728.1047,W,1,06,2.11,164.6,M,-34.4,M,,*5F
$GPRMC,135108.750,A,4308.5422,N,07728.1084,W,38.89,269.39,020925,,,A*48
$GPGGA,135109.000,4308.5424,N,07728.1120,W,1,06,2.11,164.3,M,-34.4,M,,*5B
$GPRMC,135109.250,A,4308.5424,N,07728.1157,W,39.29,269.58,020925,,,A*49
$GPGGA,135109.500,4308.5425,N,07728.1193,W,1,06,2.11,164.0,M,-34.4,M,,*54
$GPRMC,135109.750,A,4308.5426,N,07728.1228,W,38.88,269.44,020925,,,A*42
$GPGGA,135110.000,4308.5426,N,07728.1264,W,1,06,2.11,163.9,M,-34.4,M,,*5F
$GPRMC,135110.250,A,4308.5426,N,07728.1300,W,38.63,269.06,020925,,,A*47
$GPGGA,135110.500,4308.5426,N,07728.1336,W,1,06,2.11,163.9,M,-34.4,M,,*5C
$GPRMC,135110.750,A,4308.5427,N,07728.1373,W,38.61,269.45,020925,,,A*42
$GPGGA,135111.000,4308.5428,N,07728.1409,W,1,06,2.11,163.9,M,-34.4,M,,*5D
$GPRMC,135111.250,A,4308.5428,N,07728.1445,W,38.60,270.18,020925,,,A*4A
$GPGGA,135111.500,4308.5428,N,07728.1482,W,1,06,2.11,163.8,M,-34.4,M,,*5A
$GPRMC,135111.750,A,4308.5428,N,07728.1519,W,38.59,270.73,020925,,,A*40
$GPGGA,135112.000,4308.5429,N,07728.1556,W,1,06,2.11,163.9,M,-34.4,M,,*54
$GPRMC,135112.250,A,4308.5430,N,07728.1592,W,38.86,271.65,020925,,,A*48
$GPGGA,135112.500,4308.5432,N,07728.1629,W,1,06,2.11,163.9,M,-34.4,M,,*50
$GPRMC,135112.750,A,4308.5433,N,07728.1665,W,38.78,272.46,020925,,,A*46
$GPGGA,135113.000,4308.5434,N,07728.1702,W,1,06,2.11,163.8,M,-34.4,M,,*5B
$GPRMC,135113.250,A,4308.5436,N,07728.1738,W,38.49,273.00,020925,,,A*4F
$GPGGA,135113.500,4308.5437,N,07728.1774,W,1,06,2.11,163.7,M,-34.4,M,,*53
$GPRMC,135113.750,A,4308.5438,N,07728.1810,W,38.11,272.71,020925,,,A*4B
$GPGGA,135114.000,4308.5438,N,07728.1846,W,1,06,2.12,163.6,M,-34.4,M,,*52
$GPRMC,135114.250,A,4308.5439,N,07728.1882,W,37.81,271.98,020925,,,A*41
$GPGGA,135114.500,4308.5440,N,07728.1918,W,1,06,2.12,163.6,M,-34.4,M,,*52
$GPRMC,135114.750,A,4308.5440,N,07728.1953,W,37.37,271.33,020925,,,A*4B
$GPGGA,135115.000,4308.5441,N,07728.1988,W,1,06,2.12,163.6,M,-34.4,M,,*5E
$GPRMC,135115.250,A,4308.5442,N,07728.2022,W,37.26,271.20,020925,,,A*43
$GPGGA,135115.500,4308.5443,N,07728.2057,W,1,06,2.12,163.5,M,-34.4,M,,*52
$GPRMC,135115.750,A,4308.5444,N,07728.2092,W,37.17,271.28,020925,,,A*41
$GPGGA,135116.000,4308.5444,N,07728.2127,W,1,06,2.12,163.5,M,-34.4,M,,*55
$GPRMC,135116.250,A,4308.5445,N,07728.2162,W,37.21,271.39,020925,,,A*4D
$GPGGA,135116.500,4308.5446,N,07728.2196,W,1,06,2.12,163.4,M,-34.4,M,,*59
$GPRMC,135116.750,A,4308.5447,N,07728.2232,W,37.40,271.22,020925,,,A*41
$GPGGA,135117.000,4308.5448,N,07728.2267,W,1,06,2.12,163.4,M,-34.4,M,,*5E
$GPRMC,135117.250,A,4308.5449,N,07728.2302,W,37.68,271.09,020925,,,A*4A
$GPGGA,135117.500,4308.5449,N,07728.2337,W,1,06,2.12,163.2,M,-34.4,M,,*58
$GPRMC,135117.750,A,4308.5450,N,07728.2373,W,37.88,271.20,020925,,,A*44
$GPGGA,135118.000,4308.5451,N,07728.2408,W,1,06,2.12,163.1,M,-34.4,M,,*53
$GPRMC,135118.250,A,4308.5451,N,07728.2444,W,37.95,271.30,020925,,,A*41
$GPGGA,135118.500,4308.5452,N,07728.2479,W,1,06,2.12,162.9,M,-34.4,M,,*5A
$GPRMC,135118.750,A,4308.5453,N,07728.2514,W,37.85,271.57,020925,,,A*42
$GPGGA,135119.000,4308.5454,N,07728.2550,W,1,06,2.12,162.9,M,-34.4,M,,*52
$GPRMC,135119.250,A,4308.5455,N,07728.2585,W,38.08,271.13,020925,,,A*42
$GPGGA,135119.500,4308.5456,N,07728.2621,W,1,06,2.12,162.9,M,-34.4,M,,*50
$GPRMC,135119.750,A,4308.5456,N,07728.2656,W,38.01,271.20,020925,,,A*40
$GPGGA,135120.000,4308.5457,N,07728.2691,W,1,06,2.12,163.0,M,-34.4,M,,*5D
$GPRMC,135120.250,A,4308.5458,N,07728.2726,W,37.70,271.31,020925,,,A*4E
$GPGGA,135120.500,4308.5459,N,07728.2761,W,1,06,2.12,163.1,M,-34.4,M,,*59
$GPRMC,135120.750,A,4308.5460,N,07728.2795,W,37.63,270.88,020925,,,A*49
$GPGGA,135121.000,4308.5461,N,07728.2829,W,1,06,2.12,163.3,M,-34.4,M,,*57
$GPRMC,135121.250,A,4308.5461,N,07728.2864,W,37.81,270.68,020925,,,A*4F
$GPGGA,135121.500,4308.5462,N,07728.2899,W,1,06,2.12,163.4,M,-34.4,M,,*5D
$GPRMC,135121.750,A,4308.5462,N,07728.2934,W,37.99,271.04,020925,,,A*4F
$GPGGA,135122.000,4308.5463,N,07728.2968,W,1,06,2.12,163.4,M,-34.4,M,,*55
$GPRMC,135122.250,A,4308.5464,N,07728.3003,W,37.99,271.28,020925,,,A*4D
$GPGGA,135122.500,4308.5464,N,07728.3038,W,1,06,2.12,163.5,M,-34.4,M,,*5B
$GPRMC,135122.750,A,4308.5465,N,07728.3074,W,37.90,271.40,020925,,,A*4E
$GPGGA,135123.000,4308.5466,N,07728.3109,W,1,06,2.12,163.6,M,-34.4,M,,*5D
$GPRMC,135123.250,A,4308.5466,N,07728.3144,W,37.64,271.44,020925,,,A*44
$GPGGA,135123.500,4308.5467,N,07728.3179,W,1,06,2.12,163.6,M,-34.4,M,,*5E
$GPRMC,135123.750,A,4308.5468,N,07728.3214,W,37.93,271.35,020925,,,A*47
$GPGGA,135124.000,4308.5469,N,07728.3249,W,1,06,2.12,163.6,M,-34.4,M,,*52
$GPRMC,135124.250,A,4308.5470,N,07728.3284,W,37.79,271.16,020925,,,A*40
$GPGGA,135124.500,4308.5470,N,07728.3319,W,1,06,2.12,163.7,M,-34.4,M,,*5A
$GPRMC,135124.750,A,4308.5471,N,07728.3354,W,37.48,271.46,020925,,,A*4F
$GPGGA,135125.000,4308.5472,N,07728.3388,W,1,06,2.12,163.7,M,-34.4,M,,*54
$GPRMC,135125.250,A,4308.5473,N,07728.3422,W,37.07,271.84,020925,,,A*4A
$GPGGA,135125.500,4308.5473,N,07728.3457,W,1,06,2.12,163.7,M,-34.4,M,,*55
$GPRMC,135125.750,A,4308.5474,N,07728.3490,W,36.42,271.95,020925,,,A*41
$GPGGA,135126.000,4308.5476,N,07728.3524,W,1,06,2.12,163.9,M,-34.4,M,,*5D
$GPRMC,135126.250,A,4308.5477,N,07728.3558,W,36.33,272.23,020925,,,A*49
$GPGGA,135126.500,4308.5478,N,07728.3592,W,1,06,2.12,164.0,M,-34.4,M,,*55
$GPRMC,135126.750,A,4308.5479,N,07728.3626,W,36.10,272.45,020925,,,A*49
$GPGGA,135127.000,4308.5480,N,07728.3659,W,1,06,2.12,164.1,M,-34.4,M,,*53
$GPRMC,135127.250,A,4308.5481,N,07728.3693,W,35.89,271.97,020925,,,A*4B
$GPGGA,135127.500,4308.5481,N,07728.3726,W,1,06,2.12,164.1,M,-34.4,M,,*5E
$GPRMC,135127.750,A,4308.5482,N,07728.3759,W,35.81,270.91,020925,,,A*45
